{
  "image": "dataset/images/1034.png",
  "center_lat": 40.82815315315318,
  "center_lon": -73.94791184777303,
  "bbox": [
    -73.94940008069379,
    40.82702702702706,
    -73.94642361485225,
    40.82927927927931
  ],
  "unique_categories": [
    "amenity.ice_cream",
    "highway.bus_stop",
    "amenity.cafe",
    "amenity.restaurant"
  ],
  "poi_count_per_category": {
    "amenity.ice_cream": 1,
    "highway.bus_stop": 1,
    "amenity.cafe": 1,
    "amenity.restaurant": 5
  },
  "poi_count": 8,
  "pois": [
    {
      "name": "At The Wallace",
      "category": [
        "amenity.restaurant"
      ],
      "lat": 40.8286652,
      "lon": -73.948469,
      "osm_id": 2768296962,
      "osm_type": "node",
      "address": "Broadway",
      "road_geometry": null
    },
    {
      "name": "Unione Restaurant",
      "category": [
        "amenity.restaurant"
      ],
      "lat": 40.8292567,
      "lon": -73.947944,
      "osm_id": 4176635091,
      "osm_type": "node",
      "address": "Broadway",
      "road_geometry": null
    },
    {
      "name": "Chipped Cup Coffee & Victuals",
      "category": [
        "amenity.cafe"
      ],
      "lat": 40.8285671,
      "lon": -73.9485323,
      "osm_id": 4747210026,
      "osm_type": "node",
      "address": "Broadway",
      "road_geometry": null
    },
    {
      "name": "Broadway & West 149th Street",
      "category": [
        "highway.bus_stop"
      ],
      "lat": 40.8291688,
      "lon": -73.948186,
      "osm_id": 5281936993,
      "osm_type": "node",
      "address": null,
      "road_geometry": null
    },
    {
      "name": "Sita Thai",
      "category": [
        "amenity.restaurant"
      ],
      "lat": 40.8288048,
      "lon": -73.9491362,
      "osm_id": 8333828561,
      "osm_type": "node",
      "address": null,
      "road_geometry": null
    },
    {
      "name": "Baskin-Robbins",
      "category": [
        "amenity.ice_cream"
      ],
      "lat": 40.8283269,
      "lon": -73.9485866,
      "osm_id": 8333828572,
      "osm_type": "node",
      "address": "Broadway",
      "road_geometry": null
    },
    {
      "name": "Jumbos Pizza Coffee Shop",
      "category": [
        "amenity.restaurant"
      ],
      "lat": 40.8280217,
      "lon": -73.9489143,
      "osm_id": 8333828573,
      "osm_type": "node",
      "address": null,
      "road_geometry": null
    },
    {
      "name": "Broadway Wholesome Food & Beer Garden",
      "category": [
        "amenity.restaurant"
      ],
      "lat": 40.8275316,
      "lon": -73.9493119,
      "osm_id": 8333828574,
      "osm_type": "node",
      "address": "Broadway",
      "road_geometry": null
    }
  ],
  "refinement": {
    "original_poi_count": 15,
    "removed_count": 7,
    "model": "gemini-2.5-flash"
  }
}