{
  "image": "dataset/images/109.png",
  "center_lat": 40.81013513513514,
  "center_lon": -73.95982862393338,
  "bbox": [
    -73.96131645267658,
    40.80900900900902,
    -73.95834079519017,
    40.81126126126127
  ],
  "unique_categories": [
    "amenity.place_of_worship",
    "shop.wine",
    "shop.kiosk",
    "amenity.pharmacy",
    "shop.hardware",
    "amenity.college",
    "highway.bus_stop",
    "shop.optician",
    "shop.beauty",
    "amenity.cafe"
  ],
  "poi_count_per_category": {
    "amenity.place_of_worship": 1,
    "shop.wine": 1,
    "shop.kiosk": 2,
    "amenity.pharmacy": 1,
    "shop.hardware": 1,
    "amenity.college": 1,
    "highway.bus_stop": 3,
    "shop.optician": 1,
    "shop.beauty": 1,
    "amenity.cafe": 1
  },
  "poi_count": 13,
  "pois": [
    {
      "name": "Corpus Christi Church",
      "category": [
        "amenity.place_of_worship"
      ],
      "lat": 40.8111111,
      "lon": -73.9608333,
      "osm_id": 357620948,
      "osm_type": "node",
      "address": "West 121st Street",
      "road_geometry": null
    },
    {
      "name": "Blue Java",
      "category": [
        "amenity.cafe"
      ],
      "lat": 40.8094957,
      "lon": -73.9602878,
      "osm_id": 2340960685,
      "osm_type": "node",
      "address": null,
      "road_geometry": null
    },
    {
      "name": "Columbia Opticians",
      "category": [
        "shop.optician"
      ],
      "lat": 40.8102639,
      "lon": -73.9587532,
      "osm_id": 2768438939,
      "osm_type": "node",
      "address": "Amsterdam Avenue",
      "road_geometry": null
    },
    {
      "name": "Hartley Chemist Pharmacy",
      "category": [
        "amenity.pharmacy"
      ],
      "lat": 40.8091195,
      "lon": -73.9591532,
      "osm_id": 2768450166,
      "osm_type": "node",
      "address": "Amsterdam Avenue",
      "road_geometry": null
    },
    {
      "name": "West 120 st/Amsterdam Avenue SB",
      "category": [
        "highway.bus_stop"
      ],
      "lat": 40.8091208,
      "lon": -73.9595173,
      "osm_id": 3135723808,
      "osm_type": "node",
      "address": null,
      "road_geometry": null
    },
    {
      "name": "Amsterdam Avenue & West 120th Street",
      "category": [
        "highway.bus_stop"
      ],
      "lat": 40.8095496,
      "lon": -73.9589214,
      "osm_id": 3135730329,
      "osm_type": "node",
      "address": null,
      "road_geometry": null
    },
    {
      "name": "TC Courtyard",
      "category": [
        "amenity.college"
      ],
      "lat": 40.8101651,
      "lon": -73.9600302,
      "osm_id": 5515370923,
      "osm_type": "node",
      "address": null,
      "road_geometry": null
    },
    {
      "name": "Vino Fino",
      "category": [
        "shop.wine"
      ],
      "lat": 40.810375,
      "lon": -73.958715,
      "osm_id": 6925950132,
      "osm_type": "node",
      "address": "Amsterdam Avenue",
      "road_geometry": null
    },
    {
      "name": "Revive Spa & Salon",
      "category": [
        "shop.beauty"
      ],
      "lat": 40.8097457,
      "lon": -73.9586465,
      "osm_id": 6927650854,
      "osm_type": "node",
      "address": "Amsterdam Avenue",
      "road_geometry": null
    },
    {
      "name": "Clinton Supply Company",
      "category": [
        "shop.hardware"
      ],
      "lat": 40.8105995,
      "lon": -73.9585406,
      "osm_id": 6991157015,
      "osm_type": "node",
      "address": "Amsterdam Avenue",
      "road_geometry": null
    },
    {
      "name": "LinkNYC",
      "category": [
        "shop.kiosk"
      ],
      "lat": 40.8099828,
      "lon": -73.9588851,
      "osm_id": 7004396462,
      "osm_type": "node",
      "address": null,
      "road_geometry": null
    },
    {
      "name": "LinkNYC",
      "category": [
        "shop.kiosk"
      ],
      "lat": 40.8101272,
      "lon": -73.9587896,
      "osm_id": 7004396464,
      "osm_type": "node",
      "address": null,
      "road_geometry": null
    },
    {
      "name": "Amsterdam Avenue & West 120th Street",
      "category": [
        "highway.bus_stop"
      ],
      "lat": 40.8095486,
      "lon": -73.9591992,
      "osm_id": 8703182175,
      "osm_type": "node",
      "address": null,
      "road_geometry": null
    }
  ],
  "refinement": {
    "original_poi_count": 18,
    "removed_count": 5,
    "model": "gemini-2.5-flash"
  }
}