{
  "image": "dataset/images/158.png",
  "center_lat": 18.943648648648644,
  "center_lon": 72.826190603622,
  "bbox": [
    72.825,
    18.942522522522516,
    72.82738120724399,
    18.944774774774768
  ],
  "unique_categories": [
    "shop.bakery",
    "amenity.pharmacy",
    "amenity.place_of_worship",
    "amenity.restaurant"
  ],
  "poi_count_per_category": {
    "shop.bakery": 1,
    "amenity.pharmacy": 1,
    "amenity.place_of_worship": 1,
    "amenity.restaurant": 1
  },
  "poi_count": 4,
  "pois": [
    {
      "name": "Bobby's",
      "category": [
        "amenity.pharmacy"
      ],
      "lat": 18.9446858,
      "lon": 72.8270162,
      "osm_id": 605221678,
      "osm_type": "node",
      "address": null,
      "road_geometry": null
    },
    {
      "name": "Our Lady of Seven Dolours",
      "category": [
        "amenity.place_of_worship"
      ],
      "lat": 18.9439146,
      "lon": 72.8258253,
      "osm_id": 605221860,
      "osm_type": "node",
      "address": null,
      "road_geometry": null
    },
    {
      "name": "Paris Bakery",
      "category": [
        "shop.bakery"
      ],
      "lat": 18.9445101,
      "lon": 72.8262529,
      "osm_id": 1033530554,
      "osm_type": "node",
      "address": null,
      "road_geometry": null
    },
    {
      "name": "Sassanian",
      "category": [
        "amenity.restaurant"
      ],
      "lat": 18.9427789,
      "lon": 72.8269322,
      "osm_id": 9574698658,
      "osm_type": "node",
      "address": null,
      "road_geometry": null
    }
  ],
  "refinement": {
    "original_poi_count": 5,
    "removed_count": 1,
    "model": "gemini-2.5-flash"
  }
}