{
  "image": "dataset/images/21.png",
  "center_lat": 51.50612612612613,
  "center_lon": -0.08009886697890621,
  "bbox": [
    -0.08190806088991474,
    51.505,
    -0.07828967306789769,
    51.50725225225226
  ],
  "unique_categories": [
    "amenity.restaurant",
    "shop.ticket",
    "tourism.artwork",
    "amenity.fast_food",
    "amenity.information",
    "tourism.information"
  ],
  "poi_count_per_category": {
    "amenity.restaurant": 2,
    "shop.ticket": 1,
    "tourism.artwork": 1,
    "amenity.fast_food": 1,
    "amenity.information": 2,
    "tourism.information": 2
  },
  "poi_count": 7,
  "pois": [
    {
      "name": "Tavolino",
      "category": [
        "amenity.restaurant"
      ],
      "lat": 51.5053308,
      "lon": -0.0801739,
      "osm_id": 296615758,
      "osm_type": "node",
      "address": "More London Place",
      "road_geometry": null
    },
    {
      "name": "Five Guys",
      "category": [
        "amenity.fast_food"
      ],
      "lat": 51.5052298,
      "lon": -0.0802465,
      "osm_id": 296615761,
      "osm_type": "node",
      "address": "More London Place",
      "road_geometry": null
    },
    {
      "name": "Gaucho",
      "category": [
        "amenity.restaurant"
      ],
      "lat": 51.5051331,
      "lon": -0.0803967,
      "osm_id": 296615763,
      "osm_type": "node",
      "address": "More London Riverside",
      "road_geometry": null
    },
    {
      "name": "Full Stop Slipstream",
      "category": [
        "tourism.artwork"
      ],
      "lat": 51.5054031,
      "lon": -0.0795977,
      "osm_id": 729896081,
      "osm_type": "node",
      "address": null,
      "road_geometry": null
    },
    {
      "name": "Braille Map",
      "category": [
        "amenity.information",
        "tourism.information"
      ],
      "lat": 51.5051038,
      "lon": -0.0787288,
      "osm_id": 729896084,
      "osm_type": "node",
      "address": null,
      "road_geometry": null
    },
    {
      "name": "Braille Map",
      "category": [
        "amenity.information",
        "tourism.information"
      ],
      "lat": 51.5050829,
      "lon": -0.0798952,
      "osm_id": 729896099,
      "osm_type": "node",
      "address": null,
      "road_geometry": null
    },
    {
      "name": "HMS Belfast ticket office",
      "category": [
        "shop.ticket"
      ],
      "lat": 51.5060299,
      "lon": -0.0813948,
      "osm_id": 13332725571,
      "osm_type": "node",
      "address": null,
      "road_geometry": null
    }
  ],
  "refinement": {
    "original_poi_count": 11,
    "removed_count": 4,
    "model": "gemini-2.5-flash"
  }
}