{
  "image": "dataset/images/245.png",
  "center_lat": 37.494126126126126,
  "center_lon": 127.03193522509659,
  "bbox": [
    127.03051590722565,
    37.493,
    127.03335454296753,
    37.49525225225226
  ],
  "unique_categories": [
    "amenity.cafe",
    "amenity.bicycle_rental",
    "shop.supermarket",
    "amenity.restaurant"
  ],
  "poi_count_per_category": {
    "amenity.cafe": 1,
    "amenity.bicycle_rental": 1,
    "shop.supermarket": 1,
    "amenity.restaurant": 7
  },
  "poi_count": 10,
  "pois": [
    {
      "name": "\ub7ed\ud0a4\ud560\uc778\ub9c8\ud2b8",
      "category": [
        "shop.supermarket"
      ],
      "lat": 37.49365,
      "lon": 127.0326295,
      "osm_id": 2289919505,
      "osm_type": "node",
      "address": null,
      "road_geometry": null
    },
    {
      "name": "\uc2a4\ud0c0\ubc85\uc2a4",
      "category": [
        "amenity.cafe"
      ],
      "lat": 37.4941455,
      "lon": 127.0330742,
      "osm_id": 7113472586,
      "osm_type": "node",
      "address": null,
      "road_geometry": null
    },
    {
      "name": "Sudae soup, blood sausage",
      "category": [
        "amenity.restaurant"
      ],
      "lat": 37.4950293,
      "lon": 127.0314485,
      "osm_id": 7207577685,
      "osm_type": "node",
      "address": null,
      "road_geometry": null
    },
    {
      "name": "\uc0dd\ud65c\ub9e5\uc8fc \uac15\ub0a8\uc5ed\uc810",
      "category": [
        "amenity.restaurant"
      ],
      "lat": 37.4950444,
      "lon": 127.0308807,
      "osm_id": 12073283981,
      "osm_type": "node",
      "address": "\uac15\ub0a8\ub300\ub85c78\uae38",
      "road_geometry": null
    },
    {
      "name": "\ubb3c\uace0\uae30",
      "category": [
        "amenity.restaurant"
      ],
      "lat": 37.4943223,
      "lon": 127.0324523,
      "osm_id": 12074337897,
      "osm_type": "node",
      "address": "\uc5ed\uc0bc\ub85c5\uae38",
      "road_geometry": null
    },
    {
      "name": "\ub0a8\ub3c4\ub791",
      "category": [
        "amenity.restaurant"
      ],
      "lat": 37.4942379,
      "lon": 127.0321269,
      "osm_id": 12074413116,
      "osm_type": "node",
      "address": "\uc5ed\uc0bc\ub85c5\uae38",
      "road_geometry": null
    },
    {
      "name": "\ucf54\ub9ac\uc548\uce58\ud0a8\ud074\ub7fd",
      "category": [
        "amenity.restaurant"
      ],
      "lat": 37.4951373,
      "lon": 127.0310662,
      "osm_id": 12074545452,
      "osm_type": "node",
      "address": "\uac15\ub0a8\ub300\ub85c78\uae38",
      "road_geometry": null
    },
    {
      "name": "\ud478\ub978\ubdd4\ud398",
      "category": [
        "amenity.restaurant"
      ],
      "lat": 37.4947007,
      "lon": 127.0306254,
      "osm_id": 12074594149,
      "osm_type": "node",
      "address": "\uc5ed\uc0bc\ub85c1\uae38",
      "road_geometry": null
    },
    {
      "name": "\ud55c\uc131\uc591\uaf2c\uce58 \uac15\ub0a82\ud638\uc810",
      "category": [
        "amenity.restaurant"
      ],
      "lat": 37.4943625,
      "lon": 127.031545,
      "osm_id": 12074639100,
      "osm_type": "node",
      "address": "\uc5ed\uc0bc\ub85c3\uae38",
      "road_geometry": null
    },
    {
      "name": "\uc5ed\uc0bc1\ub3d9 \uc8fc\ubbfc\uc13c\ud130",
      "category": [
        "amenity.bicycle_rental"
      ],
      "lat": 37.4952126,
      "lon": 127.0330277,
      "osm_id": 12372984356,
      "osm_type": "node",
      "address": null,
      "road_geometry": null
    }
  ],
  "refinement": {
    "original_poi_count": 22,
    "removed_count": 12,
    "model": "gemini-2.5-flash"
  }
}