{
  "image": "dataset/images/255.png",
  "center_lat": 37.50088288288289,
  "center_lon": 127.02625833887808,
  "bbox": [
    127.0248388925854,
    37.49975675675677,
    127.02767778517078,
    37.50200900900902
  ],
  "unique_categories": [
    "highway.bus_stop",
    "amenity.cafe",
    "shop.convenience",
    "shop.gift",
    "amenity.bar",
    "amenity.restaurant",
    "shop.clothes",
    "shop.books",
    "amenity.fast_food",
    "shop.department_store",
    "amenity.clinic"
  ],
  "poi_count_per_category": {
    "highway.bus_stop": 6,
    "amenity.cafe": 2,
    "shop.convenience": 6,
    "shop.gift": 1,
    "amenity.bar": 1,
    "amenity.restaurant": 5,
    "shop.clothes": 2,
    "shop.books": 1,
    "amenity.fast_food": 2,
    "shop.department_store": 1,
    "amenity.clinic": 2
  },
  "poi_count": 29,
  "pois": [
    {
      "name": "\uc9c0\ud558\ucca02\ud638\uc120.\uac15\ub0a8\uc5ed(\uc911)",
      "category": [
        "highway.bus_stop"
      ],
      "lat": 37.5008696,
      "lon": 127.0263072,
      "osm_id": 357840217,
      "osm_type": "node",
      "address": null,
      "road_geometry": null
    },
    {
      "name": "\uac15\ub0a8\uc5ed",
      "category": [
        "highway.bus_stop"
      ],
      "lat": 37.5002114,
      "lon": 127.0267345,
      "osm_id": 357884649,
      "osm_type": "node",
      "address": null,
      "road_geometry": null
    },
    {
      "name": "\uac15\ub0a8\uc5ed",
      "category": [
        "highway.bus_stop"
      ],
      "lat": 37.4999282,
      "lon": 127.0263182,
      "osm_id": 357885448,
      "osm_type": "node",
      "address": null,
      "road_geometry": null
    },
    {
      "name": "\uc9c0\ud558\ucca02\ud638\uc120\uac15\ub0a8\uc5ed(\uc911)",
      "category": [
        "highway.bus_stop"
      ],
      "lat": 37.5018031,
      "lon": 127.0257319,
      "osm_id": 357966956,
      "osm_type": "node",
      "address": null,
      "road_geometry": null
    },
    {
      "name": "Wood Stock",
      "category": [
        "amenity.bar"
      ],
      "lat": 37.5005677,
      "lon": 127.024887,
      "osm_id": 4250163825,
      "osm_type": "node",
      "address": "\uc11c\ucd08\ub300\ub85c75\uae38",
      "road_geometry": null
    },
    {
      "name": "Uniqlo",
      "category": [
        "shop.clothes"
      ],
      "lat": 37.5007387,
      "lon": 127.0267002,
      "osm_id": 5578077423,
      "osm_type": "node",
      "address": "\uac15\ub0a8\ub300\ub85c",
      "road_geometry": null
    },
    {
      "name": "\uc54c\ub77c\ub518",
      "category": [
        "shop.books"
      ],
      "lat": 37.5015279,
      "lon": 127.0263683,
      "osm_id": 5894297786,
      "osm_type": "node",
      "address": "\uac15\ub0a8\ub300\ub85c",
      "road_geometry": null
    },
    {
      "name": "\uc774\ub9c8\ud2b824",
      "category": [
        "shop.convenience"
      ],
      "lat": 37.5013219,
      "lon": 127.0248494,
      "osm_id": 6300473287,
      "osm_type": "node",
      "address": null,
      "road_geometry": null
    },
    {
      "name": "primo bacio baci Italian",
      "category": [
        "amenity.restaurant"
      ],
      "lat": 37.4998878,
      "lon": 127.0271511,
      "osm_id": 7206116085,
      "osm_type": "node",
      "address": null,
      "road_geometry": null
    },
    {
      "name": "Folder Store",
      "category": [
        "shop.department_store"
      ],
      "lat": 37.5015104,
      "lon": 127.0252977,
      "osm_id": 7208699085,
      "osm_type": "node",
      "address": null,
      "road_geometry": null
    },
    {
      "name": "\ud3f4\ub354",
      "category": [
        "shop.clothes"
      ],
      "lat": 37.5015385,
      "lon": 127.025415,
      "osm_id": 7211100585,
      "osm_type": "node",
      "address": null,
      "road_geometry": null
    },
    {
      "name": "\uc138\ube10\uc77c\ub808\ube10",
      "category": [
        "shop.convenience"
      ],
      "lat": 37.5018418,
      "lon": 127.0267448,
      "osm_id": 7489399618,
      "osm_type": "node",
      "address": null,
      "road_geometry": null
    },
    {
      "name": "\uc138\ube10\uc77c\ub808\ube10",
      "category": [
        "shop.convenience"
      ],
      "lat": 37.500085,
      "lon": 127.0254338,
      "osm_id": 7597460220,
      "osm_type": "node",
      "address": null,
      "road_geometry": null
    },
    {
      "name": "\uc138\ube10\uc77c\ub808\ube10",
      "category": [
        "shop.convenience"
      ],
      "lat": 37.5008469,
      "lon": 127.0252762,
      "osm_id": 7597496905,
      "osm_type": "node",
      "address": null,
      "road_geometry": null
    },
    {
      "name": "\uc138\ube10\uc77c\ub808\ube10",
      "category": [
        "shop.convenience"
      ],
      "lat": 37.5013924,
      "lon": 127.02491,
      "osm_id": 7597500312,
      "osm_type": "node",
      "address": null,
      "road_geometry": null
    },
    {
      "name": "\uc2e0\ub17c\ud604\uc5ed",
      "category": [
        "highway.bus_stop"
      ],
      "lat": 37.5010162,
      "lon": 127.02644,
      "osm_id": 9322016182,
      "osm_type": "node",
      "address": null,
      "road_geometry": null
    },
    {
      "name": "\uac15\ub0a8\uc5ed",
      "category": [
        "highway.bus_stop"
      ],
      "lat": 37.4999348,
      "lon": 127.0269678,
      "osm_id": 9322016184,
      "osm_type": "node",
      "address": null,
      "road_geometry": null
    },
    {
      "name": "Artbox",
      "category": [
        "shop.convenience"
      ],
      "lat": 37.5003742,
      "lon": 127.0268682,
      "osm_id": 9693953917,
      "osm_type": "node",
      "address": null,
      "road_geometry": null
    },
    {
      "name": "\ub77c\uc778\ud504\ub80c\uc988 \ud50c\ub798\uadf8\uc2ed \uc2a4\ud1a0\uc5b4",
      "category": [
        "shop.gift"
      ],
      "lat": 37.501326,
      "lon": 127.0255682,
      "osm_id": 9776562203,
      "osm_type": "node",
      "address": null,
      "road_geometry": null
    },
    {
      "name": "Daily Espresso Bar",
      "category": [
        "amenity.cafe"
      ],
      "lat": 37.5005317,
      "lon": 127.0267709,
      "osm_id": 9776629491,
      "osm_type": "node",
      "address": null,
      "road_geometry": null
    },
    {
      "name": "\ub9d8\uc2a4\ud130\uce58",
      "category": [
        "amenity.fast_food"
      ],
      "lat": 37.5016186,
      "lon": 127.0268556,
      "osm_id": 9789220861,
      "osm_type": "node",
      "address": null,
      "road_geometry": null
    },
    {
      "name": "\uc138\ub2c8\uc544 \ud074\ub9ac\ub2c9",
      "category": [
        "amenity.clinic"
      ],
      "lat": 37.5016997,
      "lon": 127.0253899,
      "osm_id": 10982215606,
      "osm_type": "node",
      "address": "\uac15\ub0a8\ub300\ub85c",
      "road_geometry": null
    },
    {
      "name": "Five Guys",
      "category": [
        "amenity.fast_food"
      ],
      "lat": 37.5011989,
      "lon": 127.0256494,
      "osm_id": 11443696241,
      "osm_type": "node",
      "address": "\uac15\ub0a8\ub300\ub85c",
      "road_geometry": null
    },
    {
      "name": "\uc218\ub2e4",
      "category": [
        "amenity.restaurant"
      ],
      "lat": 37.5002839,
      "lon": 127.0250329,
      "osm_id": 12074564999,
      "osm_type": "node",
      "address": "\uac15\ub0a8\ub300\ub85c65\uae38",
      "road_geometry": null
    },
    {
      "name": "Wang's Pub",
      "category": [
        "amenity.restaurant"
      ],
      "lat": 37.5007905,
      "lon": 127.0275585,
      "osm_id": 12074582641,
      "osm_type": "node",
      "address": null,
      "road_geometry": null
    },
    {
      "name": "\ubcf8\ud1a0\ub2ed\uac08\ube44 \uac15\ub0a8\uc810",
      "category": [
        "amenity.restaurant"
      ],
      "lat": 37.5000616,
      "lon": 127.0261429,
      "osm_id": 12074650819,
      "osm_type": "node",
      "address": "\uac15\ub0a8\ub300\ub85c",
      "road_geometry": null
    },
    {
      "name": "\uc720\ub2c8\ub124 \uace0\uae43\uac04",
      "category": [
        "amenity.restaurant"
      ],
      "lat": 37.5005667,
      "lon": 127.0274033,
      "osm_id": 12074754106,
      "osm_type": "node",
      "address": "\uac15\ub0a8\ub300\ub85c98\uae38",
      "road_geometry": null
    },
    {
      "name": "\uace0\uc591\uc774\uce74\ud398 \ubaa8\uce74 \uac15\ub0a8\uc810",
      "category": [
        "amenity.cafe"
      ],
      "lat": 37.5000803,
      "lon": 127.0273133,
      "osm_id": 12470798443,
      "osm_type": "node",
      "address": "\ud14c\ud5e4\ub780\ub85c1\uae38",
      "road_geometry": null
    },
    {
      "name": "\uc624\ud638\uc131\ud615\uc678\uacfc",
      "category": [
        "amenity.clinic"
      ],
      "lat": 37.5000361,
      "lon": 127.0260555,
      "osm_id": 12497494085,
      "osm_type": "node",
      "address": "\uac15\ub0a8\ub300\ub85c",
      "road_geometry": null
    }
  ],
  "refinement": {
    "original_poi_count": 94,
    "removed_count": 65,
    "model": "gemini-2.5-flash"
  }
}