{
  "image": "dataset/images/259.png",
  "center_lat": 37.503135135135146,
  "center_lon": 127.02625846732849,
  "bbox": [
    127.024838978219,
    37.50200900900902,
    127.02767795643798,
    37.50426126126128
  ],
  "unique_categories": [
    "shop.cosmetics",
    "highway.bus_stop",
    "amenity.cafe",
    "shop.convenience",
    "amenity.restaurant",
    "shop.butcher",
    "shop.clothes",
    "amenity.post_office",
    "railway.stop",
    "amenity.fast_food",
    "shop.beauty",
    "amenity.nightclub"
  ],
  "poi_count_per_category": {
    "shop.cosmetics": 1,
    "highway.bus_stop": 4,
    "amenity.cafe": 2,
    "shop.convenience": 1,
    "amenity.restaurant": 13,
    "shop.butcher": 1,
    "shop.clothes": 1,
    "amenity.post_office": 1,
    "railway.stop": 2,
    "amenity.fast_food": 1,
    "shop.beauty": 1,
    "amenity.nightclub": 1
  },
  "poi_count": 29,
  "pois": [
    {
      "name": "\uc2e0\ub17c\ud604\uc5ed",
      "category": [
        "highway.bus_stop"
      ],
      "lat": 37.502104,
      "lon": 127.025869,
      "osm_id": 357881940,
      "osm_type": "node",
      "address": null,
      "road_geometry": null
    },
    {
      "name": "\uc2e0\ub17c\ud604\uc5ed.(\uad6c)\uad50\ubcf4\ud0c0\uc6cc\uc0ac\uac70\ub9ac",
      "category": [
        "highway.bus_stop"
      ],
      "lat": 37.5027185,
      "lon": 127.0251424,
      "osm_id": 357882322,
      "osm_type": "node",
      "address": null,
      "road_geometry": null
    },
    {
      "name": "\uc11c\uc6b8\uc5ed\uc0bc\ub3d9\uc6b0\uccb4\uad6d",
      "category": [
        "amenity.post_office"
      ],
      "lat": 37.5034023,
      "lon": 127.0254123,
      "osm_id": 368875325,
      "osm_type": "node",
      "address": "\uac15\ub0a8\ub300\ub85c",
      "road_geometry": null
    },
    {
      "name": "Nike",
      "category": [
        "shop.clothes"
      ],
      "lat": 37.502298,
      "lon": 127.0259218,
      "osm_id": 4650476990,
      "osm_type": "node",
      "address": null,
      "road_geometry": null
    },
    {
      "name": "\ubc18\uc5d0\uc2a4",
      "category": [
        "shop.beauty"
      ],
      "lat": 37.5028621,
      "lon": 127.0274496,
      "osm_id": 4696745741,
      "osm_type": "node",
      "address": "\ubd09\uc740\uc0ac\ub85c6\uae38",
      "road_geometry": null
    },
    {
      "name": "Shake Shack",
      "category": [
        "amenity.fast_food"
      ],
      "lat": 37.502837,
      "lon": 127.0257105,
      "osm_id": 4883470839,
      "osm_type": "node",
      "address": "\uac15\ub0a8\ub300\ub85c",
      "road_geometry": null
    },
    {
      "name": "\ucf54\uc694\ud14c\uc5b4\uae00\ub9ac\ub77c\uc6b4\uc9c0",
      "category": [
        "amenity.nightclub"
      ],
      "lat": 37.5025855,
      "lon": 127.0249141,
      "osm_id": 6300474685,
      "osm_type": "node",
      "address": null,
      "road_geometry": null
    },
    {
      "name": "Bongchu Jjmdak, stew Chix",
      "category": [
        "amenity.restaurant"
      ],
      "lat": 37.5021935,
      "lon": 127.0263673,
      "osm_id": 7206003285,
      "osm_type": "node",
      "address": null,
      "road_geometry": null
    },
    {
      "name": "Ramen",
      "category": [
        "amenity.restaurant"
      ],
      "lat": 37.502907,
      "lon": 127.0266693,
      "osm_id": 7207536685,
      "osm_type": "node",
      "address": null,
      "road_geometry": null
    },
    {
      "name": "Olive Young",
      "category": [
        "shop.cosmetics"
      ],
      "lat": 37.5031064,
      "lon": 127.0255807,
      "osm_id": 8323774185,
      "osm_type": "node",
      "address": null,
      "road_geometry": null
    },
    {
      "name": "\uc2a4\ud0c0\ubc85\uc2a4",
      "category": [
        "amenity.cafe"
      ],
      "lat": 37.5032213,
      "lon": 127.0255351,
      "osm_id": 8323774186,
      "osm_type": "node",
      "address": null,
      "road_geometry": null
    },
    {
      "name": "\uc2e0\ub17c\ud604",
      "category": [
        "railway.stop"
      ],
      "lat": 37.5035711,
      "lon": 127.0249157,
      "osm_id": 9776192970,
      "osm_type": "node",
      "address": null,
      "road_geometry": null
    },
    {
      "name": "\uc2e0\ub17c\ud604",
      "category": [
        "railway.stop"
      ],
      "lat": 37.5035631,
      "lon": 127.0248903,
      "osm_id": 9776192971,
      "osm_type": "node",
      "address": null,
      "road_geometry": null
    },
    {
      "name": "\uc704\ud2b8\uc564\ubbf8\ud2b8",
      "category": [
        "shop.butcher"
      ],
      "lat": 37.5036706,
      "lon": 127.0274712,
      "osm_id": 9889673590,
      "osm_type": "node",
      "address": "\uac15\ub0a8\ub300\ub85c110\uae38",
      "road_geometry": null
    },
    {
      "name": "\uac15\uc0bc\uac00\ub4e0",
      "category": [
        "amenity.restaurant"
      ],
      "lat": 37.5022562,
      "lon": 127.0273481,
      "osm_id": 11050638466,
      "osm_type": "node",
      "address": "\uac15\ub0a8\ub300\ub85c102\uae38",
      "road_geometry": null
    },
    {
      "name": "\ud314\ubc31\uc9d1",
      "category": [
        "amenity.restaurant"
      ],
      "lat": 37.5036223,
      "lon": 127.025899,
      "osm_id": 11962328301,
      "osm_type": "node",
      "address": "\ubd09\uc740\uc0ac\ub85c2\uae38",
      "road_geometry": null
    },
    {
      "name": "\ud558\uc774\uc6e8\uc774\ub4dc\ub77c\uc774\ubc84 \uac15\ub0a8\uc2e0\ub17c\ud604",
      "category": [
        "amenity.restaurant"
      ],
      "lat": 37.5027268,
      "lon": 127.0274766,
      "osm_id": 12074271929,
      "osm_type": "node",
      "address": "\uac15\ub0a8\ub300\ub85c102\uae38",
      "road_geometry": null
    },
    {
      "name": "\ud558\uc774\uc6e8\uc774\ub4dc\ub77c\uc774\ubc84 \uac15\ub0a8\uc2e0\ub17c\ud604",
      "category": [
        "amenity.restaurant"
      ],
      "lat": 37.5027104,
      "lon": 127.0274399,
      "osm_id": 12074271930,
      "osm_type": "node",
      "address": "\uac15\ub0a8\ub300\ub85c102\uae38",
      "road_geometry": null
    },
    {
      "name": "\uc587\uc740\uc9d1",
      "category": [
        "amenity.restaurant"
      ],
      "lat": 37.5021615,
      "lon": 127.0267884,
      "osm_id": 12074378423,
      "osm_type": "node",
      "address": null,
      "road_geometry": null
    },
    {
      "name": "\uc774\uad6c\ud38d4\ud638\uc810(29PUB)",
      "category": [
        "amenity.restaurant"
      ],
      "lat": 37.5038304,
      "lon": 127.0260131,
      "osm_id": 12074420765,
      "osm_type": "node",
      "address": "\uac15\ub0a8\ub300\ub85c110\uae38",
      "road_geometry": null
    },
    {
      "name": "\uc774\uc790\uce74\uc57c \ub098\ubb34(\uac15\ub0a8\uc5edCGV\uc810)",
      "category": [
        "amenity.restaurant"
      ],
      "lat": 37.5022522,
      "lon": 127.0262763,
      "osm_id": 12074428244,
      "osm_type": "node",
      "address": "\uac15\ub0a8\ub300\ub85c",
      "road_geometry": null
    },
    {
      "name": "\ubc24\ubcc4 \ud3ec\ucc28 \ub77c\uc6b4\uc9c0",
      "category": [
        "amenity.restaurant"
      ],
      "lat": 37.5022785,
      "lon": 127.0267591,
      "osm_id": 12074429532,
      "osm_type": "node",
      "address": "\uac15\ub0a8\ub300\ub85c102\uae38",
      "road_geometry": null
    },
    {
      "name": "\ubcf8\ub3c4\uc2dc\ub77d",
      "category": [
        "amenity.restaurant"
      ],
      "lat": 37.5039506,
      "lon": 127.0260924,
      "osm_id": 12074643195,
      "osm_type": "node",
      "address": "\uac15\ub0a8\ub300\ub85c110\uae38",
      "road_geometry": null
    },
    {
      "name": "\uac15\ub0a8\ucee4\ud53c",
      "category": [
        "amenity.restaurant"
      ],
      "lat": 37.5023113,
      "lon": 127.0267795,
      "osm_id": 12074771458,
      "osm_type": "node",
      "address": "\uac15\ub0a8\ub300\ub85c102\uae38",
      "road_geometry": null
    },
    {
      "name": "\ubc31\uc18c\uc815",
      "category": [
        "amenity.restaurant"
      ],
      "lat": 37.503957,
      "lon": 127.0255203,
      "osm_id": 12192160738,
      "osm_type": "node",
      "address": "\ubd09\uc740\uc0ac\ub85c2\uae38",
      "road_geometry": null
    },
    {
      "name": "GS25",
      "category": [
        "shop.convenience"
      ],
      "lat": 37.5029891,
      "lon": 127.0268307,
      "osm_id": 12525775699,
      "osm_type": "node",
      "address": null,
      "road_geometry": null
    },
    {
      "name": "\uc2a4\ud0c0\ubc85\uc2a4",
      "category": [
        "amenity.cafe"
      ],
      "lat": 37.5020894,
      "lon": 127.0266038,
      "osm_id": 12843272313,
      "osm_type": "node",
      "address": null,
      "road_geometry": null
    },
    {
      "name": "\uc2e0\ub17c\ud604\uc5ed.(\uad6c)\uad50\ubcf4\ud0c0\uc6cc\uc0ac\uac70\ub9ac",
      "category": [
        "highway.bus_stop"
      ],
      "lat": 37.5027822,
      "lon": 127.0251058,
      "osm_id": 13014811573,
      "osm_type": "node",
      "address": null,
      "road_geometry": null
    },
    {
      "name": "\uad50\ubcf4\ud0c0\uc6cc\uc55e",
      "category": [
        "highway.bus_stop"
      ],
      "lat": 37.5028516,
      "lon": 127.0250732,
      "osm_id": 13014811574,
      "osm_type": "node",
      "address": null,
      "road_geometry": null
    }
  ],
  "refinement": {
    "original_poi_count": 85,
    "removed_count": 56,
    "model": "gemini-2.5-flash"
  }
}