{
  "image": "dataset/images/269.png",
  "center_lat": -23.568873873873873,
  "center_lon": -46.64657058286406,
  "bbox": [
    -46.64779921067312,
    -23.57,
    -46.645341955054995,
    -23.56774774774775
  ],
  "unique_categories": [
    "amenity.taxi",
    "amenity.pharmacy",
    "amenity.ice_cream",
    "amenity.cafe",
    "shop.bakery",
    "amenity.parking_space",
    "shop.tea",
    "amenity.bank",
    "shop.clothes",
    "amenity.fast_food",
    "amenity.parking",
    "amenity.doctors",
    "shop.department_store",
    "shop.computer"
  ],
  "poi_count_per_category": {
    "amenity.taxi": 1,
    "amenity.pharmacy": 1,
    "amenity.ice_cream": 1,
    "amenity.cafe": 1,
    "shop.bakery": 1,
    "amenity.parking_space": 1,
    "shop.tea": 1,
    "amenity.bank": 2,
    "shop.clothes": 1,
    "amenity.fast_food": 3,
    "amenity.parking": 1,
    "amenity.doctors": 1,
    "shop.department_store": 1,
    "shop.computer": 1
  },
  "poi_count": 15,
  "pois": [
    {
      "name": "Caixa Econ\u00f4mica Federal",
      "category": [
        "amenity.bank"
      ],
      "lat": -23.5691422,
      "lon": -46.6466948,
      "osm_id": 3621336502,
      "osm_type": "node",
      "address": "Avenida Paulista",
      "road_geometry": null
    },
    {
      "name": "Lanchonete Garoa Paulista",
      "category": [
        "amenity.fast_food"
      ],
      "lat": -23.5690493,
      "lon": -46.6468168,
      "osm_id": 4128750615,
      "osm_type": "node",
      "address": "Avenida Paulista",
      "road_geometry": null
    },
    {
      "name": "Americanas Express",
      "category": [
        "shop.department_store"
      ],
      "lat": -23.5689628,
      "lon": -46.6469304,
      "osm_id": 4128823612,
      "osm_type": "node",
      "address": "Avenida Paulista",
      "road_geometry": null
    },
    {
      "name": "Cincinato Paes e Doces",
      "category": [
        "amenity.parking_space",
        "shop.bakery"
      ],
      "lat": -23.5681814,
      "lon": -46.6464108,
      "osm_id": 4962188931,
      "osm_type": "node",
      "address": "Rua Cincinato Braga",
      "road_geometry": null
    },
    {
      "name": "Caixa Econ\u00f4mica Federal",
      "category": [
        "amenity.bank"
      ],
      "lat": -23.5684376,
      "lon": -46.646145,
      "osm_id": 4962188934,
      "osm_type": "node",
      "address": "Rua Cincinato Braga",
      "road_geometry": null
    },
    {
      "name": "Rei do Mate",
      "category": [
        "amenity.cafe",
        "shop.tea"
      ],
      "lat": -23.5692378,
      "lon": -46.6465693,
      "osm_id": 4962188946,
      "osm_type": "node",
      "address": "Avenida Paulista",
      "road_geometry": null
    },
    {
      "name": "Lanchonete La Villetto",
      "category": [
        "amenity.fast_food"
      ],
      "lat": -23.5686178,
      "lon": -46.6469961,
      "osm_id": 4962188952,
      "osm_type": "node",
      "address": "Rua Carlos Sampaio",
      "road_geometry": null
    },
    {
      "name": "Lanches 345",
      "category": [
        "amenity.fast_food"
      ],
      "lat": -23.5684981,
      "lon": -46.6468907,
      "osm_id": 4962188955,
      "osm_type": "node",
      "address": "Rua Carlos Sampaio",
      "road_geometry": null
    },
    {
      "name": "Ponto de T\u00e1xi 230",
      "category": [
        "amenity.taxi"
      ],
      "lat": -23.5691699,
      "lon": -46.646,
      "osm_id": 4962324511,
      "osm_type": "node",
      "address": "Rua Teixeira da Silva",
      "road_geometry": null
    },
    {
      "name": "Trevo",
      "category": [
        "amenity.parking"
      ],
      "lat": -23.5681782,
      "lon": -46.646879,
      "osm_id": 4970563250,
      "osm_type": "node",
      "address": "Rua Carlos Sampaio",
      "road_geometry": null
    },
    {
      "name": "Marisa",
      "category": [
        "shop.clothes"
      ],
      "lat": -23.5684956,
      "lon": -46.647547,
      "osm_id": 4970563254,
      "osm_type": "node",
      "address": "Avenida Paulista",
      "road_geometry": null
    },
    {
      "name": "SimpleWare Inform\u00e1tica",
      "category": [
        "shop.computer"
      ],
      "lat": -23.5686219,
      "lon": -46.6473223,
      "osm_id": 5275958317,
      "osm_type": "node",
      "address": "Avenida Paulista",
      "road_geometry": null
    },
    {
      "name": "Drogaria S\u00e3o Paulo",
      "category": [
        "amenity.pharmacy"
      ],
      "lat": -23.5693117,
      "lon": -46.6464723,
      "osm_id": 6419302062,
      "osm_type": "node",
      "address": "Avenida Paulista",
      "road_geometry": null
    },
    {
      "name": "Doutor Carlos Eduardo Dias - Osteopatia",
      "category": [
        "amenity.doctors"
      ],
      "lat": -23.5679924,
      "lon": -46.6461516,
      "osm_id": 11822902188,
      "osm_type": "node",
      "address": "Rua Cincinato Braga",
      "road_geometry": null
    },
    {
      "name": "Chiquinho",
      "category": [
        "amenity.ice_cream"
      ],
      "lat": -23.5688814,
      "lon": -46.6470365,
      "osm_id": 12914973785,
      "osm_type": "node",
      "address": "Avenida Paulista",
      "road_geometry": null
    }
  ],
  "refinement": {
    "original_poi_count": 30,
    "removed_count": 15,
    "model": "gemini-2.5-flash"
  }
}