{
  "image": "dataset/images/276.png",
  "center_lat": -23.56662162162162,
  "center_lon": -46.651485325856676,
  "bbox": [
    -46.65271393259698,
    -23.56774774774775,
    -46.65025671911638,
    -23.565495495495497
  ],
  "unique_categories": [
    "shop.cosmetics",
    "amenity.cinema",
    "amenity.cafe",
    "highway.bus_stop",
    "amenity.bar",
    "shop.hairdresser",
    "amenity.bank",
    "amenity.restaurant",
    "shop.mobile_phone",
    "shop.sports",
    "amenity.fast_food",
    "amenity.parking",
    "amenity.bicycle_rental",
    "shop.mall"
  ],
  "poi_count_per_category": {
    "shop.cosmetics": 1,
    "amenity.cinema": 1,
    "amenity.cafe": 2,
    "highway.bus_stop": 1,
    "amenity.bar": 2,
    "shop.hairdresser": 1,
    "amenity.bank": 2,
    "amenity.restaurant": 1,
    "shop.mobile_phone": 2,
    "shop.sports": 1,
    "amenity.fast_food": 3,
    "amenity.parking": 2,
    "amenity.bicycle_rental": 1,
    "shop.mall": 1
  },
  "poi_count": 21,
  "pois": [
    {
      "name": "New Hair",
      "category": [
        "shop.hairdresser"
      ],
      "lat": -23.5674189,
      "lon": -46.6516403,
      "osm_id": 1059492740,
      "osm_type": "node",
      "address": "Al. Santos",
      "road_geometry": null
    },
    {
      "name": "Domino's",
      "category": [
        "amenity.fast_food"
      ],
      "lat": -23.5662154,
      "lon": -46.6525925,
      "osm_id": 1059504594,
      "osm_type": "node",
      "address": "Alameda Santos",
      "road_geometry": null
    },
    {
      "name": "Top Center Shopping",
      "category": [
        "shop.mall"
      ],
      "lat": -23.5658304,
      "lon": -46.6508381,
      "osm_id": 1747574209,
      "osm_type": "node",
      "address": "Avenida Paulista",
      "road_geometry": null
    },
    {
      "name": "Black Dog",
      "category": [
        "amenity.fast_food"
      ],
      "lat": -23.56674,
      "lon": -46.6516575,
      "osm_id": 1748655746,
      "osm_type": "node",
      "address": "Alameda Joaquim Eug\u00eanio de Lima",
      "road_geometry": null
    },
    {
      "name": "Caf\u00e9 Creme",
      "category": [
        "amenity.cafe"
      ],
      "lat": -23.566354,
      "lon": -46.6508719,
      "osm_id": 2637736270,
      "osm_type": "node",
      "address": "Avenida Paulista",
      "road_geometry": null
    },
    {
      "name": "Asterix",
      "category": [
        "amenity.bar"
      ],
      "lat": -23.566686,
      "lon": -46.6512751,
      "osm_id": 2637738149,
      "osm_type": "node",
      "address": "Alameda Joaquim Eug\u00eanio de Lima",
      "road_geometry": null
    },
    {
      "name": "Reserva Cultural",
      "category": [
        "amenity.cinema"
      ],
      "lat": -23.5656325,
      "lon": -46.6510871,
      "osm_id": 2637738326,
      "osm_type": "node",
      "address": null,
      "road_geometry": null
    },
    {
      "name": "Bradesco",
      "category": [
        "amenity.bank"
      ],
      "lat": -23.5663282,
      "lon": -46.6502612,
      "osm_id": 4128777763,
      "osm_type": "node",
      "address": "Avenida Paulista",
      "road_geometry": null
    },
    {
      "name": "Rascal",
      "category": [
        "amenity.restaurant"
      ],
      "lat": -23.5671378,
      "lon": -46.6515762,
      "osm_id": 4899871493,
      "osm_type": "node",
      "address": "Alameda Santos",
      "road_geometry": null
    },
    {
      "name": "Sicredi",
      "category": [
        "amenity.bank"
      ],
      "lat": -23.5657371,
      "lon": -46.6516268,
      "osm_id": 4945785817,
      "osm_type": "node",
      "address": "Avenida Paulista",
      "road_geometry": null
    },
    {
      "name": "Brasil Park",
      "category": [
        "amenity.parking"
      ],
      "lat": -23.5665536,
      "lon": -46.6513893,
      "osm_id": 4945788521,
      "osm_type": "node",
      "address": "Alameda Joaquim Eug\u00eanio de Lima",
      "road_geometry": null
    },
    {
      "name": "Netpark",
      "category": [
        "amenity.parking"
      ],
      "lat": -23.5662957,
      "lon": -46.6524557,
      "osm_id": 4945788528,
      "osm_type": "node",
      "address": "Alameda Santos",
      "road_geometry": null
    },
    {
      "name": "Eugenio Bar",
      "category": [
        "amenity.bar"
      ],
      "lat": -23.5664582,
      "lon": -46.6510527,
      "osm_id": 4947353938,
      "osm_type": "node",
      "address": "Alameda Joaquim Eug\u00eanio de Lima",
      "road_geometry": null
    },
    {
      "name": "TIM",
      "category": [
        "shop.mobile_phone"
      ],
      "lat": -23.5666221,
      "lon": -46.6505965,
      "osm_id": 4947353949,
      "osm_type": "node",
      "address": "Avenida Paulista",
      "road_geometry": null
    },
    {
      "name": "Claro",
      "category": [
        "shop.mobile_phone"
      ],
      "lat": -23.566693,
      "lon": -46.6505112,
      "osm_id": 4947353951,
      "osm_type": "node",
      "address": "Avenida Paulista",
      "road_geometry": null
    },
    {
      "name": "McDonald's",
      "category": [
        "amenity.fast_food"
      ],
      "lat": -23.566083,
      "lon": -46.6505201,
      "osm_id": 4964023947,
      "osm_type": "node",
      "address": "Avenida Paulista",
      "road_geometry": null
    },
    {
      "name": "McCaf\u00e9",
      "category": [
        "amenity.cafe"
      ],
      "lat": -23.5659557,
      "lon": -46.6504623,
      "osm_id": 4964023964,
      "osm_type": "node",
      "address": "Alameda Joaquim Eug\u00eanio de Lima",
      "road_geometry": null
    },
    {
      "name": "Decathlon",
      "category": [
        "shop.sports"
      ],
      "lat": -23.5657066,
      "lon": -46.6509967,
      "osm_id": 5885277485,
      "osm_type": "node",
      "address": null,
      "road_geometry": null
    },
    {
      "name": "Paulista 778",
      "category": [
        "amenity.bicycle_rental"
      ],
      "lat": -23.5662497,
      "lon": -46.6504364,
      "osm_id": 11135381332,
      "osm_type": "node",
      "address": null,
      "road_geometry": null
    },
    {
      "name": "Natura",
      "category": [
        "shop.cosmetics"
      ],
      "lat": -23.5665292,
      "lon": -46.6506395,
      "osm_id": 11293599773,
      "osm_type": "node",
      "address": null,
      "road_geometry": null
    },
    {
      "name": "Avenida Paulista, 901",
      "category": [
        "highway.bus_stop"
      ],
      "lat": -23.5658262,
      "lon": -46.6514756,
      "osm_id": 12246706765,
      "osm_type": "node",
      "address": "Avenida Paulista",
      "road_geometry": null
    }
  ],
  "refinement": {
    "original_poi_count": 39,
    "removed_count": 18,
    "model": "gemini-2.5-flash"
  }
}