{
  "image": "dataset/images/277.png",
  "center_lat": -23.56662162162162,
  "center_lon": -46.64902811237607,
  "bbox": [
    -46.65025671911638,
    -23.56774774774775,
    -46.647799505635774,
    -23.565495495495497
  ],
  "unique_categories": [
    "amenity.hospital",
    "shop.newsagent",
    "amenity.college",
    "amenity.pharmacy",
    "highway.bus_stop",
    "amenity.restaurant",
    "amenity.bank",
    "shop.travel_agency",
    "amenity.parking",
    "amenity.fast_food",
    "tourism.hotel"
  ],
  "poi_count_per_category": {
    "amenity.hospital": 1,
    "shop.newsagent": 1,
    "amenity.college": 1,
    "amenity.pharmacy": 1,
    "highway.bus_stop": 2,
    "amenity.restaurant": 2,
    "amenity.bank": 2,
    "shop.travel_agency": 1,
    "amenity.parking": 1,
    "amenity.fast_food": 1,
    "tourism.hotel": 1
  },
  "poi_count": 14,
  "pois": [
    {
      "name": "Hotel Mercure",
      "category": [
        "tourism.hotel"
      ],
      "lat": -23.5659651,
      "lon": -46.649107,
      "osm_id": 855340574,
      "osm_type": "node",
      "address": "Rua S\u00e3o Carlos do Pinhal",
      "road_geometry": null
    },
    {
      "name": "Parada Avenida Paulista",
      "category": [
        "highway.bus_stop"
      ],
      "lat": -23.5659065,
      "lon": -46.6480318,
      "osm_id": 1056937243,
      "osm_type": "node",
      "address": null,
      "road_geometry": null
    },
    {
      "name": "Pr\u00f3 Matre Paulista",
      "category": [
        "amenity.hospital"
      ],
      "lat": -23.5657296,
      "lon": -46.6493847,
      "osm_id": 1646829764,
      "osm_type": "node",
      "address": "Rua S\u00e3o Carlos do Pinhal",
      "road_geometry": null
    },
    {
      "name": "Banca Centen\u00e1ria",
      "category": [
        "shop.newsagent"
      ],
      "lat": -23.5672766,
      "lon": -46.6492155,
      "osm_id": 2985378832,
      "osm_type": "node",
      "address": "Avenida Paulista",
      "road_geometry": null
    },
    {
      "name": "Drogasil",
      "category": [
        "amenity.pharmacy"
      ],
      "lat": -23.5660184,
      "lon": -46.6481438,
      "osm_id": 3534998366,
      "osm_type": "node",
      "address": "Avenida Brigadeiro Lu\u00eds Ant\u00f4nio",
      "road_geometry": null
    },
    {
      "name": "Ita\u00fa",
      "category": [
        "amenity.bank"
      ],
      "lat": -23.5668932,
      "lon": -46.6495838,
      "osm_id": 3621336508,
      "osm_type": "node",
      "address": "Avenida Paulista",
      "road_geometry": null
    },
    {
      "name": "Bovinu's Fast Grill",
      "category": [
        "amenity.restaurant"
      ],
      "lat": -23.5670011,
      "lon": -46.650147,
      "osm_id": 4128789603,
      "osm_type": "node",
      "address": "Avenida Paulista",
      "road_geometry": null
    },
    {
      "name": "Estacione Amira Park",
      "category": [
        "amenity.parking"
      ],
      "lat": -23.5664052,
      "lon": -46.6501673,
      "osm_id": 4128789891,
      "osm_type": "node",
      "address": "Avenida Paulista",
      "road_geometry": null
    },
    {
      "name": "laranjinha",
      "category": [
        "amenity.restaurant"
      ],
      "lat": -23.5667888,
      "lon": -46.6495262,
      "osm_id": 4548016093,
      "osm_type": "node",
      "address": null,
      "road_geometry": null
    },
    {
      "name": "Baby Fruta",
      "category": [
        "amenity.fast_food"
      ],
      "lat": -23.5672657,
      "lon": -46.6498716,
      "osm_id": 4947353955,
      "osm_type": "node",
      "address": "Avenida Paulista",
      "road_geometry": null
    },
    {
      "name": "Senai",
      "category": [
        "amenity.college"
      ],
      "lat": -23.5665182,
      "lon": -46.6500328,
      "osm_id": 4964023949,
      "osm_type": "node",
      "address": "Avenida Paulista",
      "road_geometry": null
    },
    {
      "name": "Ita\u00fa",
      "category": [
        "amenity.bank"
      ],
      "lat": -23.5669478,
      "lon": -46.6495188,
      "osm_id": 4964023959,
      "osm_type": "node",
      "address": "Avenida Paulista",
      "road_geometry": null
    },
    {
      "name": "CI",
      "category": [
        "shop.travel_agency"
      ],
      "lat": -23.56675,
      "lon": -46.6497425,
      "osm_id": 4964023962,
      "osm_type": "node",
      "address": "Avenida Paulista",
      "road_geometry": null
    },
    {
      "name": "Avenida Paulista, 659",
      "category": [
        "highway.bus_stop"
      ],
      "lat": -23.5673879,
      "lon": -46.6496108,
      "osm_id": 8043075498,
      "osm_type": "node",
      "address": null,
      "road_geometry": null
    }
  ],
  "refinement": {
    "original_poi_count": 29,
    "removed_count": 15,
    "model": "gemini-2.5-flash"
  }
}