{
  "image": "dataset/images/283.png",
  "center_lat": -23.56436936936937,
  "center_lon": -46.65639990028086,
  "bbox": [
    -46.65762848595502,
    -23.565495495495497,
    -46.6551713146067,
    -23.563243243243246
  ],
  "unique_categories": [
    "shop.stationery",
    "amenity.restaurant",
    "amenity.bank",
    "shop.travel_agency",
    "amenity.bicycle_rental",
    "tourism.hotel"
  ],
  "poi_count_per_category": {
    "shop.stationery": 1,
    "amenity.restaurant": 1,
    "amenity.bank": 1,
    "shop.travel_agency": 1,
    "amenity.bicycle_rental": 1,
    "tourism.hotel": 1
  },
  "poi_count": 6,
  "pois": [
    {
      "name": "Bradesco",
      "category": [
        "amenity.bank"
      ],
      "lat": -23.5634745,
      "lon": -46.6558542,
      "osm_id": 4940939096,
      "osm_type": "node",
      "address": "Alameda Santos",
      "road_geometry": null
    },
    {
      "name": "Le Monde",
      "category": [
        "amenity.restaurant"
      ],
      "lat": -23.56329,
      "lon": -46.6561453,
      "osm_id": 4940939101,
      "osm_type": "node",
      "address": "Alameda Santos",
      "road_geometry": null
    },
    {
      "name": "CWT",
      "category": [
        "shop.travel_agency"
      ],
      "lat": -23.5639796,
      "lon": -46.656033,
      "osm_id": 7569859225,
      "osm_type": "node",
      "address": "Alameda Santos,1, 3 e 4 Andares",
      "road_geometry": null
    },
    {
      "name": "Tivoli Mofarrej",
      "category": [
        "tourism.hotel"
      ],
      "lat": -23.5639303,
      "lon": -46.6558179,
      "osm_id": 10207996110,
      "osm_type": "node",
      "address": "Alameda Santos",
      "road_geometry": null
    },
    {
      "name": "Papelaria Santa Catarina",
      "category": [
        "shop.stationery"
      ],
      "lat": -23.5652918,
      "lon": -46.6551924,
      "osm_id": 10697666002,
      "osm_type": "node",
      "address": "Rua Pamplona",
      "road_geometry": null
    },
    {
      "name": "Pra\u00e7a Alexandre de Gusm\u00e3o",
      "category": [
        "amenity.bicycle_rental"
      ],
      "lat": -23.5645177,
      "lon": -46.6569662,
      "osm_id": 11135381344,
      "osm_type": "node",
      "address": null,
      "road_geometry": null
    }
  ],
  "refinement": {
    "original_poi_count": 10,
    "removed_count": 4,
    "model": "gemini-2.5-flash"
  }
}