{
  "image": "dataset/images/317.png",
  "center_lat": -23.555360360360364,
  "center_lon": -46.661314495692544,
  "bbox": [
    -46.66254299712836,
    -23.55648648648649,
    -46.660085994256725,
    -23.55423423423424
  ],
  "unique_categories": [
    "shop.chocolate",
    "tourism.hotel",
    "amenity.parcel_locker",
    "amenity.cinema",
    "highway.bus_stop",
    "amenity.police",
    "shop.convenience",
    "railway.subway_entrance",
    "amenity.bank",
    "amenity.parking",
    "shop.department_store"
  ],
  "poi_count_per_category": {
    "shop.chocolate": 1,
    "tourism.hotel": 1,
    "amenity.parcel_locker": 1,
    "amenity.cinema": 1,
    "highway.bus_stop": 1,
    "amenity.police": 1,
    "shop.convenience": 1,
    "railway.subway_entrance": 2,
    "amenity.bank": 1,
    "amenity.parking": 1,
    "shop.department_store": 2
  },
  "poi_count": 13,
  "pois": [
    {
      "name": "REAG Belas Artes",
      "category": [
        "amenity.cinema"
      ],
      "lat": -23.5555765,
      "lon": -46.6624806,
      "osm_id": 3653382446,
      "osm_type": "node",
      "address": "Rua da Consola\u00e7\u00e3o",
      "road_geometry": null
    },
    {
      "name": "Casas Pernambucanas",
      "category": [
        "shop.department_store"
      ],
      "lat": -23.555397,
      "lon": -46.6622716,
      "osm_id": 4912963723,
      "osm_type": "node",
      "address": "Rua da Consola\u00e7\u00e3o",
      "road_geometry": null
    },
    {
      "name": "Metr\u00f4 Paulista",
      "category": [
        "railway.subway_entrance"
      ],
      "lat": -23.5552209,
      "lon": -46.6620835,
      "osm_id": 4912963725,
      "osm_type": "node",
      "address": "Rua da Consola\u00e7\u00e3o",
      "road_geometry": null
    },
    {
      "name": "Corregedoria da Policia Civil",
      "category": [
        "amenity.police"
      ],
      "lat": -23.5550693,
      "lon": -46.6618038,
      "osm_id": 4912963727,
      "osm_type": "node",
      "address": "Rua da Consola\u00e7\u00e3o",
      "road_geometry": null
    },
    {
      "name": "Ita\u00fa",
      "category": [
        "amenity.bank"
      ],
      "lat": -23.5547335,
      "lon": -46.6614394,
      "osm_id": 4912963745,
      "osm_type": "node",
      "address": "Rua da Consola\u00e7\u00e3o",
      "road_geometry": null
    },
    {
      "name": "Cacau Show",
      "category": [
        "shop.chocolate"
      ],
      "lat": -23.5548216,
      "lon": -46.6615708,
      "osm_id": 4912963747,
      "osm_type": "node",
      "address": "Rua da Consola\u00e7\u00e3o",
      "road_geometry": null
    },
    {
      "name": "Ibis Budget",
      "category": [
        "tourism.hotel"
      ],
      "lat": -23.5548991,
      "lon": -46.6616718,
      "osm_id": 4912963748,
      "osm_type": "node",
      "address": "Rua da Consola\u00e7\u00e3o",
      "road_geometry": null
    },
    {
      "name": "Rua Bela Cintra, 955",
      "category": [
        "highway.bus_stop"
      ],
      "lat": -23.5556225,
      "lon": -46.6608077,
      "osm_id": 4913452732,
      "osm_type": "node",
      "address": null,
      "road_geometry": null
    },
    {
      "name": "Estapar",
      "category": [
        "amenity.parking"
      ],
      "lat": -23.5557268,
      "lon": -46.6605303,
      "osm_id": 4913452736,
      "osm_type": "node",
      "address": "Rua Lu\u00eds Coelho",
      "road_geometry": null
    },
    {
      "name": "Metr\u00f4 Paulista",
      "category": [
        "railway.subway_entrance"
      ],
      "lat": -23.5549109,
      "lon": -46.6622527,
      "osm_id": 4995327833,
      "osm_type": "node",
      "address": "Rua da Consola\u00e7\u00e3o",
      "road_geometry": null
    },
    {
      "name": "Correio Locker Metro Paulista",
      "category": [
        "amenity.parcel_locker"
      ],
      "lat": -23.5552524,
      "lon": -46.6619485,
      "osm_id": 9928825686,
      "osm_type": "node",
      "address": null,
      "road_geometry": null
    },
    {
      "name": "Carrefour Express",
      "category": [
        "shop.convenience"
      ],
      "lat": -23.5543753,
      "lon": -46.6610132,
      "osm_id": 11423628479,
      "osm_type": "node",
      "address": null,
      "road_geometry": null
    },
    {
      "name": "Pernambucanas",
      "category": [
        "shop.department_store"
      ],
      "lat": -23.5553515,
      "lon": -46.6621951,
      "osm_id": 12913138519,
      "osm_type": "node",
      "address": null,
      "road_geometry": null
    }
  ],
  "refinement": {
    "original_poi_count": 30,
    "removed_count": 17,
    "model": "gemini-2.5-flash"
  }
}