{
  "image": "dataset/images/338.png",
  "center_lat": 1.3013783783783786,
  "center_lon": 103.83513774550899,
  "bbox": [
    103.83401132934132,
    1.3002522522522524,
    103.83626416167665,
    1.3025045045045047
  ],
  "unique_categories": [
    "shop.chocolate",
    "shop.shoes",
    "shop.coffee",
    "amenity.theatre",
    "amenity.pub",
    "amenity.school",
    "shop.cosmetics",
    "shop.hardware",
    "amenity.cafe",
    "highway.bus_stop",
    "shop.sports",
    "shop.butcher",
    "amenity.restaurant",
    "shop.clothes",
    "leisure.sports_centre",
    "amenity.fast_food",
    "shop.watches"
  ],
  "poi_count_per_category": {
    "shop.chocolate": 1,
    "shop.shoes": 2,
    "shop.coffee": 1,
    "amenity.theatre": 1,
    "amenity.pub": 1,
    "amenity.school": 1,
    "shop.cosmetics": 2,
    "shop.hardware": 1,
    "amenity.cafe": 4,
    "highway.bus_stop": 1,
    "shop.sports": 1,
    "shop.butcher": 1,
    "amenity.restaurant": 4,
    "shop.clothes": 2,
    "leisure.sports_centre": 1,
    "amenity.fast_food": 1,
    "shop.watches": 4
  },
  "poi_count": 29,
  "pois": [
    {
      "name": "Opposite Ngee Ann City",
      "category": [
        "highway.bus_stop"
      ],
      "lat": 1.3020622,
      "lon": 103.8344296,
      "osm_id": 410468394,
      "osm_type": "node",
      "address": null,
      "road_geometry": null
    },
    {
      "name": "Michael Kors",
      "category": [
        "shop.clothes"
      ],
      "lat": 1.3024035,
      "lon": 103.8360574,
      "osm_id": 4748985347,
      "osm_type": "node",
      "address": "Orchard Road",
      "road_geometry": null
    },
    {
      "name": "Max Mara",
      "category": [
        "shop.clothes"
      ],
      "lat": 1.3023261,
      "lon": 103.8362482,
      "osm_id": 4748985348,
      "osm_type": "node",
      "address": "Orchard Road",
      "road_geometry": null
    },
    {
      "name": "The Ground Theatre",
      "category": [
        "amenity.theatre"
      ],
      "lat": 1.3008531,
      "lon": 103.8354815,
      "osm_id": 6356102166,
      "osm_type": "node",
      "address": null,
      "road_geometry": null
    },
    {
      "name": "Playnation Caf\u00e9",
      "category": [
        "amenity.cafe"
      ],
      "lat": 1.3011097,
      "lon": 103.8355374,
      "osm_id": 6356102170,
      "osm_type": "node",
      "address": null,
      "road_geometry": null
    },
    {
      "name": "Go Sports",
      "category": [
        "shop.sports"
      ],
      "lat": 1.3009173,
      "lon": 103.8357626,
      "osm_id": 6356102171,
      "osm_type": "node",
      "address": null,
      "road_geometry": null
    },
    {
      "name": "Jjan by The Maveric Co",
      "category": [
        "amenity.pub"
      ],
      "lat": 1.3009059,
      "lon": 103.8359137,
      "osm_id": 6356102178,
      "osm_type": "node",
      "address": null,
      "road_geometry": null
    },
    {
      "name": "MADDspace",
      "category": [
        "amenity.school"
      ],
      "lat": 1.3010033,
      "lon": 103.8357575,
      "osm_id": 6356102180,
      "osm_type": "node",
      "address": null,
      "road_geometry": null
    },
    {
      "name": "Hado Singapore",
      "category": [
        "leisure.sports_centre"
      ],
      "lat": 1.3010822,
      "lon": 103.8357798,
      "osm_id": 6356102183,
      "osm_type": "node",
      "address": null,
      "road_geometry": null
    },
    {
      "name": "Subway",
      "category": [
        "amenity.fast_food"
      ],
      "lat": 1.3011426,
      "lon": 103.8359066,
      "osm_id": 6356102586,
      "osm_type": "node",
      "address": null,
      "road_geometry": null
    },
    {
      "name": "Cotton Dreams",
      "category": [
        "amenity.cafe"
      ],
      "lat": 1.3009796,
      "lon": 103.8360785,
      "osm_id": 6356102588,
      "osm_type": "node",
      "address": null,
      "road_geometry": null
    },
    {
      "name": "Charles & Keith",
      "category": [
        "shop.shoes"
      ],
      "lat": 1.302224,
      "lon": 103.8352047,
      "osm_id": 6723233708,
      "osm_type": "node",
      "address": null,
      "road_geometry": null
    },
    {
      "name": "CASIO",
      "category": [
        "shop.watches"
      ],
      "lat": 1.3024476,
      "lon": 103.8350283,
      "osm_id": 6784636774,
      "osm_type": "node",
      "address": null,
      "road_geometry": null
    },
    {
      "name": "Cortina",
      "category": [
        "shop.watches"
      ],
      "lat": 1.3020246,
      "lon": 103.8360732,
      "osm_id": 6787668756,
      "osm_type": "node",
      "address": null,
      "road_geometry": null
    },
    {
      "name": "Rolex",
      "category": [
        "shop.watches"
      ],
      "lat": 1.3024373,
      "lon": 103.8354647,
      "osm_id": 6790365900,
      "osm_type": "node",
      "address": null,
      "road_geometry": null
    },
    {
      "name": "Swatch",
      "category": [
        "shop.watches"
      ],
      "lat": 1.3023199,
      "lon": 103.8349127,
      "osm_id": 6792537854,
      "osm_type": "node",
      "address": null,
      "road_geometry": null
    },
    {
      "name": "Bata",
      "category": [
        "shop.shoes"
      ],
      "lat": 1.3020342,
      "lon": 103.8353647,
      "osm_id": 6797856551,
      "osm_type": "node",
      "address": "Orchard Rd, Tower A Level 4, Takashimaya Dept",
      "road_geometry": null
    },
    {
      "name": "Nespresso",
      "category": [
        "shop.coffee"
      ],
      "lat": 1.3021636,
      "lon": 103.835438,
      "osm_id": 7308483537,
      "osm_type": "node",
      "address": "Orchard Road",
      "road_geometry": null
    },
    {
      "name": "Bee Cheng Hiang",
      "category": [
        "shop.butcher"
      ],
      "lat": 1.3023896,
      "lon": 103.8353159,
      "osm_id": 8827366454,
      "osm_type": "node",
      "address": "Orchard Road",
      "road_geometry": null
    },
    {
      "name": "Godiva",
      "category": [
        "shop.chocolate"
      ],
      "lat": 1.3023127,
      "lon": 103.8352803,
      "osm_id": 8827366455,
      "osm_type": "node",
      "address": null,
      "road_geometry": null
    },
    {
      "name": "Nakajima Suisan",
      "category": [
        "amenity.restaurant"
      ],
      "lat": 1.3021153,
      "lon": 103.8351999,
      "osm_id": 8827366456,
      "osm_type": "node",
      "address": "Orchard Road",
      "road_geometry": null
    },
    {
      "name": "Ippudo",
      "category": [
        "amenity.restaurant"
      ],
      "lat": 1.3019307,
      "lon": 103.8360256,
      "osm_id": 9050981365,
      "osm_type": "node",
      "address": null,
      "road_geometry": null
    },
    {
      "name": "Estate",
      "category": [
        "amenity.restaurant"
      ],
      "lat": 1.3021964,
      "lon": 103.8359667,
      "osm_id": 9628981490,
      "osm_type": "node",
      "address": "Orchard Road",
      "road_geometry": null
    },
    {
      "name": "Ginger.Lily",
      "category": [
        "amenity.cafe"
      ],
      "lat": 1.3018363,
      "lon": 103.8357926,
      "osm_id": 9630795128,
      "osm_type": "node",
      "address": "Orchard Road",
      "road_geometry": null
    },
    {
      "name": "Osteria Mozza",
      "category": [
        "amenity.restaurant"
      ],
      "lat": 1.3020717,
      "lon": 103.8359381,
      "osm_id": 9822426703,
      "osm_type": "node",
      "address": "Orchard Road",
      "road_geometry": null
    },
    {
      "name": "Aesop",
      "category": [
        "shop.cosmetics"
      ],
      "lat": 1.3024691,
      "lon": 103.8345331,
      "osm_id": 9891652081,
      "osm_type": "node",
      "address": null,
      "road_geometry": null
    },
    {
      "name": "Mister Minit",
      "category": [
        "shop.hardware"
      ],
      "lat": 1.3025025,
      "lon": 103.834364,
      "osm_id": 9891652082,
      "osm_type": "node",
      "address": null,
      "road_geometry": null
    },
    {
      "name": "ORBIS",
      "category": [
        "shop.cosmetics"
      ],
      "lat": 1.3023033,
      "lon": 103.8346989,
      "osm_id": 9891652086,
      "osm_type": "node",
      "address": null,
      "road_geometry": null
    },
    {
      "name": "Starbucks",
      "category": [
        "amenity.cafe"
      ],
      "lat": 1.3021938,
      "lon": 103.8348838,
      "osm_id": 9891652092,
      "osm_type": "node",
      "address": null,
      "road_geometry": null
    }
  ],
  "refinement": {
    "original_poi_count": 66,
    "removed_count": 37,
    "model": "gemini-2.5-flash"
  }
}