{
  "image": "dataset/images/354.png",
  "center_lat": 1.3058828828828832,
  "center_lon": 103.83063209090594,
  "bbox": [
    103.82950567272475,
    1.304756756756757,
    103.83175850908712,
    1.3070090090090094
  ],
  "unique_categories": [
    "shop.electronics",
    "amenity.taxi",
    "amenity.ice_cream",
    "amenity.cafe",
    "highway.bus_stop",
    "shop.tailor",
    "shop.hifi",
    "amenity.restaurant",
    "railway.subway_entrance",
    "amenity.bank",
    "shop.clothes",
    "shop.sports",
    "amenity.fast_food",
    "shop.supermarket",
    "shop.department_store",
    "shop.beauty"
  ],
  "poi_count_per_category": {
    "shop.electronics": 1,
    "amenity.taxi": 1,
    "amenity.ice_cream": 1,
    "amenity.cafe": 4,
    "highway.bus_stop": 1,
    "shop.tailor": 1,
    "shop.hifi": 1,
    "amenity.restaurant": 2,
    "railway.subway_entrance": 1,
    "amenity.bank": 2,
    "shop.clothes": 2,
    "shop.sports": 3,
    "amenity.fast_food": 2,
    "shop.supermarket": 1,
    "shop.department_store": 1,
    "shop.beauty": 3
  },
  "poi_count": 27,
  "pois": [
    {
      "name": "Royal Thai Embassy",
      "category": [
        "highway.bus_stop"
      ],
      "lat": 1.305835,
      "lon": 103.8304631,
      "osm_id": 410468389,
      "osm_type": "node",
      "address": null,
      "road_geometry": null
    },
    {
      "name": "PS Cafe",
      "category": [
        "amenity.cafe"
      ],
      "lat": 1.3068516,
      "lon": 103.8298378,
      "osm_id": 518302785,
      "osm_type": "node",
      "address": "Orchard Road",
      "road_geometry": null
    },
    {
      "name": "Coffee Club",
      "category": [
        "amenity.cafe"
      ],
      "lat": 1.3050836,
      "lon": 103.8312388,
      "osm_id": 1278204291,
      "osm_type": "node",
      "address": null,
      "road_geometry": null
    },
    {
      "name": "Isetan",
      "category": [
        "shop.department_store"
      ],
      "lat": 1.3055893,
      "lon": 103.8316799,
      "osm_id": 1839603992,
      "osm_type": "node",
      "address": "Orchard Road",
      "road_geometry": null
    },
    {
      "name": "Liat Towers",
      "category": [
        "amenity.taxi"
      ],
      "lat": 1.3051567,
      "lon": 103.8304338,
      "osm_id": 3800199469,
      "osm_type": "node",
      "address": null,
      "road_geometry": null
    },
    {
      "name": "H\u00e4agen-Dazs",
      "category": [
        "amenity.ice_cream"
      ],
      "lat": 1.3059617,
      "lon": 103.8296935,
      "osm_id": 4748985330,
      "osm_type": "node",
      "address": "Orchard Road",
      "road_geometry": null
    },
    {
      "name": "Zara",
      "category": [
        "shop.clothes"
      ],
      "lat": 1.3053186,
      "lon": 103.8306721,
      "osm_id": 4748985331,
      "osm_type": "node",
      "address": "Orchard Road",
      "road_geometry": null
    },
    {
      "name": "Breitling",
      "category": [
        "shop.clothes"
      ],
      "lat": 1.3064567,
      "lon": 103.8296145,
      "osm_id": 4749080345,
      "osm_type": "node",
      "address": "Orchard Road",
      "road_geometry": null
    },
    {
      "name": "ANZ",
      "category": [
        "amenity.bank"
      ],
      "lat": 1.3058414,
      "lon": 103.8308102,
      "osm_id": 4749080346,
      "osm_type": "node",
      "address": "Orchard Road",
      "road_geometry": null
    },
    {
      "name": "Panasonic",
      "category": [
        "shop.electronics"
      ],
      "lat": 1.3056894,
      "lon": 103.8311232,
      "osm_id": 4749080347,
      "osm_type": "node",
      "address": "Orchard Road",
      "road_geometry": null
    },
    {
      "name": "Isetan",
      "category": [
        "shop.supermarket"
      ],
      "lat": 1.305645,
      "lon": 103.831586,
      "osm_id": 5461729421,
      "osm_type": "node",
      "address": null,
      "road_geometry": null
    },
    {
      "name": "HSBC",
      "category": [
        "amenity.bank"
      ],
      "lat": 1.306844,
      "lon": 103.8314063,
      "osm_id": 5756820440,
      "osm_type": "node",
      "address": "Claymore Hill",
      "road_geometry": null
    },
    {
      "name": "Starbucks",
      "category": [
        "amenity.cafe"
      ],
      "lat": 1.3048264,
      "lon": 103.8311189,
      "osm_id": 5756829365,
      "osm_type": "node",
      "address": null,
      "road_geometry": null
    },
    {
      "name": "Les Amis",
      "category": [
        "amenity.restaurant"
      ],
      "lat": 1.3066335,
      "lon": 103.8313493,
      "osm_id": 6370432274,
      "osm_type": "node",
      "address": "Scotts Road",
      "road_geometry": null
    },
    {
      "name": "Toast Box",
      "category": [
        "amenity.cafe"
      ],
      "lat": 1.305842,
      "lon": 103.8316976,
      "osm_id": 6816873926,
      "osm_type": "node",
      "address": "350 Orchard Rd, Shaw House",
      "road_geometry": null
    },
    {
      "name": "McDonald's",
      "category": [
        "amenity.fast_food"
      ],
      "lat": 1.3054682,
      "lon": 103.8317122,
      "osm_id": 6981846721,
      "osm_type": "node",
      "address": null,
      "road_geometry": null
    },
    {
      "name": "Wellaholic (Orchard)",
      "category": [
        "shop.beauty"
      ],
      "lat": 1.3057098,
      "lon": 103.8299227,
      "osm_id": 7608487237,
      "osm_type": "node",
      "address": "Orchard Road",
      "road_geometry": null
    },
    {
      "name": "Orchard (NSL)",
      "category": [
        "railway.subway_entrance"
      ],
      "lat": 1.3049212,
      "lon": 103.8311621,
      "osm_id": 8163161362,
      "osm_type": "node",
      "address": null,
      "road_geometry": null
    },
    {
      "name": "Shake Shack",
      "category": [
        "amenity.fast_food"
      ],
      "lat": 1.3051271,
      "lon": 103.8310193,
      "osm_id": 8164454211,
      "osm_type": "node",
      "address": "Orchard Road",
      "road_geometry": null
    },
    {
      "name": "Snails",
      "category": [
        "shop.beauty"
      ],
      "lat": 1.3048516,
      "lon": 103.8303565,
      "osm_id": 8566472182,
      "osm_type": "node",
      "address": null,
      "road_geometry": null
    },
    {
      "name": "Hanbang Skin Solutions",
      "category": [
        "shop.beauty"
      ],
      "lat": 1.3048089,
      "lon": 103.8304666,
      "osm_id": 8566472183,
      "osm_type": "node",
      "address": null,
      "road_geometry": null
    },
    {
      "name": "Valhall Asia",
      "category": [
        "shop.sports"
      ],
      "lat": 1.3056311,
      "lon": 103.8300674,
      "osm_id": 8566518435,
      "osm_type": "node",
      "address": null,
      "road_geometry": null
    },
    {
      "name": "Daintie Dames",
      "category": [
        "shop.tailor"
      ],
      "lat": 1.3055418,
      "lon": 103.8301808,
      "osm_id": 8566518438,
      "osm_type": "node",
      "address": null,
      "road_geometry": null
    },
    {
      "name": "E1 Personal Audio",
      "category": [
        "shop.hifi"
      ],
      "lat": 1.3055724,
      "lon": 103.8298723,
      "osm_id": 8566518453,
      "osm_type": "node",
      "address": null,
      "road_geometry": null
    },
    {
      "name": "Vin Golf",
      "category": [
        "shop.sports"
      ],
      "lat": 1.30536,
      "lon": 103.8302226,
      "osm_id": 8566518455,
      "osm_type": "node",
      "address": null,
      "road_geometry": null
    },
    {
      "name": "Golf Simply",
      "category": [
        "shop.sports"
      ],
      "lat": 1.3054755,
      "lon": 103.8300368,
      "osm_id": 8566518466,
      "osm_type": "node",
      "address": null,
      "road_geometry": null
    },
    {
      "name": "8 Korean BBQ",
      "category": [
        "amenity.restaurant"
      ],
      "lat": 1.3062788,
      "lon": 103.8315988,
      "osm_id": 10296573242,
      "osm_type": "node",
      "address": null,
      "road_geometry": null
    }
  ],
  "refinement": {
    "original_poi_count": 75,
    "removed_count": 48,
    "model": "gemini-2.5-flash"
  }
}