{
  "image": "dataset/images/388.png",
  "center_lat": 22.276126126126126,
  "center_lon": 114.18312186063855,
  "bbox": [
    114.18190492060494,
    22.275,
    114.18433880067215,
    22.27725225225225
  ],
  "unique_categories": [
    "highway.bus_stop",
    "amenity.community_centre",
    "railway.tram_stop"
  ],
  "poi_count_per_category": {
    "highway.bus_stop": 4,
    "amenity.community_centre": 1,
    "railway.tram_stop": 1
  },
  "poi_count": 6,
  "pois": [
    {
      "name": "\u7d00\u5229\u83ef\u6728\u7403\u6703 Craigengower Cricket Club",
      "category": [
        "highway.bus_stop"
      ],
      "lat": 22.2769603,
      "lon": 114.1822349,
      "osm_id": 2588631832,
      "osm_type": "node",
      "address": null,
      "road_geometry": null
    },
    {
      "name": "\u79ae\u9813\u9053 Leighton Road",
      "category": [
        "railway.tram_stop"
      ],
      "lat": 22.276998,
      "lon": 114.1823444,
      "osm_id": 2957737064,
      "osm_type": "node",
      "address": null,
      "road_geometry": null
    },
    {
      "name": "\u9ad4\u80b2\u9053 Sports Road",
      "category": [
        "highway.bus_stop"
      ],
      "lat": 22.2761834,
      "lon": 114.1826205,
      "osm_id": 7405077160,
      "osm_type": "node",
      "address": null,
      "road_geometry": null
    },
    {
      "name": "\u7d00\u5229\u83ef\u6728\u7403\u6703 Craigengower Cricket Club",
      "category": [
        "highway.bus_stop"
      ],
      "lat": 22.2769964,
      "lon": 114.1823233,
      "osm_id": 7968671313,
      "osm_type": "node",
      "address": null,
      "road_geometry": null
    },
    {
      "name": "\u79ae\u9813\u5c71\u793e\u5340\u6703\u5802 Leighton Hill Community Hall",
      "category": [
        "amenity.community_centre"
      ],
      "lat": 22.275467,
      "lon": 114.1831894,
      "osm_id": 9737441163,
      "osm_type": "node",
      "address": "\u9ec3\u6ce5\u6d8c\u9053 Wong Nai Chung Road",
      "road_geometry": null
    },
    {
      "name": "\u7d00\u5229\u83ef\u6728\u7403\u6703 Craigengower Cricket Club",
      "category": [
        "highway.bus_stop"
      ],
      "lat": 22.2769586,
      "lon": 114.1822307,
      "osm_id": 10089534253,
      "osm_type": "node",
      "address": null,
      "road_geometry": null
    }
  ],
  "refinement": {
    "original_poi_count": 13,
    "removed_count": 7,
    "model": "gemini-2.5-flash"
  }
}