{
  "image": "dataset/images/394.png",
  "center_lat": 22.278378378378378,
  "center_lon": 114.17095263666866,
  "bbox": [
    114.1697356770388,
    22.27725225225225,
    114.1721695962985,
    22.2795045045045
  ],
  "unique_categories": [
    "shop.beverages",
    "shop.car",
    "amenity.cafe",
    "shop.convenience",
    "amenity.bar",
    "amenity.restaurant",
    "amenity.bank",
    "amenity.fast_food"
  ],
  "poi_count_per_category": {
    "shop.beverages": 1,
    "shop.car": 3,
    "amenity.cafe": 2,
    "shop.convenience": 2,
    "amenity.bar": 7,
    "amenity.restaurant": 7,
    "amenity.bank": 1,
    "amenity.fast_food": 1
  },
  "poi_count": 24,
  "pois": [
    {
      "name": "ilbelPaese",
      "category": [
        "amenity.restaurant"
      ],
      "lat": 22.2778198,
      "lon": 114.1707502,
      "osm_id": 1298359476,
      "osm_type": "node",
      "address": null,
      "road_geometry": null
    },
    {
      "name": "OK\u4fbf\u5229\u5e97 Circle K",
      "category": [
        "shop.convenience"
      ],
      "lat": 22.2774734,
      "lon": 114.1704348,
      "osm_id": 1299465502,
      "osm_type": "node",
      "address": "\u8ed2\u5c3c\u8a69\u9053 Hennessy Road",
      "road_geometry": null
    },
    {
      "name": "The Wanch",
      "category": [
        "amenity.bar"
      ],
      "lat": 22.278666,
      "lon": 114.1701437,
      "osm_id": 2247820098,
      "osm_type": "node",
      "address": "Jaffe Road",
      "road_geometry": null
    },
    {
      "name": "Trafalgar Bar",
      "category": [
        "amenity.bar"
      ],
      "lat": 22.278055,
      "lon": 114.1708616,
      "osm_id": 2247849935,
      "osm_type": "node",
      "address": "\u99f1\u514b\u9053 Lockhart Road",
      "road_geometry": null
    },
    {
      "name": "\u6771\u4e9e\u9280\u884c BEA",
      "category": [
        "amenity.bank"
      ],
      "lat": 22.2789914,
      "lon": 114.1710662,
      "osm_id": 2503648877,
      "osm_type": "node",
      "address": "\u544a\u58eb\u6253\u9053 Gloucester Road",
      "road_geometry": null
    },
    {
      "name": "Carnegie's",
      "category": [
        "amenity.bar"
      ],
      "lat": 22.2783206,
      "lon": 114.1707867,
      "osm_id": 3781017541,
      "osm_type": "node",
      "address": "\u99f1\u514b\u9053 Lockhart Road",
      "road_geometry": null
    },
    {
      "name": "Dusk till Dawn",
      "category": [
        "amenity.bar"
      ],
      "lat": 22.2785974,
      "lon": 114.1709157,
      "osm_id": 4149638360,
      "osm_type": "node",
      "address": "\u8b1d\u6590\u9053 Jaffe Road",
      "road_geometry": null
    },
    {
      "name": "Taboo",
      "category": [
        "amenity.bar"
      ],
      "lat": 22.27847,
      "lon": 114.17185,
      "osm_id": 4778090434,
      "osm_type": "node",
      "address": "\u76e7\u62bc\u9053 Luard Road",
      "road_geometry": null
    },
    {
      "name": "OK\u4fbf\u5229\u5e97 Circle K",
      "category": [
        "shop.convenience"
      ],
      "lat": 22.27769,
      "lon": 114.17187,
      "osm_id": 4856203923,
      "osm_type": "node",
      "address": "\u8ed2\u5c3c\u8a69\u9053 Hennessy Road",
      "road_geometry": null
    },
    {
      "name": "Cafe Fifty V",
      "category": [
        "amenity.cafe"
      ],
      "lat": 22.2777751,
      "lon": 114.1706338,
      "osm_id": 4856219488,
      "osm_type": "node",
      "address": "\u8ed2\u5c3c\u8a69\u9053 Hennessy Road",
      "road_geometry": null
    },
    {
      "name": "\u90fd\u53ef Coco",
      "category": [
        "shop.beverages"
      ],
      "lat": 22.2773879,
      "lon": 114.171456,
      "osm_id": 4856288643,
      "osm_type": "node",
      "address": "\u8ed2\u5c3c\u8a69\u9053 Hennessy Road",
      "road_geometry": null
    },
    {
      "name": "Nissan",
      "category": [
        "shop.car"
      ],
      "lat": 22.2789756,
      "lon": 114.1706556,
      "osm_id": 4858340233,
      "osm_type": "node",
      "address": "\u544a\u58eb\u6253\u9053 Gloucester Road",
      "road_geometry": null
    },
    {
      "name": "Ford",
      "category": [
        "shop.car"
      ],
      "lat": 22.2790753,
      "lon": 114.1701743,
      "osm_id": 4858340235,
      "osm_type": "node",
      "address": "\u544a\u58eb\u6253\u9053 Gloucester Road",
      "road_geometry": null
    },
    {
      "name": "Toyota - Crown Motors",
      "category": [
        "shop.car"
      ],
      "lat": 22.2791052,
      "lon": 114.1700126,
      "osm_id": 4858340236,
      "osm_type": "node",
      "address": "\u544a\u58eb\u6253\u9053 Gloucester Road",
      "road_geometry": null
    },
    {
      "name": "Hay-Hay Kitchen",
      "category": [
        "amenity.restaurant"
      ],
      "lat": 22.2780006,
      "lon": 114.1714813,
      "osm_id": 4858417124,
      "osm_type": "node",
      "address": "\u99f1\u514b\u9053 Lockhart Road",
      "road_geometry": null
    },
    {
      "name": "Chili Club",
      "category": [
        "amenity.bar"
      ],
      "lat": 22.2779717,
      "lon": 114.1718823,
      "osm_id": 4858417127,
      "osm_type": "node",
      "address": "\u99f1\u514b\u9053 Lockhart Road",
      "road_geometry": null
    },
    {
      "name": "Pub-Pine Bar",
      "category": [
        "amenity.bar"
      ],
      "lat": 22.2779339,
      "lon": 114.1719432,
      "osm_id": 4858417128,
      "osm_type": "node",
      "address": "\u99f1\u514b\u9053 Lockhart Road",
      "road_geometry": null
    },
    {
      "name": "Chili Club",
      "category": [
        "amenity.restaurant"
      ],
      "lat": 22.2779862,
      "lon": 114.1718467,
      "osm_id": 5502200121,
      "osm_type": "node",
      "address": null,
      "road_geometry": null
    },
    {
      "name": "\u6f6e\u798f\u9152\u5bb6",
      "category": [
        "amenity.restaurant"
      ],
      "lat": 22.2779363,
      "lon": 114.1712933,
      "osm_id": 5610890622,
      "osm_type": "node",
      "address": null,
      "road_geometry": null
    },
    {
      "name": "Big Pizza",
      "category": [
        "amenity.fast_food"
      ],
      "lat": 22.2783574,
      "lon": 114.1718218,
      "osm_id": 6728746258,
      "osm_type": "node",
      "address": null,
      "road_geometry": null
    },
    {
      "name": "\u661f\u5df4\u514b Starbucks",
      "category": [
        "amenity.cafe"
      ],
      "lat": 22.2778417,
      "lon": 114.1699384,
      "osm_id": 6857211712,
      "osm_type": "node",
      "address": null,
      "road_geometry": null
    },
    {
      "name": "Jojo Indian Cuisine",
      "category": [
        "amenity.restaurant"
      ],
      "lat": 22.2784328,
      "lon": 114.1702269,
      "osm_id": 7310062285,
      "osm_type": "node",
      "address": "\u99f1\u514b\u9053 Lockhart Road",
      "road_geometry": null
    },
    {
      "name": "\u5357\u5e9c",
      "category": [
        "amenity.restaurant"
      ],
      "lat": 22.2781448,
      "lon": 114.1697999,
      "osm_id": 9327291260,
      "osm_type": "node",
      "address": null,
      "road_geometry": null
    },
    {
      "name": "\u534a\u5cf6\u6e14\u6e2f",
      "category": [
        "amenity.restaurant"
      ],
      "lat": 22.2777563,
      "lon": 114.1713478,
      "osm_id": 11533130172,
      "osm_type": "node",
      "address": null,
      "road_geometry": null
    }
  ],
  "refinement": {
    "original_poi_count": 91,
    "removed_count": 67,
    "model": "gemini-2.5-flash"
  }
}