{
  "image": "dataset/images/397.png",
  "center_lat": 22.278378378378378,
  "center_lon": 114.17825439444776,
  "bbox": [
    114.1770374348179,
    22.27725225225225,
    114.1794713540776,
    22.2795045045045
  ],
  "unique_categories": [
    "shop.second_hand",
    "amenity.pharmacy",
    "amenity.place_of_worship",
    "tourism.guest_house",
    "highway.bus_stop",
    "amenity.cafe",
    "shop.convenience",
    "shop.chemist",
    "shop.doityourself",
    "amenity.restaurant",
    "shop.mall",
    "amenity.parking",
    "amenity.fast_food",
    "railway.tram_stop",
    "shop.computer",
    "shop.bicycle"
  ],
  "poi_count_per_category": {
    "shop.second_hand": 1,
    "amenity.pharmacy": 1,
    "amenity.place_of_worship": 1,
    "tourism.guest_house": 1,
    "highway.bus_stop": 8,
    "amenity.cafe": 3,
    "shop.convenience": 5,
    "shop.chemist": 1,
    "shop.doityourself": 3,
    "amenity.restaurant": 9,
    "shop.mall": 2,
    "amenity.parking": 1,
    "amenity.fast_food": 1,
    "railway.tram_stop": 2,
    "shop.computer": 1,
    "shop.bicycle": 1
  },
  "poi_count": 40,
  "pois": [
    {
      "name": "\u5229\u82d1 Lei Garden",
      "category": [
        "amenity.restaurant"
      ],
      "lat": 22.27827,
      "lon": 114.17869,
      "osm_id": 1298704660,
      "osm_type": "node",
      "address": "\u8ed2\u5c3c\u8a69\u9053 Hennessy Road",
      "road_geometry": null
    },
    {
      "name": "\u9ea5\u7576\u52de McDonald's",
      "category": [
        "amenity.fast_food"
      ],
      "lat": 22.2780057,
      "lon": 114.1779424,
      "osm_id": 1299465479,
      "osm_type": "node",
      "address": null,
      "road_geometry": null
    },
    {
      "name": "\u4e03\u8a18\u55ae\u8eca Chat Kee Bicycle",
      "category": [
        "shop.bicycle"
      ],
      "lat": 22.277438,
      "lon": 114.17794,
      "osm_id": 1851235376,
      "osm_type": "node",
      "address": null,
      "road_geometry": null
    },
    {
      "name": "\u675c\u8001\u8a8c\u9053 Tonnochy Road",
      "category": [
        "railway.tram_stop"
      ],
      "lat": 22.2782634,
      "lon": 114.1778314,
      "osm_id": 2300434310,
      "osm_type": "node",
      "address": null,
      "road_geometry": null
    },
    {
      "name": "\u4e2d\u570b\u7db2\u7d61\u4e2d\u5fc3\u505c\u8eca\u5834 China Online Centre Car Park",
      "category": [
        "amenity.parking"
      ],
      "lat": 22.2794033,
      "lon": 114.1783483,
      "osm_id": 2995395043,
      "osm_type": "node",
      "address": null,
      "road_geometry": null
    },
    {
      "name": "\u675c\u8001\u8a8c\u9053 Tonnochy Road",
      "category": [
        "highway.bus_stop"
      ],
      "lat": 22.2785801,
      "lon": 114.1785704,
      "osm_id": 2995395046,
      "osm_type": "node",
      "address": null,
      "road_geometry": null
    },
    {
      "name": "\u675c\u8001\u8a8c\u9053 Tonnochy Road",
      "category": [
        "highway.bus_stop"
      ],
      "lat": 22.2785983,
      "lon": 114.1786327,
      "osm_id": 2995395047,
      "osm_type": "node",
      "address": null,
      "road_geometry": null
    },
    {
      "name": "\u675c\u8001\u8a8c\u9053 Tonnochy Road",
      "category": [
        "highway.bus_stop"
      ],
      "lat": 22.2786549,
      "lon": 114.178826,
      "osm_id": 2995395048,
      "osm_type": "node",
      "address": null,
      "road_geometry": null
    },
    {
      "name": "\u675c\u8001\u8a8c\u9053 Tonnochy Road",
      "category": [
        "highway.bus_stop"
      ],
      "lat": 22.2787239,
      "lon": 114.1790614,
      "osm_id": 2995395049,
      "osm_type": "node",
      "address": null,
      "road_geometry": null
    },
    {
      "name": "\u675c\u8001\u8a8c\u9053 Tonnochy Road",
      "category": [
        "highway.bus_stop"
      ],
      "lat": 22.2787499,
      "lon": 114.1791502,
      "osm_id": 2995395050,
      "osm_type": "node",
      "address": null,
      "road_geometry": null
    },
    {
      "name": "\u5229\u666f\u9152\u5e97 The Charterhouse",
      "category": [
        "highway.bus_stop"
      ],
      "lat": 22.27782,
      "lon": 114.17917,
      "osm_id": 3064991896,
      "osm_type": "node",
      "address": null,
      "road_geometry": null
    },
    {
      "name": "\u675c\u8001\u8a8c\u9053 Tonnochy Road",
      "category": [
        "railway.tram_stop"
      ],
      "lat": 22.2781068,
      "lon": 114.1773838,
      "osm_id": 3112114536,
      "osm_type": "node",
      "address": null,
      "road_geometry": null
    },
    {
      "name": "\u592a\u5e73\u6d0b\u5496\u5561 Pacific Coffee",
      "category": [
        "amenity.cafe"
      ],
      "lat": 22.2779745,
      "lon": 114.1778174,
      "osm_id": 3665640836,
      "osm_type": "node",
      "address": null,
      "road_geometry": null
    },
    {
      "name": "298\u96fb\u8166\u7279\u5340 298 Computer Centre",
      "category": [
        "shop.computer"
      ],
      "lat": 22.277919,
      "lon": 114.1772872,
      "osm_id": 3667280349,
      "osm_type": "node",
      "address": "\u8ed2\u5c3c\u8a69\u9053 Hennessy Road",
      "road_geometry": null
    },
    {
      "name": "OK\u4fbf\u5229\u5e97 Circle K",
      "category": [
        "shop.convenience"
      ],
      "lat": 22.2792008,
      "lon": 114.1794422,
      "osm_id": 3668080179,
      "osm_type": "node",
      "address": "\u99f1\u514b\u9053 Lockhart Road",
      "road_geometry": null
    },
    {
      "name": "\u6771\u65b9188 Oriental 188",
      "category": [
        "shop.mall"
      ],
      "lat": 22.2774975,
      "lon": 114.1775528,
      "osm_id": 3668112141,
      "osm_type": "node",
      "address": "\u7063\u4ed4\u9053 Wan Chai Road",
      "road_geometry": null
    },
    {
      "name": "\u5929\u7136\u9f4b Green Veggie",
      "category": [
        "amenity.restaurant"
      ],
      "lat": 22.27905,
      "lon": 114.17707,
      "osm_id": 4149638363,
      "osm_type": "node",
      "address": "Jaffe Road",
      "road_geometry": null
    },
    {
      "name": "BBQ",
      "category": [
        "amenity.restaurant"
      ],
      "lat": 22.27772,
      "lon": 114.17888,
      "osm_id": 4252332991,
      "osm_type": "node",
      "address": "\u7063\u4ed4\u9053 Wan Chai Road",
      "road_geometry": null
    },
    {
      "name": "7-Eleven",
      "category": [
        "shop.convenience"
      ],
      "lat": 22.2777,
      "lon": 114.178402,
      "osm_id": 4345547573,
      "osm_type": "node",
      "address": null,
      "road_geometry": null
    },
    {
      "name": "\u6d59\u6c5f\u8ed2",
      "category": [
        "amenity.restaurant"
      ],
      "lat": 22.2786763,
      "lon": 114.1776287,
      "osm_id": 4484738390,
      "osm_type": "node",
      "address": "\u99f1\u514b\u9053 Lockhart Road",
      "road_geometry": null
    },
    {
      "name": "E.F.C.C. Ling Chuen Church",
      "category": [
        "amenity.place_of_worship"
      ],
      "lat": 22.27768,
      "lon": 114.17725,
      "osm_id": 4673667335,
      "osm_type": "node",
      "address": null,
      "road_geometry": null
    },
    {
      "name": "Premier Construction Materials Limited",
      "category": [
        "shop.doityourself"
      ],
      "lat": 22.2785798,
      "lon": 114.1772069,
      "osm_id": 4858521760,
      "osm_type": "node",
      "address": "\u99f1\u514b\u9053 Lockhart Road",
      "road_geometry": null
    },
    {
      "name": "Anta",
      "category": [
        "shop.doityourself"
      ],
      "lat": 22.2789335,
      "lon": 114.1776624,
      "osm_id": 4858604134,
      "osm_type": "node",
      "address": "\u99f1\u514b\u9053 Lockhart Road",
      "road_geometry": null
    },
    {
      "name": "Hop Kwan",
      "category": [
        "shop.doityourself"
      ],
      "lat": 22.2790253,
      "lon": 114.1779575,
      "osm_id": 4858604135,
      "osm_type": "node",
      "address": "\u99f1\u514b\u9053 Lockhart Road",
      "road_geometry": null
    },
    {
      "name": "\u65b0\u68ee\u6797 New Forest Restaurant",
      "category": [
        "amenity.restaurant"
      ],
      "lat": 22.27772,
      "lon": 114.178748,
      "osm_id": 4911838142,
      "osm_type": "node",
      "address": null,
      "road_geometry": null
    },
    {
      "name": "\u83ef\u767b\u9152\u5e97",
      "category": [
        "tourism.guest_house"
      ],
      "lat": 22.2788032,
      "lon": 114.1790151,
      "osm_id": 5140822421,
      "osm_type": "node",
      "address": null,
      "road_geometry": null
    },
    {
      "name": "Green Ladies Green Little",
      "category": [
        "shop.second_hand"
      ],
      "lat": 22.2779976,
      "lon": 114.1777457,
      "osm_id": 5662551685,
      "osm_type": "node",
      "address": null,
      "road_geometry": null
    },
    {
      "name": "\u559c\u5c45\u751f\u6d3b Lively Life",
      "category": [
        "shop.convenience"
      ],
      "lat": 22.277822,
      "lon": 114.177769,
      "osm_id": 5662551686,
      "osm_type": "node",
      "address": null,
      "road_geometry": null
    },
    {
      "name": "\u842c\u5be7 Mannings",
      "category": [
        "amenity.pharmacy",
        "shop.chemist"
      ],
      "lat": 22.27779,
      "lon": 114.178093,
      "osm_id": 5666661343,
      "osm_type": "node",
      "address": "\u7063\u4ed4\u9053 Wan Chai Road",
      "road_geometry": null
    },
    {
      "name": "\u65b0\u66fc\u8c37\u6cf0\u570b\u83dc\u9928 New Bangkok Restaurant",
      "category": [
        "amenity.restaurant"
      ],
      "lat": 22.278538,
      "lon": 114.179408,
      "osm_id": 6266803607,
      "osm_type": "node",
      "address": "\u8ed2\u5c3c\u8a69\u9053 Hennessy Road",
      "road_geometry": null
    },
    {
      "name": "Lungo",
      "category": [
        "amenity.cafe"
      ],
      "lat": 22.2781984,
      "lon": 114.1782393,
      "osm_id": 6309346177,
      "osm_type": "node",
      "address": "\u8ed2\u5c3c\u8a69\u9053 Hennessy Road",
      "road_geometry": null
    },
    {
      "name": "\u592a\u5e73\u6d0b\u5496\u5561 Pacific Coffee",
      "category": [
        "amenity.cafe"
      ],
      "lat": 22.2785172,
      "lon": 114.1781476,
      "osm_id": 6442475381,
      "osm_type": "node",
      "address": "\u8ed2\u5c3c\u8a69\u9053 Hennessy Road",
      "road_geometry": null
    },
    {
      "name": "\u5408\u52dd\u4e16\u4f2f\u96de Co-winner Restaurant",
      "category": [
        "amenity.restaurant"
      ],
      "lat": 22.2791565,
      "lon": 114.1773842,
      "osm_id": 6725669280,
      "osm_type": "node",
      "address": null,
      "road_geometry": null
    },
    {
      "name": "\u56de\u5bb6\u6e58",
      "category": [
        "amenity.restaurant"
      ],
      "lat": 22.2791493,
      "lon": 114.1776354,
      "osm_id": 6725669282,
      "osm_type": "node",
      "address": null,
      "road_geometry": null
    },
    {
      "name": "\u4f73\u5be7\u5a1c\u6f6e\u5dde\u83dc Carrianna Chiu Chow Restaurant",
      "category": [
        "amenity.restaurant"
      ],
      "lat": 22.2794314,
      "lon": 114.1774145,
      "osm_id": 6759443436,
      "osm_type": "node",
      "address": null,
      "road_geometry": null
    },
    {
      "name": "7-Eleven",
      "category": [
        "shop.convenience"
      ],
      "lat": 22.2787154,
      "lon": 114.1780697,
      "osm_id": 7150918849,
      "osm_type": "node",
      "address": "\u675c\u8001\u8a8c\u9053 Tonnochy Road",
      "road_geometry": null
    },
    {
      "name": "298\u96fb\u8166\u7279\u5340 298 Computer Zone",
      "category": [
        "shop.mall"
      ],
      "lat": 22.2778883,
      "lon": 114.1775204,
      "osm_id": 8887407403,
      "osm_type": "node",
      "address": "\u8ed2\u5c3c\u8a69\u9053 Hennessy Road",
      "road_geometry": null
    },
    {
      "name": "\u675c\u8001\u8a8c\u9053 Tonnochy Road",
      "category": [
        "highway.bus_stop"
      ],
      "lat": 22.2786427,
      "lon": 114.1787843,
      "osm_id": 10001554348,
      "osm_type": "node",
      "address": null,
      "road_geometry": null
    },
    {
      "name": "\u675c\u8001\u8a8c\u9053 Tonnochy Road",
      "category": [
        "highway.bus_stop"
      ],
      "lat": 22.2787074,
      "lon": 114.1790052,
      "osm_id": 10001554349,
      "osm_type": "node",
      "address": null,
      "road_geometry": null
    },
    {
      "name": "7-Eleven",
      "category": [
        "shop.convenience"
      ],
      "lat": 22.2779243,
      "lon": 114.1786928,
      "osm_id": 11304298826,
      "osm_type": "node",
      "address": "\u7063\u4ed4\u9053 Wan Chai Road",
      "road_geometry": null
    }
  ],
  "refinement": {
    "original_poi_count": 135,
    "removed_count": 95,
    "model": "gemini-2.5-flash"
  }
}