{
  "image": "dataset/images/398.png",
  "center_lat": 22.278378378378378,
  "center_lon": 114.18068831370746,
  "bbox": [
    114.1794713540776,
    22.27725225225225,
    114.1819052733373,
    22.2795045045045
  ],
  "unique_categories": [
    "amenity.dentist",
    "amenity.food_court",
    "amenity.pharmacy",
    "amenity.pub",
    "highway.bus_stop",
    "shop.convenience",
    "shop.jewelry",
    "shop.chemist",
    "amenity.restaurant",
    "shop.hairdresser",
    "shop.clothes",
    "shop.supermarket",
    "railway.tram_stop",
    "amenity.parking_entrance",
    "amenity.clinic",
    "shop.beauty",
    "shop.deli"
  ],
  "poi_count_per_category": {
    "amenity.dentist": 1,
    "amenity.food_court": 1,
    "amenity.pharmacy": 1,
    "amenity.pub": 1,
    "highway.bus_stop": 18,
    "shop.convenience": 7,
    "shop.jewelry": 1,
    "shop.chemist": 2,
    "amenity.restaurant": 4,
    "shop.hairdresser": 1,
    "shop.clothes": 1,
    "shop.supermarket": 1,
    "railway.tram_stop": 3,
    "amenity.parking_entrance": 1,
    "amenity.clinic": 1,
    "shop.beauty": 1,
    "shop.deli": 1
  },
  "poi_count": 46,
  "pois": [
    {
      "name": "Hoi Kee Roastie Specialist",
      "category": [
        "amenity.restaurant"
      ],
      "lat": 22.2779173,
      "lon": 114.1804868,
      "osm_id": 629118677,
      "osm_type": "node",
      "address": null,
      "road_geometry": null
    },
    {
      "name": "\u99ac\u5e2b\u9053 Marsh Road",
      "category": [
        "highway.bus_stop"
      ],
      "lat": 22.2792212,
      "lon": 114.1804992,
      "osm_id": 660415810,
      "osm_type": "node",
      "address": null,
      "road_geometry": null
    },
    {
      "name": "\u6642\u4ee3\u5ee3\u5834 Times Square",
      "category": [
        "amenity.parking_entrance"
      ],
      "lat": 22.2780761,
      "lon": 114.1815965,
      "osm_id": 1012752018,
      "osm_type": "node",
      "address": null,
      "road_geometry": null
    },
    {
      "name": "VanGO",
      "category": [
        "shop.convenience"
      ],
      "lat": 22.2786554,
      "lon": 114.1798938,
      "osm_id": 1298704452,
      "osm_type": "node",
      "address": null,
      "road_geometry": null
    },
    {
      "name": "7-Eleven",
      "category": [
        "shop.convenience"
      ],
      "lat": 22.278856,
      "lon": 114.1808761,
      "osm_id": 1298704520,
      "osm_type": "node",
      "address": null,
      "road_geometry": null
    },
    {
      "name": "7-Eleven",
      "category": [
        "shop.convenience"
      ],
      "lat": 22.27822,
      "lon": 114.17989,
      "osm_id": 1299465469,
      "osm_type": "node",
      "address": "\u5929\u6a02\u91cc Tin Lok Lane",
      "road_geometry": null
    },
    {
      "name": "\u5929\u6a02\u91cc Tin Lok Lane",
      "category": [
        "railway.tram_stop"
      ],
      "lat": 22.278505,
      "lon": 114.1796517,
      "osm_id": 2007744664,
      "osm_type": "node",
      "address": null,
      "road_geometry": null
    },
    {
      "name": "\u5805\u62ff\u9053\u897f Canal Road West",
      "category": [
        "railway.tram_stop"
      ],
      "lat": 22.2792254,
      "lon": 114.1807835,
      "osm_id": 2300434361,
      "osm_type": "node",
      "address": null,
      "road_geometry": null
    },
    {
      "name": "\u5805\u62ff\u9053\u897f Canal Road West",
      "category": [
        "railway.tram_stop"
      ],
      "lat": 22.2793972,
      "lon": 114.1813086,
      "osm_id": 2300434366,
      "osm_type": "node",
      "address": null,
      "road_geometry": null
    },
    {
      "name": "\u5805\u62ff\u9053\u6771 Canal Road East",
      "category": [
        "highway.bus_stop"
      ],
      "lat": 22.2786327,
      "lon": 114.181269,
      "osm_id": 2987691523,
      "osm_type": "node",
      "address": null,
      "road_geometry": null
    },
    {
      "name": "\u5805\u62ff\u9053\u6771 Canal Road East",
      "category": [
        "highway.bus_stop"
      ],
      "lat": 22.2794471,
      "lon": 114.1817493,
      "osm_id": 2987691524,
      "osm_type": "node",
      "address": null,
      "road_geometry": null
    },
    {
      "name": "\u5805\u62ff\u9053\u6771 Canal Road East",
      "category": [
        "highway.bus_stop"
      ],
      "lat": 22.2794664,
      "lon": 114.1818001,
      "osm_id": 2987691525,
      "osm_type": "node",
      "address": null,
      "road_geometry": null
    },
    {
      "name": "\u5805\u62ff\u9053\u5df4\u58eb\u5c08\u7528\u7dda Canal Road bus only road",
      "category": [
        "highway.bus_stop"
      ],
      "lat": 22.2779548,
      "lon": 114.1812332,
      "osm_id": 2987691528,
      "osm_type": "node",
      "address": null,
      "road_geometry": null
    },
    {
      "name": "\u5805\u62ff\u9053\u5df4\u58eb\u5c08\u7528\u7dda Canal Road bus only road",
      "category": [
        "highway.bus_stop"
      ],
      "lat": 22.278048,
      "lon": 114.181239,
      "osm_id": 2987691529,
      "osm_type": "node",
      "address": null,
      "road_geometry": null
    },
    {
      "name": "\u5805\u62ff\u9053\u5df4\u58eb\u5c08\u7528\u7dda Canal Road bus only road",
      "category": [
        "highway.bus_stop"
      ],
      "lat": 22.2786804,
      "lon": 114.1812731,
      "osm_id": 2987691530,
      "osm_type": "node",
      "address": null,
      "road_geometry": null
    },
    {
      "name": "\u5805\u62ff\u9053\u5df4\u58eb\u5c08\u7528\u7dda Canal Road bus only road",
      "category": [
        "highway.bus_stop"
      ],
      "lat": 22.2788458,
      "lon": 114.1812848,
      "osm_id": 2987691531,
      "osm_type": "node",
      "address": null,
      "road_geometry": null
    },
    {
      "name": "\u99ac\u5e2b\u9053 Marsh Road",
      "category": [
        "highway.bus_stop"
      ],
      "lat": 22.27913,
      "lon": 114.1802566,
      "osm_id": 2995395044,
      "osm_type": "node",
      "address": null,
      "road_geometry": null
    },
    {
      "name": "\u99ac\u5e2b\u9053 Marsh Road",
      "category": [
        "highway.bus_stop"
      ],
      "lat": 22.2791659,
      "lon": 114.1803507,
      "osm_id": 2995395045,
      "osm_type": "node",
      "address": null,
      "road_geometry": null
    },
    {
      "name": "Zara",
      "category": [
        "shop.clothes"
      ],
      "lat": 22.2781917,
      "lon": 114.1818023,
      "osm_id": 3668067301,
      "osm_type": "node",
      "address": null,
      "road_geometry": null
    },
    {
      "name": "7-Eleven",
      "category": [
        "shop.convenience"
      ],
      "lat": 22.2774014,
      "lon": 114.1799009,
      "osm_id": 4143041290,
      "osm_type": "node",
      "address": "\u6469\u7406\u81e3\u5c71\u9053 Morrison Hill Road",
      "road_geometry": null
    },
    {
      "name": "\u5f37\u8a18\u98ef\u5e97",
      "category": [
        "amenity.restaurant"
      ],
      "lat": 22.27828,
      "lon": 114.17987,
      "osm_id": 4169404889,
      "osm_type": "node",
      "address": null,
      "road_geometry": null
    },
    {
      "name": "Massage",
      "category": [
        "shop.beauty"
      ],
      "lat": 22.2778918,
      "lon": 114.1801947,
      "osm_id": 4376774524,
      "osm_type": "node",
      "address": null,
      "road_geometry": null
    },
    {
      "name": "\u5927\u57d4\u632f\u8208\u8089\u4e38",
      "category": [
        "shop.deli"
      ],
      "lat": 22.2782546,
      "lon": 114.180964,
      "osm_id": 4662923092,
      "osm_type": "node",
      "address": "\u5805\u62ff\u9053\u897f Canal Road West",
      "road_geometry": null
    },
    {
      "name": "\u842c\u798f\u73e0\u5bf6 Manfook Jewellery",
      "category": [
        "shop.jewelry"
      ],
      "lat": 22.279135,
      "lon": 114.1810416,
      "osm_id": 4855989705,
      "osm_type": "node",
      "address": "\u8ed2\u5c3c\u8a69\u9053 Hennessy Road",
      "road_geometry": null
    },
    {
      "name": "Med-Link Medical Centre",
      "category": [
        "amenity.clinic"
      ],
      "lat": 22.2777786,
      "lon": 114.1796941,
      "osm_id": 4856120478,
      "osm_type": "node",
      "address": "\u6469\u7406\u81e3\u5c71\u9053 Morrison Hill Road",
      "road_geometry": null
    },
    {
      "name": "\u6c11\u751f\u85e5\u623f Man Sang Dispensary",
      "category": [
        "amenity.pharmacy"
      ],
      "lat": 22.278119,
      "lon": 114.17964,
      "osm_id": 4856120488,
      "osm_type": "node",
      "address": "\u5929\u6a02\u91cc Tin Lok Lane",
      "road_geometry": null
    },
    {
      "name": "7-Eleven",
      "category": [
        "shop.convenience"
      ],
      "lat": 22.279029,
      "lon": 114.17983,
      "osm_id": 4856133236,
      "osm_type": "node",
      "address": "\u8ed2\u5c3c\u8a69\u9053 Hennessy Road",
      "road_geometry": null
    },
    {
      "name": "Green Hair Salon",
      "category": [
        "shop.hairdresser"
      ],
      "lat": 22.2784184,
      "lon": 114.1798511,
      "osm_id": 4856591164,
      "osm_type": "node",
      "address": "\u5929\u6a02\u91cc Tin Lok Lane",
      "road_geometry": null
    },
    {
      "name": "7-Eleven",
      "category": [
        "shop.convenience"
      ],
      "lat": 22.27934,
      "lon": 114.17982,
      "osm_id": 4858546101,
      "osm_type": "node",
      "address": "\u99f1\u514b\u9053 Lockhart Road",
      "road_geometry": null
    },
    {
      "name": "\u5929\u6a02\u91cc Tin Lok Lane",
      "category": [
        "highway.bus_stop"
      ],
      "lat": 22.2788928,
      "lon": 114.180262,
      "osm_id": 5453990604,
      "osm_type": "node",
      "address": null,
      "road_geometry": null
    },
    {
      "name": "\u5929\u6a02\u91cc Tin Lok Lane",
      "category": [
        "highway.bus_stop"
      ],
      "lat": 22.2788869,
      "lon": 114.180246,
      "osm_id": 5453990605,
      "osm_type": "node",
      "address": null,
      "road_geometry": null
    },
    {
      "name": "\u5929\u6a02\u91cc Tin Lok Lane",
      "category": [
        "highway.bus_stop"
      ],
      "lat": 22.278881,
      "lon": 114.18023,
      "osm_id": 5453990606,
      "osm_type": "node",
      "address": null,
      "road_geometry": null
    },
    {
      "name": "7-Eleven",
      "category": [
        "shop.convenience"
      ],
      "lat": 22.279233,
      "lon": 114.1815065,
      "osm_id": 6433775050,
      "osm_type": "node",
      "address": null,
      "road_geometry": null
    },
    {
      "name": "\u516b\u6469\u5c71 Mori San",
      "category": [
        "amenity.restaurant"
      ],
      "lat": 22.2775981,
      "lon": 114.179809,
      "osm_id": 6437857985,
      "osm_type": "node",
      "address": "\u6469\u7406\u81e3\u5c71\u9053 Morrison Hill Road",
      "road_geometry": null
    },
    {
      "name": "\u5c48\u81e3\u6c0f Watsons",
      "category": [
        "shop.chemist"
      ],
      "lat": 22.2787476,
      "lon": 114.1800735,
      "osm_id": 6532139585,
      "osm_type": "node",
      "address": null,
      "road_geometry": null
    },
    {
      "name": "\u5bcc\u9054\u85e5\u574a Full Da Medicine",
      "category": [
        "shop.chemist"
      ],
      "lat": 22.2785434,
      "lon": 114.1809845,
      "osm_id": 6830775780,
      "osm_type": "node",
      "address": "\u5805\u62ff\u9053\u897f Canal Road West",
      "road_geometry": null
    },
    {
      "name": "\u5805\u62ff\u9053\u897f Canal Road West",
      "category": [
        "highway.bus_stop"
      ],
      "lat": 22.2773437,
      "lon": 114.1809646,
      "osm_id": 7139929038,
      "osm_type": "node",
      "address": null,
      "road_geometry": null
    },
    {
      "name": "\u5805\u62ff\u9053\u897f Canal Road West",
      "category": [
        "highway.bus_stop"
      ],
      "lat": 22.2773015,
      "lon": 114.1809628,
      "osm_id": 7139929039,
      "osm_type": "node",
      "address": null,
      "road_geometry": null
    },
    {
      "name": "Draft Land",
      "category": [
        "amenity.pub"
      ],
      "lat": 22.2789792,
      "lon": 114.1817816,
      "osm_id": 7358498855,
      "osm_type": "node",
      "address": null,
      "road_geometry": null
    },
    {
      "name": "\u99ac\u5e2b\u9053 Marsh Road",
      "category": [
        "highway.bus_stop"
      ],
      "lat": 22.2790654,
      "lon": 114.180085,
      "osm_id": 7975658803,
      "osm_type": "node",
      "address": null,
      "road_geometry": null
    },
    {
      "name": "\u5065\u7259\u4ed5 Dr. Smile",
      "category": [
        "amenity.dentist"
      ],
      "lat": 22.2790736,
      "lon": 114.179959,
      "osm_id": 8212399083,
      "osm_type": "node",
      "address": "\u8ed2\u5c3c\u8a69\u9053 Hennessy Road",
      "road_geometry": null
    },
    {
      "name": "\u9d5d\u9838\u719f\u98df\u4e2d\u5fc3 Bowrington Road Cooked Food Centre",
      "category": [
        "amenity.food_court"
      ],
      "lat": 22.2780917,
      "lon": 114.1804576,
      "osm_id": 9001603191,
      "osm_type": "node",
      "address": null,
      "road_geometry": null
    },
    {
      "name": "City super-\u6642\u4ee3\u5ee3\u5834\u3000City'super-Times Square",
      "category": [
        "shop.supermarket"
      ],
      "lat": 22.27835,
      "lon": 114.18182,
      "osm_id": 11757567445,
      "osm_type": "node",
      "address": "\u6642\u4ee3\u5ee3\u5834",
      "road_geometry": null
    },
    {
      "name": "\u5805\u62ff\u9053\u6771 Canal Road East",
      "category": [
        "highway.bus_stop"
      ],
      "lat": 22.2794989,
      "lon": 114.1818862,
      "osm_id": 12400170027,
      "osm_type": "node",
      "address": null,
      "road_geometry": null
    },
    {
      "name": "\u5805\u62ff\u9053\u6771 Canal Road East",
      "category": [
        "highway.bus_stop"
      ],
      "lat": 22.2794248,
      "lon": 114.1816908,
      "osm_id": 12400170028,
      "osm_type": "node",
      "address": null,
      "road_geometry": null
    },
    {
      "name": "\u8089\u4f50",
      "category": [
        "amenity.restaurant"
      ],
      "lat": 22.2788976,
      "lon": 114.1816798,
      "osm_id": 12840052301,
      "osm_type": "node",
      "address": "\u767b\u9f8d\u8857 Tang Lung Street",
      "road_geometry": null
    }
  ],
  "refinement": {
    "original_poi_count": 106,
    "removed_count": 60,
    "model": "gemini-2.5-flash"
  }
}