{
  "image": "dataset/images/402.png",
  "center_lat": 22.28063063063063,
  "center_lon": 114.16365093768582,
  "bbox": [
    114.16243395845721,
    22.2795045045045,
    114.16486791691443,
    22.281756756756753
  ],
  "unique_categories": [
    "highway.bus_stop",
    "shop.convenience",
    "amenity.restaurant",
    "amenity.bank",
    "amenity.fast_food",
    "amenity.clinic"
  ],
  "poi_count_per_category": {
    "highway.bus_stop": 5,
    "shop.convenience": 1,
    "amenity.restaurant": 2,
    "amenity.bank": 1,
    "amenity.fast_food": 1,
    "amenity.clinic": 1
  },
  "poi_count": 11,
  "pois": [
    {
      "name": "\u529b\u5bf6\u4e2d\u5fc3 Lippo Centre",
      "category": [
        "highway.bus_stop"
      ],
      "lat": 22.27969,
      "lon": 114.1631302,
      "osm_id": 1906352488,
      "osm_type": "node",
      "address": null,
      "road_geometry": null
    },
    {
      "name": "\u6d77\u5bcc\u4e2d\u5fc3 Admiralty Centre",
      "category": [
        "highway.bus_stop"
      ],
      "lat": 22.2797299,
      "lon": 114.1648522,
      "osm_id": 1906352505,
      "osm_type": "node",
      "address": null,
      "road_geometry": null
    },
    {
      "name": "\u91d1\u9418\u7ad9 - \u529b\u5bf6\u4e2d\u5fc3 Admiralty Station - Lippo Centre",
      "category": [
        "highway.bus_stop"
      ],
      "lat": 22.2798106,
      "lon": 114.1632323,
      "osm_id": 2496629597,
      "osm_type": "node",
      "address": null,
      "road_geometry": null
    },
    {
      "name": "\u91d1\u9418\u7ad9 - \u529b\u5bf6\u4e2d\u5fc3 Admiralty Station - Lippo Centre",
      "category": [
        "highway.bus_stop"
      ],
      "lat": 22.2796985,
      "lon": 114.1631374,
      "osm_id": 2496629599,
      "osm_type": "node",
      "address": null,
      "road_geometry": null
    },
    {
      "name": "M&S Simply Food",
      "category": [
        "shop.convenience"
      ],
      "lat": 22.2797578,
      "lon": 114.1636135,
      "osm_id": 2556738323,
      "osm_type": "node",
      "address": null,
      "road_geometry": null
    },
    {
      "name": "\u5927\u5feb\u6d3b Fairwood",
      "category": [
        "amenity.fast_food"
      ],
      "lat": 22.2800731,
      "lon": 114.1639569,
      "osm_id": 4168504990,
      "osm_type": "node",
      "address": null,
      "road_geometry": null
    },
    {
      "name": "\u56db\u5b63\uff0e\u6085 Shiki\uff0eEtsu",
      "category": [
        "amenity.restaurant"
      ],
      "lat": 22.2798875,
      "lon": 114.1641017,
      "osm_id": 4168522489,
      "osm_type": "node",
      "address": null,
      "road_geometry": null
    },
    {
      "name": "BNI",
      "category": [
        "amenity.bank"
      ],
      "lat": 22.2797538,
      "lon": 114.1643897,
      "osm_id": 4857992732,
      "osm_type": "node",
      "address": "\u5fb7\u7acb\u8857 Drake Street",
      "road_geometry": null
    },
    {
      "name": "La Taste",
      "category": [
        "amenity.restaurant"
      ],
      "lat": 22.2800859,
      "lon": 114.1641236,
      "osm_id": 4857992733,
      "osm_type": "node",
      "address": "\u590f\u6164\u9053 Harcourt Road",
      "road_geometry": null
    },
    {
      "name": "\u9999\u6e2f\u80a9\u8155\u819d\u4e2d\u5fc3 Hong Kong ShoulderWrist and Knee Centre",
      "category": [
        "amenity.clinic"
      ],
      "lat": 22.2805976,
      "lon": 114.1629073,
      "osm_id": 7625196785,
      "osm_type": "node",
      "address": "\u590f\u6164\u9053 Harcourt Road",
      "road_geometry": null
    },
    {
      "name": "\u7d05\u68c9\u8def\u652f\u8def\u529b\u5bf6\u4e2d\u5fc3 Cotton Tree Drive slip road Lippo Centre",
      "category": [
        "highway.bus_stop"
      ],
      "lat": 22.2798031,
      "lon": 114.1632259,
      "osm_id": 11762379408,
      "osm_type": "node",
      "address": null,
      "road_geometry": null
    }
  ],
  "refinement": {
    "original_poi_count": 22,
    "removed_count": 11,
    "model": "gemini-2.5-flash"
  }
}