{
  "image": "dataset/images/481.png",
  "center_lat": 22.29639639639639,
  "center_lon": 114.16851981543167,
  "bbox": [
    114.16730269894143,
    22.29527027027026,
    114.1697369319219,
    22.297522522522513
  ],
  "unique_categories": [
    "shop.coffee",
    "shop.cosmetics",
    "highway.bus_stop",
    "shop.perfumery",
    "amenity.cafe",
    "shop.jewelry",
    "shop.furniture",
    "amenity.restaurant",
    "shop.clothes",
    "shop.department_store"
  ],
  "poi_count_per_category": {
    "shop.coffee": 1,
    "shop.cosmetics": 1,
    "highway.bus_stop": 4,
    "shop.perfumery": 1,
    "amenity.cafe": 1,
    "shop.jewelry": 5,
    "shop.furniture": 1,
    "amenity.restaurant": 2,
    "shop.clothes": 6,
    "shop.department_store": 1
  },
  "poi_count": 23,
  "pois": [
    {
      "name": "\u65b0\u6e2f\u4e2d\u5fc3 Silvercord",
      "category": [
        "highway.bus_stop"
      ],
      "lat": 22.29751,
      "lon": 114.1690033,
      "osm_id": 3780732091,
      "osm_type": "node",
      "address": null,
      "road_geometry": null
    },
    {
      "name": "\u5317\u4eac\u9053 Peking Road",
      "category": [
        "highway.bus_stop"
      ],
      "lat": 22.2956447,
      "lon": 114.1694303,
      "osm_id": 3780737618,
      "osm_type": "node",
      "address": null,
      "road_geometry": null
    },
    {
      "name": "\u65b0\u6e2f\u4e2d\u5fc3 Silvercord",
      "category": [
        "highway.bus_stop"
      ],
      "lat": 22.297465,
      "lon": 114.1690132,
      "osm_id": 3912040163,
      "osm_type": "node",
      "address": null,
      "road_geometry": null
    },
    {
      "name": "\u9f0e\u6cf0\u8c50 Din Tai Fung",
      "category": [
        "amenity.restaurant"
      ],
      "lat": 22.2973849,
      "lon": 114.1692823,
      "osm_id": 4149643552,
      "osm_type": "node",
      "address": "\u5ee3\u6771\u9053 Canton Road",
      "road_geometry": null
    },
    {
      "name": "H&M",
      "category": [
        "shop.clothes"
      ],
      "lat": 22.2971782,
      "lon": 114.1691692,
      "osm_id": 4848264303,
      "osm_type": "node",
      "address": "\u5ee3\u6771\u9053 Canton Road",
      "road_geometry": null
    },
    {
      "name": "\u68b5\u514b\u96c5\u5bf6 Van Cleef & Arpels",
      "category": [
        "shop.jewelry"
      ],
      "lat": 22.2954289,
      "lon": 114.1695674,
      "osm_id": 4848266418,
      "osm_type": "node",
      "address": "\u5ee3\u6771\u9053 Canton Road",
      "road_geometry": null
    },
    {
      "name": "Dior",
      "category": [
        "shop.perfumery"
      ],
      "lat": 22.2959642,
      "lon": 114.1694243,
      "osm_id": 4848267121,
      "osm_type": "node",
      "address": "\u5317\u4eac\u9053 Peking Road",
      "road_geometry": null
    },
    {
      "name": "\u82f1\u7687\u9418\u9336\u73e0\u5bf6 Emperor Watch & Jewellery",
      "category": [
        "shop.jewelry"
      ],
      "lat": 22.2963241,
      "lon": 114.1693571,
      "osm_id": 4848270229,
      "osm_type": "node",
      "address": "\u5ee3\u6771\u9053 Canton Road",
      "road_geometry": null
    },
    {
      "name": "Omega",
      "category": [
        "shop.jewelry"
      ],
      "lat": 22.2964494,
      "lon": 114.1693296,
      "osm_id": 4848270230,
      "osm_type": "node",
      "address": "\u5ee3\u6771\u9053 Canton Road",
      "road_geometry": null
    },
    {
      "name": "Fendi",
      "category": [
        "shop.clothes"
      ],
      "lat": 22.2967911,
      "lon": 114.1682802,
      "osm_id": 4848291197,
      "osm_type": "node",
      "address": "\u5ee3\u6771\u9053 Canton Road",
      "road_geometry": null
    },
    {
      "name": "Prada",
      "category": [
        "shop.clothes"
      ],
      "lat": 22.2973712,
      "lon": 114.1688055,
      "osm_id": 4848291199,
      "osm_type": "node",
      "address": "\u5ee3\u6771\u9053 Canton Road",
      "road_geometry": null
    },
    {
      "name": "Louis Vuitton",
      "category": [
        "shop.jewelry"
      ],
      "lat": 22.2963395,
      "lon": 114.1690349,
      "osm_id": 4848291202,
      "osm_type": "node",
      "address": "\u5ee3\u6771\u9053 Canton Road",
      "road_geometry": null
    },
    {
      "name": "\u661f\u5df4\u514b Starbucks",
      "category": [
        "amenity.cafe"
      ],
      "lat": 22.2960602,
      "lon": 114.1688074,
      "osm_id": 6824463595,
      "osm_type": "node",
      "address": null,
      "road_geometry": null
    },
    {
      "name": "Uniqlo",
      "category": [
        "shop.clothes"
      ],
      "lat": 22.2968961,
      "lon": 114.1688318,
      "osm_id": 6824463599,
      "osm_type": "node",
      "address": null,
      "road_geometry": null
    },
    {
      "name": "\u7121\u5370\u826f\u54c1 Muji",
      "category": [
        "shop.department_store"
      ],
      "lat": 22.295814,
      "lon": 114.1690724,
      "osm_id": 6824463600,
      "osm_type": "node",
      "address": null,
      "road_geometry": null
    },
    {
      "name": "\u5317\u4eac\u9053 Peking Road",
      "category": [
        "highway.bus_stop"
      ],
      "lat": 22.2956328,
      "lon": 114.1694323,
      "osm_id": 6980052369,
      "osm_type": "node",
      "address": null,
      "road_geometry": null
    },
    {
      "name": "T Galleria",
      "category": [
        "shop.cosmetics"
      ],
      "lat": 22.2968825,
      "lon": 114.1692342,
      "osm_id": 10875906427,
      "osm_type": "node",
      "address": null,
      "road_geometry": null
    },
    {
      "name": "\u674e\u5b81",
      "category": [
        "shop.clothes"
      ],
      "lat": 22.2974313,
      "lon": 114.1691135,
      "osm_id": 10875906437,
      "osm_type": "node",
      "address": null,
      "road_geometry": null
    },
    {
      "name": "De Beers",
      "category": [
        "shop.jewelry"
      ],
      "lat": 22.2970396,
      "lon": 114.1688792,
      "osm_id": 10875906442,
      "osm_type": "node",
      "address": null,
      "road_geometry": null
    },
    {
      "name": "Chanel",
      "category": [
        "shop.clothes"
      ],
      "lat": 22.2959989,
      "lon": 114.1691106,
      "osm_id": 10875906449,
      "osm_type": "node",
      "address": null,
      "road_geometry": null
    },
    {
      "name": "Cova",
      "category": [
        "amenity.restaurant"
      ],
      "lat": 22.2973964,
      "lon": 114.1681229,
      "osm_id": 12014966926,
      "osm_type": "node",
      "address": null,
      "road_geometry": null
    },
    {
      "name": "Cupping Room Coffee Roasters",
      "category": [
        "shop.coffee"
      ],
      "lat": 22.2963753,
      "lon": 114.1682485,
      "osm_id": 12438333801,
      "osm_type": "node",
      "address": null,
      "road_geometry": null
    },
    {
      "name": "OSIM",
      "category": [
        "shop.furniture"
      ],
      "lat": 22.2963264,
      "lon": 114.1685429,
      "osm_id": 12643507763,
      "osm_type": "node",
      "address": null,
      "road_geometry": null
    }
  ],
  "refinement": {
    "original_poi_count": 34,
    "removed_count": 11,
    "model": "gemini-2.5-flash"
  }
}