{
  "image": "dataset/images/492.png",
  "center_lat": 22.29864864864864,
  "center_lon": 114.16851995276363,
  "bbox": [
    114.16730281665454,
    22.297522522522513,
    114.16973708887272,
    22.299774774774765
  ],
  "unique_categories": [
    "shop.electronics",
    "shop.cosmetics",
    "leisure.garden",
    "amenity.ice_cream",
    "highway.bus_stop",
    "shop.chemist",
    "shop.jewelry",
    "amenity.restaurant",
    "amenity.bank",
    "shop.clothes",
    "amenity.fast_food",
    "shop.supermarket",
    "shop.mall",
    "shop.beauty"
  ],
  "poi_count_per_category": {
    "shop.electronics": 1,
    "shop.cosmetics": 1,
    "leisure.garden": 1,
    "amenity.ice_cream": 1,
    "highway.bus_stop": 1,
    "shop.chemist": 2,
    "shop.jewelry": 3,
    "amenity.restaurant": 1,
    "amenity.bank": 1,
    "shop.clothes": 8,
    "amenity.fast_food": 1,
    "shop.supermarket": 1,
    "shop.mall": 1,
    "shop.beauty": 1
  },
  "poi_count": 24,
  "pois": [
    {
      "name": "Apple Store",
      "category": [
        "shop.electronics"
      ],
      "lat": 22.299201,
      "lon": 114.1687185,
      "osm_id": 2719226767,
      "osm_type": "node",
      "address": "\u5ee3\u6771\u9053 Canton Road",
      "road_geometry": null
    },
    {
      "name": "\u4e2d\u570b\u5eda\u623f Chinese Kitchen",
      "category": [
        "amenity.restaurant"
      ],
      "lat": 22.2995232,
      "lon": 114.168647,
      "osm_id": 4315443789,
      "osm_type": "node",
      "address": "\u5ee3\u6771\u9053 Canton Road",
      "road_geometry": null
    },
    {
      "name": "\u81fa\u7063\u571f\u5730\u9280\u884c Land Bank of Taiwan",
      "category": [
        "amenity.bank"
      ],
      "lat": 22.2995292,
      "lon": 114.1681006,
      "osm_id": 4534091193,
      "osm_type": "node",
      "address": "\u5ee3\u6771\u9053 Canton Road",
      "road_geometry": null
    },
    {
      "name": "\u827e\u5361\u7f8e\u7f8e\u5bb9 Alchemy",
      "category": [
        "shop.beauty"
      ],
      "lat": 22.2982339,
      "lon": 114.1689637,
      "osm_id": 4848128247,
      "osm_type": "node",
      "address": "\u5ee3\u6771\u9053 Canton Road",
      "road_geometry": null
    },
    {
      "name": "Giorgio Armani",
      "category": [
        "shop.clothes"
      ],
      "lat": 22.2995694,
      "lon": 114.1683167,
      "osm_id": 4848185524,
      "osm_type": "node",
      "address": "\u5ee3\u6771\u9053 Canton Road",
      "road_geometry": null
    },
    {
      "name": "Emporio Armani",
      "category": [
        "shop.clothes"
      ],
      "lat": 22.2991275,
      "lon": 114.1684149,
      "osm_id": 4848185525,
      "osm_type": "node",
      "address": "\u5ee3\u6771\u9053 Canton Road",
      "road_geometry": null
    },
    {
      "name": "Dolce & Gabbana",
      "category": [
        "shop.clothes"
      ],
      "lat": 22.2983264,
      "lon": 114.1685931,
      "osm_id": 4848185527,
      "osm_type": "node",
      "address": null,
      "road_geometry": null
    },
    {
      "name": "Munsingwear",
      "category": [
        "shop.clothes"
      ],
      "lat": 22.2980577,
      "lon": 114.1686727,
      "osm_id": 4848291196,
      "osm_type": "node",
      "address": "\u5ee3\u6771\u9053 Canton Road",
      "road_geometry": null
    },
    {
      "name": "Ferragamo",
      "category": [
        "shop.clothes"
      ],
      "lat": 22.2977095,
      "lon": 114.1687303,
      "osm_id": 4848291203,
      "osm_type": "node",
      "address": "\u5ee3\u6771\u9053 Canton Road",
      "road_geometry": null
    },
    {
      "name": "Herm\u00e8s",
      "category": [
        "shop.clothes"
      ],
      "lat": 22.2986741,
      "lon": 114.1685158,
      "osm_id": 4848291204,
      "osm_type": "node",
      "address": null,
      "road_geometry": null
    },
    {
      "name": "\u5468\u5927\u798f Chow Tai Fook",
      "category": [
        "shop.jewelry"
      ],
      "lat": 22.2978941,
      "lon": 114.1691761,
      "osm_id": 4850175018,
      "osm_type": "node",
      "address": "\u6d77\u9632\u9053 Haiphong Road",
      "road_geometry": null
    },
    {
      "name": "\u5ee3\u6771\u9053 Canton Road",
      "category": [
        "highway.bus_stop"
      ],
      "lat": 22.2983118,
      "lon": 114.1688374,
      "osm_id": 5929301136,
      "osm_type": "node",
      "address": null,
      "road_geometry": null
    },
    {
      "name": "Dalloyau",
      "category": [
        "amenity.ice_cream"
      ],
      "lat": 22.2978954,
      "lon": 114.1682975,
      "osm_id": 6178389686,
      "osm_type": "node",
      "address": "\u5ee3\u6771\u9053 Canton Road",
      "road_geometry": null
    },
    {
      "name": "\u6e2f\u57ce Kong City",
      "category": [
        "shop.chemist"
      ],
      "lat": 22.2983949,
      "lon": 114.1688716,
      "osm_id": 6371599588,
      "osm_type": "node",
      "address": "\u5ee3\u6771\u9053 Canton Road",
      "road_geometry": null
    },
    {
      "name": "\u5927\u5bb6\u6a02 Caf\u00e9 de Coral",
      "category": [
        "amenity.fast_food"
      ],
      "lat": 22.2989861,
      "lon": 114.1681261,
      "osm_id": 6824463594,
      "osm_type": "node",
      "address": null,
      "road_geometry": null
    },
    {
      "name": "\u300c\u751f\u547d\u00b7\u611b\u300d\u82b1\u5712 Garden of Life",
      "category": [
        "leisure.garden"
      ],
      "lat": 22.2987611,
      "lon": 114.1697159,
      "osm_id": 10008397255,
      "osm_type": "node",
      "address": null,
      "road_geometry": null
    },
    {
      "name": "\u5ee3\u6771\u634c\u62fe CANTONYAMA",
      "category": [
        "shop.mall"
      ],
      "lat": 22.2985351,
      "lon": 114.1689238,
      "osm_id": 10132630756,
      "osm_type": "node",
      "address": "\u5ee3\u6771\u9053 Canton Road",
      "road_geometry": null
    },
    {
      "name": "Van Cleef & Arpels",
      "category": [
        "shop.jewelry"
      ],
      "lat": 22.2978753,
      "lon": 114.1686934,
      "osm_id": 10875906443,
      "osm_type": "node",
      "address": null,
      "road_geometry": null
    },
    {
      "name": "Miu Miu",
      "category": [
        "shop.clothes"
      ],
      "lat": 22.2977924,
      "lon": 114.1687118,
      "osm_id": 10875906444,
      "osm_type": "node",
      "address": null,
      "road_geometry": null
    },
    {
      "name": "Moncler",
      "category": [
        "shop.clothes"
      ],
      "lat": 22.2984599,
      "lon": 114.1685634,
      "osm_id": 10875906446,
      "osm_type": "node",
      "address": null,
      "road_geometry": null
    },
    {
      "name": "Piaget",
      "category": [
        "shop.jewelry"
      ],
      "lat": 22.2981651,
      "lon": 114.1686289,
      "osm_id": 10875906447,
      "osm_type": "node",
      "address": null,
      "road_geometry": null
    },
    {
      "name": "\u838e\u838e Sasa",
      "category": [
        "shop.cosmetics"
      ],
      "lat": 22.2989461,
      "lon": 114.168751,
      "osm_id": 11473150631,
      "osm_type": "node",
      "address": "\u5ee3\u6771\u9053 Canton Road",
      "road_geometry": null
    },
    {
      "name": "\u9f8d\u8c50Mall",
      "category": [
        "shop.chemist"
      ],
      "lat": 22.2987843,
      "lon": 114.1687876,
      "osm_id": 11473150633,
      "osm_type": "node",
      "address": "\u5ee3\u6771\u9053 Canton Road",
      "road_geometry": null
    },
    {
      "name": "City super-\u6d77\u6e2f\u57ce\u3000City'super-Harbour City",
      "category": [
        "shop.supermarket"
      ],
      "lat": 22.29847,
      "lon": 114.16796,
      "osm_id": 11757639370,
      "osm_type": "node",
      "address": "\u6d77\u6e2f\u57ce\u6e2f\u5a01\u5546\u5834",
      "road_geometry": null
    }
  ],
  "refinement": {
    "original_poi_count": 45,
    "removed_count": 21,
    "model": "gemini-2.5-flash"
  }
}