{
  "image": "dataset/images/495.png",
  "center_lat": 22.29864864864864,
  "center_lon": 114.17582276941818,
  "bbox": [
    114.17460563330908,
    22.297522522522513,
    114.17703990552727,
    22.299774774774765
  ],
  "unique_categories": [
    "shop.shoes",
    "tourism.hotel",
    "shop.convenience",
    "shop.jewelry",
    "amenity.restaurant",
    "amenity.bar",
    "amenity.bank",
    "shop.clothes",
    "shop.massage",
    "shop.beauty"
  ],
  "poi_count_per_category": {
    "shop.shoes": 1,
    "tourism.hotel": 1,
    "shop.convenience": 1,
    "shop.jewelry": 3,
    "amenity.restaurant": 6,
    "amenity.bar": 2,
    "amenity.bank": 2,
    "shop.clothes": 1,
    "shop.massage": 1,
    "shop.beauty": 1
  },
  "poi_count": 19,
  "pois": [
    {
      "name": "7-Eleven",
      "category": [
        "shop.convenience"
      ],
      "lat": 22.2994524,
      "lon": 114.176566,
      "osm_id": 3914318594,
      "osm_type": "node",
      "address": null,
      "road_geometry": null
    },
    {
      "name": "Sushi one",
      "category": [
        "amenity.bar"
      ],
      "lat": 22.2993186,
      "lon": 114.175264,
      "osm_id": 4501631889,
      "osm_type": "node",
      "address": null,
      "road_geometry": null
    },
    {
      "name": "Tai Fung Lau Peking Restaurant",
      "category": [
        "amenity.restaurant"
      ],
      "lat": 22.298008,
      "lon": 114.175489,
      "osm_id": 4848354400,
      "osm_type": "node",
      "address": "\u6f06\u54b8\u9053\u5357 Chatham Road South",
      "road_geometry": null
    },
    {
      "name": "Time Watch",
      "category": [
        "shop.jewelry"
      ],
      "lat": 22.2986391,
      "lon": 114.1755813,
      "osm_id": 4848354402,
      "osm_type": "node",
      "address": "\u6f06\u54b8\u9053\u5357 Chatham Road South",
      "road_geometry": null
    },
    {
      "name": "\u5bf6\u9e97\u5eca\u73e0\u5bf6 Brilliant Jewellery",
      "category": [
        "shop.jewelry"
      ],
      "lat": 22.2994167,
      "lon": 114.1756264,
      "osm_id": 4850496939,
      "osm_type": "node",
      "address": "\u91d1\u99ac\u502b\u9053 Cameron Road",
      "road_geometry": null
    },
    {
      "name": "Initial",
      "category": [
        "shop.clothes"
      ],
      "lat": 22.2992653,
      "lon": 114.1751197,
      "osm_id": 4850496944,
      "osm_type": "node",
      "address": "\u91d1\u99ac\u502b\u9053 Cameron Road",
      "road_geometry": null
    },
    {
      "name": "\u4e2d\u570b\u9280\u884c\uff08\u9999\u6e2f\uff09 Bank of China (Hong Kong)",
      "category": [
        "amenity.bank"
      ],
      "lat": 22.2991427,
      "lon": 114.1746615,
      "osm_id": 4850515465,
      "osm_type": "node",
      "address": "\u91d1\u99ac\u502b\u9053 Cameron Road",
      "road_geometry": null
    },
    {
      "name": "Daily Sauna",
      "category": [
        "shop.beauty"
      ],
      "lat": 22.2985198,
      "lon": 114.1747494,
      "osm_id": 4850676199,
      "osm_type": "node",
      "address": "\u5bf6\u52d2\u5df7 Prat Avenue",
      "road_geometry": null
    },
    {
      "name": "Al Dente",
      "category": [
        "amenity.bar"
      ],
      "lat": 22.2986145,
      "lon": 114.1750987,
      "osm_id": 4850676203,
      "osm_type": "node",
      "address": "\u5bf6\u52d2\u5df7 Prat Avenue",
      "road_geometry": null
    },
    {
      "name": "Jewellery King",
      "category": [
        "shop.jewelry"
      ],
      "lat": 22.2995472,
      "lon": 114.175294,
      "osm_id": 4850707746,
      "osm_type": "node",
      "address": "\u91d1\u99ac\u502b\u9053 Cameron Road",
      "road_geometry": null
    },
    {
      "name": "Staccato",
      "category": [
        "shop.shoes"
      ],
      "lat": 22.2993799,
      "lon": 114.1748688,
      "osm_id": 4850707748,
      "osm_type": "node",
      "address": "\u91d1\u99ac\u502b\u9053 Cameron Road",
      "road_geometry": null
    },
    {
      "name": "\u5065\u4e4b\u5bf6 Kin Chi Bo",
      "category": [
        "shop.massage"
      ],
      "lat": 22.2986431,
      "lon": 114.1752478,
      "osm_id": 5073790621,
      "osm_type": "node",
      "address": "\u5bf6\u52d2\u5df7 Prat Avenue",
      "road_geometry": null
    },
    {
      "name": "Whenever Eatery",
      "category": [
        "amenity.restaurant"
      ],
      "lat": 22.2979078,
      "lon": 114.1765872,
      "osm_id": 6778557013,
      "osm_type": "node",
      "address": null,
      "road_geometry": null
    },
    {
      "name": "\u7af9\u9752\u4ead WISH-ao by AOBANA",
      "category": [
        "amenity.restaurant"
      ],
      "lat": 22.2991987,
      "lon": 114.175025,
      "osm_id": 10130903527,
      "osm_type": "node",
      "address": "\u91d1\u99ac\u502b\u9053 Cameron Road",
      "road_geometry": null
    },
    {
      "name": "\u6edd\u96f2 TAKIGUMO",
      "category": [
        "amenity.restaurant"
      ],
      "lat": 22.2993478,
      "lon": 114.1754116,
      "osm_id": 10745294397,
      "osm_type": "node",
      "address": "\u91d1\u99ac\u502b\u9053 Cameron Road",
      "road_geometry": null
    },
    {
      "name": "\u5ba2\u820d Hotel Hart",
      "category": [
        "tourism.hotel"
      ],
      "lat": 22.2979582,
      "lon": 114.1746854,
      "osm_id": 11819629489,
      "osm_type": "node",
      "address": "\u8d6b\u5fb7\u9053 Hart Avenue",
      "road_geometry": null
    },
    {
      "name": "\u5c16\u6771\u5e97",
      "category": [
        "amenity.restaurant"
      ],
      "lat": 22.298439,
      "lon": 114.176597,
      "osm_id": 11871200876,
      "osm_type": "node",
      "address": null,
      "road_geometry": null
    },
    {
      "name": "Tequila Jack's",
      "category": [
        "amenity.restaurant"
      ],
      "lat": 22.2981658,
      "lon": 114.1751931,
      "osm_id": 12430268302,
      "osm_type": "node",
      "address": null,
      "road_geometry": null
    },
    {
      "name": "\u4e2d\u570b\u5de5\u5546\u9280\u884c\uff08\u4e9e\u6d32\uff09 ICBC (Asia)",
      "category": [
        "amenity.bank"
      ],
      "lat": 22.2985489,
      "lon": 114.1755508,
      "osm_id": 12578279305,
      "osm_type": "node",
      "address": "\u6f06\u54b8\u9053\u5357 Chatham Road South",
      "road_geometry": null
    }
  ],
  "refinement": {
    "original_poi_count": 64,
    "removed_count": 45,
    "model": "gemini-2.5-flash"
  }
}