{
  "image": "dataset/images/505.png",
  "center_lat": 22.300900900900892,
  "center_lon": 114.17338871303504,
  "bbox": [
    114.17217155730458,
    22.299774774774765,
    114.1746058687655,
    22.302027027027016
  ],
  "unique_categories": [
    "amenity.cafe",
    "shop.convenience",
    "shop.jewelry",
    "shop.chemist",
    "amenity.bar",
    "amenity.restaurant",
    "shop.photo",
    "shop.clothes",
    "shop.supermarket",
    "tourism.attraction",
    "shop.watches"
  ],
  "poi_count_per_category": {
    "amenity.cafe": 4,
    "shop.convenience": 1,
    "shop.jewelry": 1,
    "shop.chemist": 1,
    "amenity.bar": 1,
    "amenity.restaurant": 1,
    "shop.photo": 1,
    "shop.clothes": 10,
    "shop.supermarket": 2,
    "tourism.attraction": 1,
    "shop.watches": 1
  },
  "poi_count": 24,
  "pois": [
    {
      "name": "7-Eleven",
      "category": [
        "shop.convenience"
      ],
      "lat": 22.3008636,
      "lon": 114.1733396,
      "osm_id": 3914318591,
      "osm_type": "node",
      "address": null,
      "road_geometry": null
    },
    {
      "name": "\u661f\u5df4\u514b Starbucks",
      "category": [
        "amenity.cafe"
      ],
      "lat": 22.2999754,
      "lon": 114.1727428,
      "osm_id": 4501623191,
      "osm_type": "node",
      "address": null,
      "road_geometry": null
    },
    {
      "name": "Uniqlo",
      "category": [
        "shop.clothes"
      ],
      "lat": 22.3008852,
      "lon": 114.1722277,
      "osm_id": 4758170323,
      "osm_type": "node",
      "address": null,
      "road_geometry": null
    },
    {
      "name": "Swatch",
      "category": [
        "shop.watches"
      ],
      "lat": 22.3005277,
      "lon": 114.1722506,
      "osm_id": 4848017063,
      "osm_type": "node",
      "address": "\u5f4c\u6566\u9053 Nathan Road",
      "road_geometry": null
    },
    {
      "name": "Omega",
      "category": [
        "shop.jewelry"
      ],
      "lat": 22.2999882,
      "lon": 114.1722029,
      "osm_id": 4848017067,
      "osm_type": "node",
      "address": "\u5f4c\u6566\u9053 Nathan Road",
      "road_geometry": null
    },
    {
      "name": "\u592a\u5e73\u6d0b\u5496\u5561 Pacific Coffee",
      "category": [
        "amenity.cafe"
      ],
      "lat": 22.3008412,
      "lon": 114.1738691,
      "osm_id": 4850542033,
      "osm_type": "node",
      "address": "\u91d1\u5df4\u5229\u9053 Kimberley Road",
      "road_geometry": null
    },
    {
      "name": "Own Image",
      "category": [
        "shop.clothes"
      ],
      "lat": 22.3008801,
      "lon": 114.1740402,
      "osm_id": 4850542035,
      "osm_type": "node",
      "address": "\u91d1\u5df4\u5229\u9053 Kimberley Road",
      "road_geometry": null
    },
    {
      "name": "Style",
      "category": [
        "shop.clothes"
      ],
      "lat": 22.3001588,
      "lon": 114.1743935,
      "osm_id": 4850592339,
      "osm_type": "node",
      "address": "\u52a0\u9023\u5a01\u8001\u9053 Granville Road",
      "road_geometry": null
    },
    {
      "name": "Kenki",
      "category": [
        "shop.clothes"
      ],
      "lat": 22.3006531,
      "lon": 114.1739256,
      "osm_id": 4850718816,
      "osm_type": "node",
      "address": "\u91d1\u5df4\u5229\u9053 Kimberley Road",
      "road_geometry": null
    },
    {
      "name": "Luxe",
      "category": [
        "shop.clothes"
      ],
      "lat": 22.3006971,
      "lon": 114.1741865,
      "osm_id": 4850719122,
      "osm_type": "node",
      "address": "\u91d1\u5df4\u5229\u9053 Kimberley Road",
      "road_geometry": null
    },
    {
      "name": "Beauty Hera",
      "category": [
        "shop.clothes"
      ],
      "lat": 22.3007957,
      "lon": 114.1745319,
      "osm_id": 4850730434,
      "osm_type": "node",
      "address": "\u91d1\u5df4\u5229\u9053 Kimberley Road",
      "road_geometry": null
    },
    {
      "name": "\u91d1\u8f2a\u5927\u85e5\u574a",
      "category": [
        "shop.chemist"
      ],
      "lat": 22.2999237,
      "lon": 114.1741401,
      "osm_id": 4850730444,
      "osm_type": "node",
      "address": "\u52a0\u9023\u5a01\u8001\u9053 Granville Road",
      "road_geometry": null
    },
    {
      "name": "Cotton On",
      "category": [
        "shop.clothes"
      ],
      "lat": 22.2999851,
      "lon": 114.1744172,
      "osm_id": 4850730446,
      "osm_type": "node",
      "address": "\u52a0\u9023\u5a01\u8001\u9053 Granville Road",
      "road_geometry": null
    },
    {
      "name": "\u8afe\u58eb\u4f5b\u81fa Knutsford Terrace",
      "category": [
        "tourism.attraction"
      ],
      "lat": 22.3010114,
      "lon": 114.1730881,
      "osm_id": 5069449421,
      "osm_type": "node",
      "address": null,
      "road_geometry": null
    },
    {
      "name": "ICE FIRE",
      "category": [
        "shop.clothes"
      ],
      "lat": 22.3005548,
      "lon": 114.1723971,
      "osm_id": 5087660044,
      "osm_type": "node",
      "address": "\u7f8e\u9e97\u83ef\u5ee3\u5834 MIRA PLACE 1",
      "road_geometry": null
    },
    {
      "name": "Big Tree Pub",
      "category": [
        "amenity.bar"
      ],
      "lat": 22.3010526,
      "lon": 114.1732627,
      "osm_id": 5358760123,
      "osm_type": "node",
      "address": null,
      "road_geometry": null
    },
    {
      "name": "Butcher\u2019s Club",
      "category": [
        "amenity.restaurant"
      ],
      "lat": 22.3008747,
      "lon": 114.1729794,
      "osm_id": 6748884786,
      "osm_type": "node",
      "address": null,
      "road_geometry": null
    },
    {
      "name": "\u661f\u5df4\u514b Starbucks",
      "category": [
        "amenity.cafe"
      ],
      "lat": 22.3009564,
      "lon": 114.1727194,
      "osm_id": 6824463596,
      "osm_type": "node",
      "address": null,
      "road_geometry": null
    },
    {
      "name": "GU",
      "category": [
        "shop.clothes"
      ],
      "lat": 22.300975,
      "lon": 114.1722098,
      "osm_id": 6824463597,
      "osm_type": "node",
      "address": null,
      "road_geometry": null
    },
    {
      "name": "\u9a5a\u5b89\u4e4b\u6bbf\u5802 Don Don Donki",
      "category": [
        "shop.supermarket"
      ],
      "lat": 22.3000829,
      "lon": 114.172242,
      "osm_id": 6824463598,
      "osm_type": "node",
      "address": null,
      "road_geometry": null
    },
    {
      "name": "Don Don Donki",
      "category": [
        "shop.supermarket"
      ],
      "lat": 22.3003993,
      "lon": 114.1724767,
      "osm_id": 7652187099,
      "osm_type": "node",
      "address": null,
      "road_geometry": null
    },
    {
      "name": "\u9673\u70d8\u76f8\u6a5f\u516c\u53f8",
      "category": [
        "shop.photo"
      ],
      "lat": 22.3008096,
      "lon": 114.1732251,
      "osm_id": 8042278620,
      "osm_type": "node",
      "address": "\u91d1\u5df4\u5229\u9053 Kimberley Road",
      "road_geometry": null
    },
    {
      "name": "Kurasu",
      "category": [
        "amenity.cafe"
      ],
      "lat": 22.3003683,
      "lon": 114.172296,
      "osm_id": 12769429235,
      "osm_type": "node",
      "address": null,
      "road_geometry": null
    },
    {
      "name": "G2000",
      "category": [
        "shop.clothes"
      ],
      "lat": 22.3001493,
      "lon": 114.1721976,
      "osm_id": 12771693772,
      "osm_type": "node",
      "address": null,
      "road_geometry": null
    }
  ],
  "refinement": {
    "original_poi_count": 67,
    "removed_count": 43,
    "model": "gemini-2.5-flash"
  }
}