{
  "image": "dataset/images/51.png",
  "center_lat": 51.5173873873874,
  "center_lon": -0.09819035882554442,
  "bbox": [
    -0.1,
    51.51626126126128,
    -0.09638071765108883,
    51.51851351351353
  ],
  "unique_categories": [
    "amenity.cafe",
    "highway.bus_stop",
    "amenity.restaurant",
    "amenity.fast_food",
    "amenity.clinic",
    "tourism.information"
  ],
  "poi_count_per_category": {
    "amenity.cafe": 2,
    "highway.bus_stop": 1,
    "amenity.restaurant": 1,
    "amenity.fast_food": 1,
    "amenity.clinic": 1,
    "tourism.information": 1
  },
  "poi_count": 7,
  "pois": [
    {
      "name": "King Edward Street / St Paul's Station",
      "category": [
        "highway.bus_stop"
      ],
      "lat": 51.5165565,
      "lon": -0.0986455,
      "osm_id": 469773003,
      "osm_type": "node",
      "address": null,
      "road_geometry": null
    },
    {
      "name": "Postman's Park",
      "category": [
        "tourism.information"
      ],
      "lat": 51.5168384,
      "lon": -0.0970417,
      "osm_id": 1813618226,
      "osm_type": "node",
      "address": null,
      "road_geometry": null
    },
    {
      "name": "Cafe Barts",
      "category": [
        "amenity.cafe"
      ],
      "lat": 51.5179036,
      "lon": -0.0995562,
      "osm_id": 1816705112,
      "osm_type": "node",
      "address": null,
      "road_geometry": null
    },
    {
      "name": "Giddy Up Coffee",
      "category": [
        "amenity.cafe"
      ],
      "lat": 51.5173587,
      "lon": -0.0974004,
      "osm_id": 6977910185,
      "osm_type": "node",
      "address": "Aldersgate Street",
      "road_geometry": null
    },
    {
      "name": "Half Cup",
      "category": [
        "amenity.restaurant"
      ],
      "lat": 51.5181206,
      "lon": -0.0986307,
      "osm_id": 10180595617,
      "osm_type": "node",
      "address": "Bartholomew Close",
      "road_geometry": null
    },
    {
      "name": "Sandwich Sandwich",
      "category": [
        "amenity.fast_food"
      ],
      "lat": 51.5164431,
      "lon": -0.0967367,
      "osm_id": 12783780143,
      "osm_type": "node",
      "address": null,
      "road_geometry": null
    },
    {
      "name": "Moorfields @ Barts",
      "category": [
        "amenity.clinic"
      ],
      "lat": 51.5172114,
      "lon": -0.099456,
      "osm_id": 12867023552,
      "osm_type": "node",
      "address": null,
      "road_geometry": null
    }
  ],
  "refinement": {
    "original_poi_count": 18,
    "removed_count": 11,
    "model": "gemini-2.5-flash"
  }
}