{
  "image": "dataset/images/523.png",
  "center_lat": 41.00337837837838,
  "center_lon": 28.964476548219306,
  "bbox": [
    28.96298436547954,
    41.002252252252255,
    28.965968730959077,
    41.00450450450451
  ],
  "unique_categories": [
    "tourism.hostel",
    "highway.bus_stop",
    "amenity.cafe",
    "amenity.restaurant",
    "amenity.bank",
    "railway.stop",
    "amenity.fast_food",
    "tourism.hotel"
  ],
  "poi_count_per_category": {
    "tourism.hostel": 1,
    "highway.bus_stop": 2,
    "amenity.cafe": 1,
    "amenity.restaurant": 9,
    "amenity.bank": 1,
    "railway.stop": 1,
    "amenity.fast_food": 1,
    "tourism.hotel": 2
  },
  "poi_count": 18,
  "pois": [
    {
      "name": "Akbank",
      "category": [
        "amenity.bank"
      ],
      "lat": 41.0041082,
      "lon": 28.9638979,
      "osm_id": 3149526179,
      "osm_type": "node",
      "address": "Telli Odalar\u0131 Sk.",
      "road_geometry": null
    },
    {
      "name": "Hanchi",
      "category": [
        "tourism.hostel"
      ],
      "lat": 41.004387,
      "lon": 28.9643478,
      "osm_id": 4831087822,
      "osm_type": "node",
      "address": "Samsa Soka\u011f\u0131",
      "road_geometry": null
    },
    {
      "name": "Yeni K\u00f6\u015fem Restaurant",
      "category": [
        "amenity.restaurant"
      ],
      "lat": 41.0043864,
      "lon": 28.9646236,
      "osm_id": 4881623724,
      "osm_type": "node",
      "address": null,
      "road_geometry": null
    },
    {
      "name": "Kumkap\u0131",
      "category": [
        "highway.bus_stop"
      ],
      "lat": 41.0026432,
      "lon": 28.9634961,
      "osm_id": 5482167824,
      "osm_type": "node",
      "address": null,
      "road_geometry": null
    },
    {
      "name": "Fener Restaurant",
      "category": [
        "amenity.restaurant"
      ],
      "lat": 41.004045,
      "lon": 28.9640127,
      "osm_id": 5607713423,
      "osm_type": "node",
      "address": "Telli Odalari Sokak",
      "road_geometry": null
    },
    {
      "name": "Kumkap\u0131 H\u00fcnkar",
      "category": [
        "amenity.restaurant"
      ],
      "lat": 41.0034153,
      "lon": 28.9650811,
      "osm_id": 6359663185,
      "osm_type": "node",
      "address": null,
      "road_geometry": null
    },
    {
      "name": "Green",
      "category": [
        "amenity.restaurant"
      ],
      "lat": 41.003968,
      "lon": 28.9650023,
      "osm_id": 10178410586,
      "osm_type": "node",
      "address": null,
      "road_geometry": null
    },
    {
      "name": "Kartallar Denizki Restaurant",
      "category": [
        "amenity.restaurant"
      ],
      "lat": 41.0040961,
      "lon": 28.9649071,
      "osm_id": 10178410613,
      "osm_type": "node",
      "address": null,
      "road_geometry": null
    },
    {
      "name": "Neyzen",
      "category": [
        "amenity.restaurant"
      ],
      "lat": 41.0038962,
      "lon": 28.9648697,
      "osm_id": 10178410616,
      "osm_type": "node",
      "address": null,
      "road_geometry": null
    },
    {
      "name": "G\u00f6l\u00e7ek Restaurant",
      "category": [
        "amenity.restaurant"
      ],
      "lat": 41.0037339,
      "lon": 28.9649691,
      "osm_id": 10178438617,
      "osm_type": "node",
      "address": null,
      "road_geometry": null
    },
    {
      "name": "Cafe Damak",
      "category": [
        "amenity.cafe"
      ],
      "lat": 41.00394,
      "lon": 28.9651897,
      "osm_id": 10178438641,
      "osm_type": "node",
      "address": null,
      "road_geometry": null
    },
    {
      "name": "Germenicia Hotel",
      "category": [
        "tourism.hotel"
      ],
      "lat": 41.0039628,
      "lon": 28.9656499,
      "osm_id": 10178438642,
      "osm_type": "node",
      "address": null,
      "road_geometry": null
    },
    {
      "name": "\u00c7apari",
      "category": [
        "amenity.restaurant"
      ],
      "lat": 41.003616,
      "lon": 28.9650526,
      "osm_id": 10178438647,
      "osm_type": "node",
      "address": null,
      "road_geometry": null
    },
    {
      "name": "Pilavci Semsi Usta",
      "category": [
        "amenity.fast_food"
      ],
      "lat": 41.0043492,
      "lon": 28.96507,
      "osm_id": 11092418505,
      "osm_type": "node",
      "address": null,
      "road_geometry": null
    },
    {
      "name": "Faf suite home",
      "category": [
        "tourism.hotel"
      ],
      "lat": 41.0036123,
      "lon": 28.9641596,
      "osm_id": 11175957240,
      "osm_type": "node",
      "address": "K\u00fcrk\u00e7\u00fc Kuyusu Soka\u011f\u0131",
      "road_geometry": null
    },
    {
      "name": "Kumkap\u0131",
      "category": [
        "railway.stop"
      ],
      "lat": 41.003417,
      "lon": 28.9632405,
      "osm_id": 11228793731,
      "osm_type": "node",
      "address": null,
      "road_geometry": null
    },
    {
      "name": "Kumkap\u0131",
      "category": [
        "highway.bus_stop"
      ],
      "lat": 41.003099,
      "lon": 28.964874,
      "osm_id": 11514147513,
      "osm_type": "node",
      "address": null,
      "road_geometry": null
    },
    {
      "name": "Doyuran Ev Yemekleri",
      "category": [
        "amenity.restaurant"
      ],
      "lat": 41.004111,
      "lon": 28.9644346,
      "osm_id": 11980521869,
      "osm_type": "node",
      "address": "\u00d6rdekli Bakkal Soka\u011f\u0131",
      "road_geometry": null
    }
  ],
  "refinement": {
    "original_poi_count": 39,
    "removed_count": 21,
    "model": "gemini-2.5-flash"
  }
}