{
  "image": "dataset/images/534.png",
  "center_lat": 41.005630630630634,
  "center_lon": 28.96447670120818,
  "bbox": [
    28.962984467472122,
    41.00450450450451,
    28.965968934944243,
    41.006756756756765
  ],
  "unique_categories": [
    "amenity.atm",
    "shop.shoes",
    "amenity.pharmacy",
    "amenity.place_of_worship",
    "tourism.motel",
    "amenity.cafe",
    "shop.convenience",
    "amenity.restaurant",
    "tourism.motel;hotel",
    "amenity.bank",
    "shop.travel_agency",
    "shop.mobile_phone",
    "amenity.fast_food",
    "shop.supermarket",
    "tourism.hotel"
  ],
  "poi_count_per_category": {
    "amenity.atm": 1,
    "shop.shoes": 4,
    "amenity.pharmacy": 2,
    "amenity.place_of_worship": 1,
    "tourism.motel": 1,
    "amenity.cafe": 1,
    "shop.convenience": 3,
    "amenity.restaurant": 3,
    "tourism.motel;hotel": 1,
    "amenity.bank": 1,
    "shop.travel_agency": 2,
    "shop.mobile_phone": 2,
    "amenity.fast_food": 1,
    "shop.supermarket": 2,
    "tourism.hotel": 4
  },
  "poi_count": 29,
  "pois": [
    {
      "name": "K\u0131l\u0131n\u00e7 Konuk Evi",
      "category": [
        "tourism.motel;hotel"
      ],
      "lat": 41.0045209,
      "lon": 28.9632469,
      "osm_id": 2837955373,
      "osm_type": "node",
      "address": null,
      "road_geometry": null
    },
    {
      "name": "Akbank",
      "category": [
        "amenity.bank"
      ],
      "lat": 41.0052825,
      "lon": 28.9636253,
      "osm_id": 3131825229,
      "osm_type": "node",
      "address": null,
      "road_geometry": null
    },
    {
      "name": "Loor",
      "category": [
        "tourism.hotel"
      ],
      "lat": 41.0048437,
      "lon": 28.9655105,
      "osm_id": 4266037890,
      "osm_type": "node",
      "address": null,
      "road_geometry": null
    },
    {
      "name": "Reyhan Eczanesi",
      "category": [
        "amenity.pharmacy"
      ],
      "lat": 41.0049969,
      "lon": 28.9647083,
      "osm_id": 4449662989,
      "osm_type": "node",
      "address": null,
      "road_geometry": null
    },
    {
      "name": "Loor",
      "category": [
        "amenity.cafe"
      ],
      "lat": 41.0048272,
      "lon": 28.9655907,
      "osm_id": 5104610627,
      "osm_type": "node",
      "address": null,
      "road_geometry": null
    },
    {
      "name": "serhan gida",
      "category": [
        "shop.convenience"
      ],
      "lat": 41.0048146,
      "lon": 28.9656536,
      "osm_id": 5106523030,
      "osm_type": "node",
      "address": null,
      "road_geometry": null
    },
    {
      "name": "Star Tekel",
      "category": [
        "shop.convenience"
      ],
      "lat": 41.0048057,
      "lon": 28.9649998,
      "osm_id": 5106523031,
      "osm_type": "node",
      "address": null,
      "road_geometry": null
    },
    {
      "name": "Emin",
      "category": [
        "shop.travel_agency"
      ],
      "lat": 41.004871,
      "lon": 28.96539,
      "osm_id": 5106528822,
      "osm_type": "node",
      "address": null,
      "road_geometry": null
    },
    {
      "name": "Karacada\u011f Sofras\u0131",
      "category": [
        "amenity.restaurant"
      ],
      "lat": 41.0050866,
      "lon": 28.9645751,
      "osm_id": 5244807839,
      "osm_type": "node",
      "address": "\u00c7ifte Gelinler Caddesi",
      "road_geometry": null
    },
    {
      "name": "Eczane Reyhan",
      "category": [
        "amenity.pharmacy"
      ],
      "lat": 41.005004,
      "lon": 28.9649016,
      "osm_id": 5244807841,
      "osm_type": "node",
      "address": "\u00c7ifte Gelinler Caddesi",
      "road_geometry": null
    },
    {
      "name": "Loor Hotel",
      "category": [
        "tourism.hotel"
      ],
      "lat": 41.0048062,
      "lon": 28.9656803,
      "osm_id": 5244807846,
      "osm_type": "node",
      "address": "Kad\u0131rga Liman\u0131 Caddesi",
      "road_geometry": null
    },
    {
      "name": "Mutlu \u0130leti\u015fim",
      "category": [
        "shop.mobile_phone"
      ],
      "lat": 41.0047194,
      "lon": 28.9659639,
      "osm_id": 5244807850,
      "osm_type": "node",
      "address": "Gedik Pa\u015fa Caddesi",
      "road_geometry": null
    },
    {
      "name": "\u00d6zhanedan",
      "category": [
        "amenity.restaurant"
      ],
      "lat": 41.0067464,
      "lon": 28.965294,
      "osm_id": 5244807904,
      "osm_type": "node",
      "address": "Tiyatro Caddesi",
      "road_geometry": null
    },
    {
      "name": "S\u00fcryani Kilisesi",
      "category": [
        "amenity.place_of_worship"
      ],
      "lat": 41.00601,
      "lon": 28.9650002,
      "osm_id": 5244807907,
      "osm_type": "node",
      "address": "Tiyatro Caddesi",
      "road_geometry": null
    },
    {
      "name": "Turkcell",
      "category": [
        "shop.mobile_phone"
      ],
      "lat": 41.005735,
      "lon": 28.9648053,
      "osm_id": 5244807908,
      "osm_type": "node",
      "address": "Tiyatro Caddesi",
      "road_geometry": null
    },
    {
      "name": "Atalay Ayakkab\u0131",
      "category": [
        "shop.shoes"
      ],
      "lat": 41.0056225,
      "lon": 28.9647153,
      "osm_id": 5244807909,
      "osm_type": "node",
      "address": "Tiyatro Caddesi",
      "road_geometry": null
    },
    {
      "name": "\u00d6zbek Samsa Senter",
      "category": [
        "amenity.fast_food"
      ],
      "lat": 41.0054767,
      "lon": 28.9646595,
      "osm_id": 5244807911,
      "osm_type": "node",
      "address": "Tiyatro Caddesi",
      "road_geometry": null
    },
    {
      "name": "Cristo Turizm",
      "category": [
        "shop.travel_agency"
      ],
      "lat": 41.0051867,
      "lon": 28.9645293,
      "osm_id": 5244807913,
      "osm_type": "node",
      "address": "Tiyatro Caddesi",
      "road_geometry": null
    },
    {
      "name": "Historial Hotel",
      "category": [
        "tourism.motel"
      ],
      "lat": 41.0050603,
      "lon": 28.9653709,
      "osm_id": 5244810295,
      "osm_type": "node",
      "address": "Bali Pa\u015fa Yoku\u015fu",
      "road_geometry": null
    },
    {
      "name": "\u0130kizler Pilav ve D\u00fcr\u00fcm Evi",
      "category": [
        "amenity.restaurant"
      ],
      "lat": 41.0049701,
      "lon": 28.965105,
      "osm_id": 5244810296,
      "osm_type": "node",
      "address": "Bali Pa\u015fa Yoku\u015fu",
      "road_geometry": null
    },
    {
      "name": "Line Shoes",
      "category": [
        "shop.shoes"
      ],
      "lat": 41.0054074,
      "lon": 28.9653987,
      "osm_id": 5244810303,
      "osm_type": "node",
      "address": "Bali Pa\u015fa Yoku\u015fu",
      "road_geometry": null
    },
    {
      "name": "May Hotel",
      "category": [
        "tourism.hotel"
      ],
      "lat": 41.0055308,
      "lon": 28.9654697,
      "osm_id": 5244810304,
      "osm_type": "node",
      "address": "Bali Pa\u015fa Yoku\u015fu",
      "road_geometry": null
    },
    {
      "name": "Zafer \u00d6k\u00e7e",
      "category": [
        "shop.shoes"
      ],
      "lat": 41.0055838,
      "lon": 28.965743,
      "osm_id": 5244810307,
      "osm_type": "node",
      "address": "\u00c7ilavc\u0131 Sokak",
      "road_geometry": null
    },
    {
      "name": "Ramon Market",
      "category": [
        "shop.supermarket"
      ],
      "lat": 41.0059973,
      "lon": 28.9657152,
      "osm_id": 5244810313,
      "osm_type": "node",
      "address": "Sandalc\u0131 \u0130hsan Sokak",
      "road_geometry": null
    },
    {
      "name": "S\u00f6nmez Kundura",
      "category": [
        "shop.shoes"
      ],
      "lat": 41.006308,
      "lon": 28.9651218,
      "osm_id": 5244810317,
      "osm_type": "node",
      "address": "Sandalc\u0131 \u0130hsan Sokak",
      "road_geometry": null
    },
    {
      "name": "Tay B\u00fcfe",
      "category": [
        "shop.supermarket"
      ],
      "lat": 41.0062255,
      "lon": 28.9650501,
      "osm_id": 5244810318,
      "osm_type": "node",
      "address": "Sandalc\u0131 \u0130hsan Sokak",
      "road_geometry": null
    },
    {
      "name": "Denizbank",
      "category": [
        "amenity.atm"
      ],
      "lat": 41.0050849,
      "lon": 28.963831,
      "osm_id": 5483159122,
      "osm_type": "node",
      "address": null,
      "road_geometry": null
    },
    {
      "name": "Dolphin",
      "category": [
        "tourism.hotel"
      ],
      "lat": 41.0054043,
      "lon": 28.9639699,
      "osm_id": 5729753221,
      "osm_type": "node",
      "address": "\u015eakirefendi \u00c7e\u015fmesi Sokak",
      "road_geometry": null
    },
    {
      "name": "Migros Jet",
      "category": [
        "shop.convenience"
      ],
      "lat": 41.0052321,
      "lon": 28.9637999,
      "osm_id": 9897760347,
      "osm_type": "node",
      "address": null,
      "road_geometry": null
    }
  ],
  "refinement": {
    "original_poi_count": 63,
    "removed_count": 34,
    "model": "gemini-2.5-flash"
  }
}