{
  "image": "dataset/images/54.png",
  "center_lat": 51.5173873873874,
  "center_lon": -0.08733251177881088,
  "bbox": [
    -0.08914215295326647,
    51.51626126126128,
    -0.08552287060435529,
    51.51851351351353
  ],
  "unique_categories": [
    "amenity.atm",
    "amenity.pub",
    "highway.bus_stop",
    "shop.tailor",
    "shop.convenience",
    "amenity.cafe",
    "railway.subway_entrance",
    "amenity.restaurant",
    "amenity.bank",
    "amenity.bicycle_rental",
    "railway.stop",
    "amenity.fast_food",
    "amenity.doctors",
    "amenity.dentist",
    "railway.station",
    "amenity.clinic",
    "shop.beauty"
  ],
  "poi_count_per_category": {
    "amenity.atm": 1,
    "amenity.pub": 1,
    "highway.bus_stop": 1,
    "shop.tailor": 1,
    "shop.convenience": 1,
    "amenity.cafe": 1,
    "railway.subway_entrance": 2,
    "amenity.restaurant": 1,
    "amenity.bank": 1,
    "amenity.bicycle_rental": 1,
    "railway.stop": 2,
    "amenity.fast_food": 1,
    "amenity.doctors": 1,
    "amenity.dentist": 3,
    "railway.station": 2,
    "amenity.clinic": 2,
    "shop.beauty": 1
  },
  "poi_count": 23,
  "pois": [
    {
      "name": "Moorgate Station",
      "category": [
        "highway.bus_stop"
      ],
      "lat": 51.5177863,
      "lon": -0.0884081,
      "osm_id": 469760425,
      "osm_type": "node",
      "address": null,
      "road_geometry": null
    },
    {
      "name": "Finsbury Circus",
      "category": [
        "amenity.bicycle_rental"
      ],
      "lat": 51.5171294,
      "lon": -0.0866602,
      "osm_id": 883627406,
      "osm_type": "node",
      "address": null,
      "road_geometry": null
    },
    {
      "name": "Keats at the Globe",
      "category": [
        "amenity.pub"
      ],
      "lat": 51.5178081,
      "lon": -0.0886538,
      "osm_id": 1150003215,
      "osm_type": "node",
      "address": null,
      "road_geometry": null
    },
    {
      "name": "Moorgate (west side)",
      "category": [
        "railway.subway_entrance"
      ],
      "lat": 51.5184769,
      "lon": -0.0882457,
      "osm_id": 1288249464,
      "osm_type": "node",
      "address": null,
      "road_geometry": null
    },
    {
      "name": "Liverpool Street",
      "category": [
        "railway.stop"
      ],
      "lat": 51.5177539,
      "lon": -0.087972,
      "osm_id": 2156956840,
      "osm_type": "node",
      "address": null,
      "road_geometry": null
    },
    {
      "name": "Chilango",
      "category": [
        "amenity.fast_food"
      ],
      "lat": 51.516799,
      "lon": -0.0864441,
      "osm_id": 2554608346,
      "osm_type": "node",
      "address": "London Wall",
      "road_geometry": null
    },
    {
      "name": "Moorgate (east side)",
      "category": [
        "railway.subway_entrance"
      ],
      "lat": 51.5184049,
      "lon": -0.0879601,
      "osm_id": 3027323674,
      "osm_type": "node",
      "address": null,
      "road_geometry": null
    },
    {
      "name": "My Vital Metrics",
      "category": [
        "amenity.clinic"
      ],
      "lat": 51.5173811,
      "lon": -0.0874896,
      "osm_id": 3320743087,
      "osm_type": "node",
      "address": "London Wall",
      "road_geometry": null
    },
    {
      "name": "NatWest",
      "category": [
        "amenity.atm"
      ],
      "lat": 51.5182857,
      "lon": -0.0880298,
      "osm_id": 3474170573,
      "osm_type": "node",
      "address": null,
      "road_geometry": null
    },
    {
      "name": "Copperfield",
      "category": [
        "shop.tailor"
      ],
      "lat": 51.517174,
      "lon": -0.08892,
      "osm_id": 4501839131,
      "osm_type": "node",
      "address": null,
      "road_geometry": null
    },
    {
      "name": "Moorgate",
      "category": [
        "railway.station"
      ],
      "lat": 51.5182516,
      "lon": -0.0890625,
      "osm_id": 5702714876,
      "osm_type": "node",
      "address": null,
      "road_geometry": null
    },
    {
      "name": "Post Office (take away)",
      "category": [
        "amenity.restaurant"
      ],
      "lat": 51.5171058,
      "lon": -0.0882479,
      "osm_id": 5817850003,
      "osm_type": "node",
      "address": "London Wall",
      "road_geometry": null
    },
    {
      "name": "Cleveland Clinic Moorgate Outpatient Centre",
      "category": [
        "amenity.clinic"
      ],
      "lat": 51.5168387,
      "lon": -0.0890488,
      "osm_id": 10729772236,
      "osm_type": "node",
      "address": "Moorgate",
      "road_geometry": null
    },
    {
      "name": "4 Convenience",
      "category": [
        "shop.convenience"
      ],
      "lat": 51.5177532,
      "lon": -0.0889395,
      "osm_id": 12250086710,
      "osm_type": "node",
      "address": "Moorfields",
      "road_geometry": null
    },
    {
      "name": "Andreea Nails",
      "category": [
        "shop.beauty"
      ],
      "lat": 51.517834,
      "lon": -0.0888477,
      "osm_id": 12250086713,
      "osm_type": "node",
      "address": null,
      "road_geometry": null
    },
    {
      "name": "Lloyds Bank",
      "category": [
        "amenity.bank"
      ],
      "lat": 51.5171471,
      "lon": -0.0885927,
      "osm_id": 12250086714,
      "osm_type": "node",
      "address": null,
      "road_geometry": null
    },
    {
      "name": "Liverpool Street",
      "category": [
        "railway.station"
      ],
      "lat": 51.5176474,
      "lon": -0.0864414,
      "osm_id": 12286269903,
      "osm_type": "node",
      "address": null,
      "road_geometry": null
    },
    {
      "name": "Moorgate",
      "category": [
        "railway.stop"
      ],
      "lat": 51.518512,
      "lon": -0.0878924,
      "osm_id": 12288848442,
      "osm_type": "node",
      "address": null,
      "road_geometry": null
    },
    {
      "name": "ODL Dental Clinic",
      "category": [
        "amenity.dentist"
      ],
      "lat": 51.5179221,
      "lon": -0.08763,
      "osm_id": 12857308541,
      "osm_type": "node",
      "address": "Finsbury Circus",
      "road_geometry": null
    },
    {
      "name": "Finsbury Dental Care",
      "category": [
        "amenity.dentist"
      ],
      "lat": 51.5167399,
      "lon": -0.0863062,
      "osm_id": 12857659627,
      "osm_type": "node",
      "address": "Throgmorton Avenue",
      "road_geometry": null
    },
    {
      "name": "Bellcourt Dental",
      "category": [
        "amenity.dentist"
      ],
      "lat": 51.516738,
      "lon": -0.0860094,
      "osm_id": 12857659630,
      "osm_type": "node",
      "address": "Throgmorton Avenue",
      "road_geometry": null
    },
    {
      "name": "One5 Health City",
      "category": [
        "amenity.doctors"
      ],
      "lat": 51.51634,
      "lon": -0.0888949,
      "osm_id": 12858003961,
      "osm_type": "node",
      "address": null,
      "road_geometry": null
    },
    {
      "name": "Black Sheep Coffee",
      "category": [
        "amenity.cafe"
      ],
      "lat": 51.5168859,
      "lon": -0.0868006,
      "osm_id": 12962155287,
      "osm_type": "node",
      "address": "London Wall",
      "road_geometry": null
    }
  ],
  "refinement": {
    "original_poi_count": 45,
    "removed_count": 22,
    "model": "gemini-2.5-flash"
  }
}