{
  "image": "dataset/images/546.png",
  "center_lat": 41.00788288288289,
  "center_lon": 28.967461423690725,
  "bbox": [
    28.96596913895258,
    41.006756756756765,
    28.96895370842887,
    41.00900900900902
  ],
  "unique_categories": [
    "shop.confectionery",
    "amenity.atm",
    "shop.shoes",
    "shop.bag",
    "amenity.cafe",
    "tourism.museum",
    "shop.jewelry",
    "shop.convenience",
    "amenity.restaurant",
    "amenity.bank",
    "shop.clothes",
    "amenity.library",
    "amenity.fast_food",
    "shop.supermarket",
    "tourism.hotel",
    "tourism.attraction",
    "shop.mall"
  ],
  "poi_count_per_category": {
    "shop.confectionery": 1,
    "amenity.atm": 1,
    "shop.shoes": 35,
    "shop.bag": 1,
    "amenity.cafe": 3,
    "tourism.museum": 1,
    "shop.jewelry": 5,
    "shop.convenience": 1,
    "amenity.restaurant": 2,
    "amenity.bank": 3,
    "shop.clothes": 2,
    "amenity.library": 1,
    "amenity.fast_food": 4,
    "shop.supermarket": 1,
    "tourism.hotel": 1,
    "tourism.attraction": 2,
    "shop.mall": 1
  },
  "poi_count": 65,
  "pois": [
    {
      "name": "Carcino",
      "category": [
        "shop.shoes"
      ],
      "lat": 41.0070072,
      "lon": 28.9682719,
      "osm_id": 5244807860,
      "osm_type": "node",
      "address": "Neviye Sokak",
      "road_geometry": null
    },
    {
      "name": "\u00d6ztab Taban",
      "category": [
        "shop.shoes"
      ],
      "lat": 41.00691,
      "lon": 28.9682182,
      "osm_id": 5244807861,
      "osm_type": "node",
      "address": "Neviye Sokak",
      "road_geometry": null
    },
    {
      "name": "Kaf",
      "category": [
        "shop.shoes"
      ],
      "lat": 41.0071828,
      "lon": 28.9684508,
      "osm_id": 5244807862,
      "osm_type": "node",
      "address": "Emin Sinan Hamam\u0131 Sokak",
      "road_geometry": null
    },
    {
      "name": "G\u00fcven Ayakkab\u0131",
      "category": [
        "shop.shoes"
      ],
      "lat": 41.0071836,
      "lon": 28.9688586,
      "osm_id": 5244807864,
      "osm_type": "node",
      "address": "Karababa T\u00fcrbesi Sokak",
      "road_geometry": null
    },
    {
      "name": "Ulut\u00fcrk Sports",
      "category": [
        "shop.shoes"
      ],
      "lat": 41.0072976,
      "lon": 28.968886,
      "osm_id": 5244807865,
      "osm_type": "node",
      "address": "Karababa T\u00fcrbesi Sokak",
      "road_geometry": null
    },
    {
      "name": "Nezetti \u00d6znaneci",
      "category": [
        "shop.shoes"
      ],
      "lat": 41.0073846,
      "lon": 28.9689029,
      "osm_id": 5244807866,
      "osm_type": "node",
      "address": "Karababa T\u00fcrbesi Sokak",
      "road_geometry": null
    },
    {
      "name": "Ar\u0131ca Ayakkab\u0131",
      "category": [
        "shop.shoes"
      ],
      "lat": 41.0075637,
      "lon": 28.9689323,
      "osm_id": 5244807867,
      "osm_type": "node",
      "address": "Karababa T\u00fcrbesi Sokak",
      "road_geometry": null
    },
    {
      "name": "Ki\u011f\u0131l\u0131",
      "category": [
        "shop.clothes"
      ],
      "lat": 41.0085461,
      "lon": 28.9687599,
      "osm_id": 5244807878,
      "osm_type": "node",
      "address": "Yeni\u00e7eriler Caddesi",
      "road_geometry": null
    },
    {
      "name": "Merzifonlu Kara Mustafa Pa\u015fa Medresesi",
      "category": [
        "tourism.attraction"
      ],
      "lat": 41.008669,
      "lon": 28.9679366,
      "osm_id": 5244807882,
      "osm_type": "node",
      "address": "Yeni\u00e7eriler Caddesi",
      "road_geometry": null
    },
    {
      "name": "Yahya Kemal Museum",
      "category": [
        "tourism.museum"
      ],
      "lat": 41.008741,
      "lon": 28.967614,
      "osm_id": 5244807883,
      "osm_type": "node",
      "address": "Yeni\u00e7eriler Caddesi",
      "road_geometry": null
    },
    {
      "name": "Denizbank",
      "category": [
        "amenity.bank"
      ],
      "lat": 41.0087957,
      "lon": 28.9668839,
      "osm_id": 5244807888,
      "osm_type": "node",
      "address": "Yeni\u00e7eriler Caddesi",
      "road_geometry": null
    },
    {
      "name": "Yap\u0131 Kredi",
      "category": [
        "amenity.bank"
      ],
      "lat": 41.008828,
      "lon": 28.9666181,
      "osm_id": 5244807889,
      "osm_type": "node",
      "address": "Yeni\u00e7eriler Caddesi",
      "road_geometry": null
    },
    {
      "name": "Ziraat Kat\u0131l\u0131m",
      "category": [
        "amenity.bank"
      ],
      "lat": 41.0088816,
      "lon": 28.9664236,
      "osm_id": 5244807890,
      "osm_type": "node",
      "address": "Yeni\u00e7eriler Caddesi",
      "road_geometry": null
    },
    {
      "name": "Atlantic Silver",
      "category": [
        "shop.jewelry"
      ],
      "lat": 41.0088804,
      "lon": 28.9661796,
      "osm_id": 5244807894,
      "osm_type": "node",
      "address": "Tiyatro Caddesi",
      "road_geometry": null
    },
    {
      "name": "Varol \u00c7anta",
      "category": [
        "shop.bag"
      ],
      "lat": 41.0087586,
      "lon": 28.9661391,
      "osm_id": 5244807896,
      "osm_type": "node",
      "address": "Tiyatro Caddesi",
      "road_geometry": null
    },
    {
      "name": "Osmanl\u0131",
      "category": [
        "shop.jewelry"
      ],
      "lat": 41.008923,
      "lon": 28.9677389,
      "osm_id": 5244807981,
      "osm_type": "node",
      "address": "Yeni\u00e7eriler Caddesi",
      "road_geometry": null
    },
    {
      "name": "\u00c7orlulu Alipa\u015fa Madresesi",
      "category": [
        "tourism.attraction"
      ],
      "lat": 41.0089122,
      "lon": 28.9683181,
      "osm_id": 5244807985,
      "osm_type": "node",
      "address": "Yeni\u00e7eriler Caddesi",
      "road_geometry": null
    },
    {
      "name": "Celal G\u00fcltekin",
      "category": [
        "shop.shoes"
      ],
      "lat": 41.0076694,
      "lon": 28.9671656,
      "osm_id": 5244809853,
      "osm_type": "node",
      "address": "Gedik Pa\u015fa Caddesi",
      "road_geometry": null
    },
    {
      "name": "Kibar Market",
      "category": [
        "shop.supermarket"
      ],
      "lat": 41.0079889,
      "lon": 28.9674266,
      "osm_id": 5244809856,
      "osm_type": "node",
      "address": "Gedik Pa\u015fa Caddesi",
      "road_geometry": null
    },
    {
      "name": "Sarn\u0131\u00e7 Nargile Cafe",
      "category": [
        "amenity.cafe"
      ],
      "lat": 41.0083047,
      "lon": 28.967066,
      "osm_id": 5244809859,
      "osm_type": "node",
      "address": "Gedik Pa\u015fa Caddesi",
      "road_geometry": null
    },
    {
      "name": "\u0130stanbul Fetih Cemiyeti",
      "category": [
        "amenity.library"
      ],
      "lat": 41.0084752,
      "lon": 28.9673737,
      "osm_id": 5244809865,
      "osm_type": "node",
      "address": "Gedik Pa\u015fa Caddesi",
      "road_geometry": null
    },
    {
      "name": "Burger King",
      "category": [
        "amenity.fast_food"
      ],
      "lat": 41.0085622,
      "lon": 28.9673925,
      "osm_id": 5244809866,
      "osm_type": "node",
      "address": "Gedik Pa\u015fa Caddesi",
      "road_geometry": null
    },
    {
      "name": "Divani Ali Hotel",
      "category": [
        "tourism.hotel"
      ],
      "lat": 41.0079093,
      "lon": 28.9677851,
      "osm_id": 5244809869,
      "osm_type": "node",
      "address": "Divani Ali Sokak",
      "road_geometry": null
    },
    {
      "name": "Umuc Kuyumculuk",
      "category": [
        "shop.jewelry"
      ],
      "lat": 41.0081108,
      "lon": 28.9678173,
      "osm_id": 5244809872,
      "osm_type": "node",
      "address": "Divani Ali Sokak",
      "road_geometry": null
    },
    {
      "name": "Medusa Cafe",
      "category": [
        "amenity.cafe"
      ],
      "lat": 41.0081966,
      "lon": 28.9682149,
      "osm_id": 5244809876,
      "osm_type": "node",
      "address": "Divani Ali Sokak",
      "road_geometry": null
    },
    {
      "name": "Antakya Restaurant",
      "category": [
        "amenity.restaurant"
      ],
      "lat": 41.0084293,
      "lon": 28.9683183,
      "osm_id": 5244809877,
      "osm_type": "node",
      "address": "Divani Ali Sokak",
      "road_geometry": null
    },
    {
      "name": "G\u00f6ner",
      "category": [
        "shop.shoes"
      ],
      "lat": 41.0081017,
      "lon": 28.9684965,
      "osm_id": 5244809883,
      "osm_type": "node",
      "address": "Abidin Daver Sokak",
      "road_geometry": null
    },
    {
      "name": "Nadir Ayakkab\u0131",
      "category": [
        "shop.shoes"
      ],
      "lat": 41.007771,
      "lon": 28.9683457,
      "osm_id": 5244809884,
      "osm_type": "node",
      "address": "Do\u011framac\u0131 Sokak",
      "road_geometry": null
    },
    {
      "name": "Cansucan Bebe",
      "category": [
        "shop.clothes"
      ],
      "lat": 41.0078553,
      "lon": 28.9685655,
      "osm_id": 5244809885,
      "osm_type": "node",
      "address": "Do\u011framac\u0131 Sokak",
      "road_geometry": null
    },
    {
      "name": "Ayakkabi Gar",
      "category": [
        "shop.shoes"
      ],
      "lat": 41.007916,
      "lon": 28.9683805,
      "osm_id": 5244809887,
      "osm_type": "node",
      "address": "Do\u011framac\u0131 Sokak",
      "road_geometry": null
    },
    {
      "name": "Ulut\u00fcrk Sports",
      "category": [
        "shop.shoes"
      ],
      "lat": 41.0074303,
      "lon": 28.9687421,
      "osm_id": 5244809889,
      "osm_type": "node",
      "address": "Gedik Pa\u015fa Cami Sokak",
      "road_geometry": null
    },
    {
      "name": "F\u0131rat B\u00fcfe",
      "category": [
        "amenity.fast_food"
      ],
      "lat": 41.0074675,
      "lon": 28.9684912,
      "osm_id": 5244809892,
      "osm_type": "node",
      "address": "Gedik Pa\u015fa Cami Sokak",
      "road_geometry": null
    },
    {
      "name": "Do\u011fan",
      "category": [
        "shop.shoes"
      ],
      "lat": 41.0076145,
      "lon": 28.9683966,
      "osm_id": 5244809893,
      "osm_type": "node",
      "address": "Gedik Pa\u015fa Cami Sokak",
      "road_geometry": null
    },
    {
      "name": "Ulus",
      "category": [
        "shop.shoes"
      ],
      "lat": 41.0075184,
      "lon": 28.9683222,
      "osm_id": 5244809894,
      "osm_type": "node",
      "address": "Gedik Pa\u015fa Cami Sokak",
      "road_geometry": null
    },
    {
      "name": "Craft Shoes",
      "category": [
        "shop.shoes"
      ],
      "lat": 41.00757,
      "lon": 28.9681392,
      "osm_id": 5244809895,
      "osm_type": "node",
      "address": "Gedik Pa\u015fa Cami Sokak",
      "road_geometry": null
    },
    {
      "name": "Kral Terlik",
      "category": [
        "shop.shoes"
      ],
      "lat": 41.0077223,
      "lon": 28.967938,
      "osm_id": 5244809898,
      "osm_type": "node",
      "address": "Gedik Pa\u015fa Cami Sokak",
      "road_geometry": null
    },
    {
      "name": "Seniorah Ayakkab\u0131",
      "category": [
        "shop.shoes"
      ],
      "lat": 41.0076552,
      "lon": 28.967777,
      "osm_id": 5244809899,
      "osm_type": "node",
      "address": "Gedik Pa\u015fa Cami Sokak",
      "road_geometry": null
    },
    {
      "name": "Aziz Usta",
      "category": [
        "amenity.restaurant"
      ],
      "lat": 41.0077988,
      "lon": 28.9667563,
      "osm_id": 5244809903,
      "osm_type": "node",
      "address": "Yahya Pa\u015fa Sokak",
      "road_geometry": null
    },
    {
      "name": "Brozzo Shoes",
      "category": [
        "shop.shoes"
      ],
      "lat": 41.0078414,
      "lon": 28.9664625,
      "osm_id": 5244809904,
      "osm_type": "node",
      "address": "Yahya Pa\u015fa Sokak",
      "road_geometry": null
    },
    {
      "name": "Pa\u015fa Tost",
      "category": [
        "amenity.fast_food"
      ],
      "lat": 41.00813,
      "lon": 28.9669481,
      "osm_id": 5244809909,
      "osm_type": "node",
      "address": "Hattat Soka\u011f\u0131",
      "road_geometry": null
    },
    {
      "name": "Kizen",
      "category": [
        "shop.shoes"
      ],
      "lat": 41.0080139,
      "lon": 28.9663795,
      "osm_id": 5244809910,
      "osm_type": "node",
      "address": "Sinekli Medrese Sokak",
      "road_geometry": null
    },
    {
      "name": "Develi",
      "category": [
        "shop.shoes"
      ],
      "lat": 41.0081749,
      "lon": 28.9664633,
      "osm_id": 5244809911,
      "osm_type": "node",
      "address": "Sinekli Medrese Sokak",
      "road_geometry": null
    },
    {
      "name": "Gedikpa\u015fa Buffet",
      "category": [
        "amenity.fast_food"
      ],
      "lat": 41.008379,
      "lon": 28.9675248,
      "osm_id": 5244809915,
      "osm_type": "node",
      "address": "Asma Kandil Sokak",
      "road_geometry": null
    },
    {
      "name": "H\u00fcrrem Sultan",
      "category": [
        "shop.jewelry"
      ],
      "lat": 41.0086143,
      "lon": 28.9664224,
      "osm_id": 5244809919,
      "osm_type": "node",
      "address": "Asma Kandil Sokak",
      "road_geometry": null
    },
    {
      "name": "Kapa\u015f",
      "category": [
        "shop.shoes"
      ],
      "lat": 41.0071959,
      "lon": 28.9664755,
      "osm_id": 5244810624,
      "osm_type": "node",
      "address": "Bali Pa\u015fa Yoku\u015fu",
      "road_geometry": null
    },
    {
      "name": "Elite Men",
      "category": [
        "shop.shoes"
      ],
      "lat": 41.0071149,
      "lon": 28.9666793,
      "osm_id": 5244810625,
      "osm_type": "node",
      "address": "Bali Pa\u015fa Yoku\u015fu",
      "road_geometry": null
    },
    {
      "name": "Vardar",
      "category": [
        "shop.shoes"
      ],
      "lat": 41.0072789,
      "lon": 28.9667567,
      "osm_id": 5244810632,
      "osm_type": "node",
      "address": "Gedik Pa\u015fa Caddesi",
      "road_geometry": null
    },
    {
      "name": "Kent Center",
      "category": [
        "shop.mall"
      ],
      "lat": 41.0071959,
      "lon": 28.9667084,
      "osm_id": 5244810633,
      "osm_type": "node",
      "address": "Gedik Pa\u015fa Caddesi",
      "road_geometry": null
    },
    {
      "name": "Ko\u00e7yi\u011fit B\u00fcfe",
      "category": [
        "shop.convenience"
      ],
      "lat": 41.0068598,
      "lon": 28.9677227,
      "osm_id": 5244810634,
      "osm_type": "node",
      "address": "Mutrip Sokak",
      "road_geometry": null
    },
    {
      "name": "Ekol",
      "category": [
        "shop.shoes"
      ],
      "lat": 41.0073563,
      "lon": 28.9664761,
      "osm_id": 5244810650,
      "osm_type": "node",
      "address": "Tatl\u0131kuyu Sokak",
      "road_geometry": null
    },
    {
      "name": "Ak\u0131nlar Ayakkab\u0131",
      "category": [
        "shop.shoes"
      ],
      "lat": 41.0075011,
      "lon": 28.9664091,
      "osm_id": 5244810652,
      "osm_type": "node",
      "address": "Tatl\u0131kuyu Sokak",
      "road_geometry": null
    },
    {
      "name": "Sail Lakers",
      "category": [
        "shop.shoes"
      ],
      "lat": 41.0075141,
      "lon": 28.9667229,
      "osm_id": 5244810653,
      "osm_type": "node",
      "address": "Tatl\u0131kuyu Sokak",
      "road_geometry": null
    },
    {
      "name": "Magnolya",
      "category": [
        "shop.shoes"
      ],
      "lat": 41.0074444,
      "lon": 28.9671201,
      "osm_id": 5244810654,
      "osm_type": "node",
      "address": "Emin Sinan Hamam\u0131 Sokak",
      "road_geometry": null
    },
    {
      "name": "Yemeny Ayakkab\u0131",
      "category": [
        "shop.shoes"
      ],
      "lat": 41.0074434,
      "lon": 28.9676107,
      "osm_id": 5244810655,
      "osm_type": "node",
      "address": "Emin Sinan Hamam\u0131 Soka\u011f\u0131",
      "road_geometry": null
    },
    {
      "name": "U\u011fur Ayakkab\u0131",
      "category": [
        "shop.shoes"
      ],
      "lat": 41.007326,
      "lon": 28.9674283,
      "osm_id": 5244810656,
      "osm_type": "node",
      "address": "Emin Sinan Hamam\u0131 Sokak",
      "road_geometry": null
    },
    {
      "name": "Ziylan Taban",
      "category": [
        "shop.shoes"
      ],
      "lat": 41.0074813,
      "lon": 28.9678876,
      "osm_id": 5244810657,
      "osm_type": "node",
      "address": "Emin Sinan Hamam\u0131 Soka\u011f\u0131",
      "road_geometry": null
    },
    {
      "name": "\u0130kizler",
      "category": [
        "shop.shoes"
      ],
      "lat": 41.0071089,
      "lon": 28.9679399,
      "osm_id": 5244810659,
      "osm_type": "node",
      "address": "Emin Sinan Hamam\u0131 Sokak",
      "road_geometry": null
    },
    {
      "name": "Deep Corner",
      "category": [
        "shop.shoes"
      ],
      "lat": 41.0072668,
      "lon": 28.9677347,
      "osm_id": 5244810660,
      "osm_type": "node",
      "address": "Emin Sinan Hamam\u0131 Soka\u011f\u0131",
      "road_geometry": null
    },
    {
      "name": "Oflaz",
      "category": [
        "shop.shoes"
      ],
      "lat": 41.0069996,
      "lon": 28.9679278,
      "osm_id": 5244810661,
      "osm_type": "node",
      "address": "Emin Sinan Hamam\u0131 Sokak",
      "road_geometry": null
    },
    {
      "name": "Poltab",
      "category": [
        "shop.shoes"
      ],
      "lat": 41.006909,
      "lon": 28.9678836,
      "osm_id": 5244810662,
      "osm_type": "node",
      "address": "Emin Sinan Hamam\u0131 Sokak",
      "road_geometry": null
    },
    {
      "name": "Denizbank",
      "category": [
        "amenity.atm"
      ],
      "lat": 41.0087836,
      "lon": 28.9669441,
      "osm_id": 5481073726,
      "osm_type": "node",
      "address": null,
      "road_geometry": null
    },
    {
      "name": "Tugbe",
      "category": [
        "shop.confectionery"
      ],
      "lat": 41.0089644,
      "lon": 28.9660123,
      "osm_id": 6278929485,
      "osm_type": "node",
      "address": null,
      "road_geometry": null
    },
    {
      "name": "Magazaci Silver",
      "category": [
        "shop.jewelry"
      ],
      "lat": 41.0085684,
      "lon": 28.9684918,
      "osm_id": 7810104500,
      "osm_type": "node",
      "address": null,
      "road_geometry": null
    },
    {
      "name": "balik ekmek",
      "category": [
        "amenity.cafe"
      ],
      "lat": 41.0089197,
      "lon": 28.9675503,
      "osm_id": 8829972517,
      "osm_type": "node",
      "address": null,
      "road_geometry": null
    },
    {
      "name": "Nihat Balkan Ayakkab\u0131",
      "category": [
        "shop.shoes"
      ],
      "lat": 41.0073717,
      "lon": 28.9679549,
      "osm_id": 11171358538,
      "osm_type": "node",
      "address": "Do\u011framac\u0131 Soka\u011f\u0131",
      "road_geometry": null
    }
  ],
  "refinement": {
    "original_poi_count": 155,
    "removed_count": 90,
    "model": "gemini-2.5-flash"
  }
}