{
  "image": "dataset/images/558.png",
  "center_lat": 41.010135135135144,
  "center_lon": 28.970446350222154,
  "bbox": [
    28.968954014476132,
    41.00900900900902,
    28.971938685968176,
    41.011261261261275
  ],
  "unique_categories": [
    "amenity.pharmacy",
    "amenity.ice_cream",
    "shop.jewelry",
    "amenity.restaurant",
    "amenity.bank",
    "shop.clothes",
    "amenity.library",
    "amenity.fast_food",
    "shop.toys",
    "shop.mall",
    "shop.watches"
  ],
  "poi_count_per_category": {
    "amenity.pharmacy": 1,
    "amenity.ice_cream": 1,
    "shop.jewelry": 32,
    "amenity.restaurant": 6,
    "amenity.bank": 1,
    "shop.clothes": 4,
    "amenity.library": 1,
    "amenity.fast_food": 3,
    "shop.toys": 1,
    "shop.mall": 1,
    "shop.watches": 1
  },
  "poi_count": 52,
  "pois": [
    {
      "name": "Ra\u0131f \u00fcsta",
      "category": [
        "amenity.restaurant"
      ],
      "lat": 41.0109798,
      "lon": 28.9710317,
      "osm_id": 4447856189,
      "osm_type": "node",
      "address": null,
      "road_geometry": null
    },
    {
      "name": "\u0130peki\u015f Silver",
      "category": [
        "shop.jewelry"
      ],
      "lat": 41.0097554,
      "lon": 28.9696718,
      "osm_id": 5115939922,
      "osm_type": "node",
      "address": "Tavuk Pazar\u0131 Sokak",
      "road_geometry": null
    },
    {
      "name": "TEB",
      "category": [
        "amenity.bank"
      ],
      "lat": 41.009691,
      "lon": 28.9698938,
      "osm_id": 5115939923,
      "osm_type": "node",
      "address": "Nuruosmaniye Caddesi",
      "road_geometry": null
    },
    {
      "name": "Ligori GOLD",
      "category": [
        "shop.jewelry"
      ],
      "lat": 41.0106856,
      "lon": 28.9698195,
      "osm_id": 5115939933,
      "osm_type": "node",
      "address": "\u00c7uhac\u0131 Han\u0131 Soka\u011f\u0131",
      "road_geometry": null
    },
    {
      "name": "Metin Ayar Evi",
      "category": [
        "shop.jewelry"
      ],
      "lat": 41.0092503,
      "lon": 28.9691341,
      "osm_id": 5244806519,
      "osm_type": "node",
      "address": "Bileyciler Sokak",
      "road_geometry": null
    },
    {
      "name": "Seher Kuyumculuk",
      "category": [
        "shop.jewelry"
      ],
      "lat": 41.0093579,
      "lon": 28.9692271,
      "osm_id": 5244806520,
      "osm_type": "node",
      "address": "Bileyciler Sokak",
      "road_geometry": null
    },
    {
      "name": "K\u0131yam S\u0131lver",
      "category": [
        "shop.jewelry"
      ],
      "lat": 41.0094895,
      "lon": 28.9692168,
      "osm_id": 5244806723,
      "osm_type": "node",
      "address": "Bileyciler Sokak",
      "road_geometry": null
    },
    {
      "name": "Cmt S\u0131lver",
      "category": [
        "shop.jewelry"
      ],
      "lat": 41.0097443,
      "lon": 28.9694206,
      "osm_id": 5244806726,
      "osm_type": "node",
      "address": "Tavuk Pazar\u0131 Sokak",
      "road_geometry": null
    },
    {
      "name": "\u0130yi Silver Jewelry Store",
      "category": [
        "shop.jewelry"
      ],
      "lat": 41.0096919,
      "lon": 28.969538,
      "osm_id": 5244806727,
      "osm_type": "node",
      "address": "Tavuk Pazar\u0131 Sokak",
      "road_geometry": null
    },
    {
      "name": "Isra Silver",
      "category": [
        "shop.jewelry"
      ],
      "lat": 41.0094142,
      "lon": 28.9695301,
      "osm_id": 5244806731,
      "osm_type": "node",
      "address": "K\u00fcrk\u00e7\u00fcler Pazar\u0131 Sokak",
      "road_geometry": null
    },
    {
      "name": "Sevdik",
      "category": [
        "shop.jewelry"
      ],
      "lat": 41.0092583,
      "lon": 28.9699062,
      "osm_id": 5244806735,
      "osm_type": "node",
      "address": "Mesih Mehmet Pa\u015fa Sokak",
      "road_geometry": null
    },
    {
      "name": "W\u0131ngs S\u0131lver",
      "category": [
        "shop.jewelry"
      ],
      "lat": 41.009156,
      "lon": 28.9699086,
      "osm_id": 5244806736,
      "osm_type": "node",
      "address": "Mesih Mehmet Pa\u015fa Sokak",
      "road_geometry": null
    },
    {
      "name": "arad",
      "category": [
        "shop.jewelry"
      ],
      "lat": 41.0092587,
      "lon": 28.9697798,
      "osm_id": 5244806739,
      "osm_type": "node",
      "address": "Mesih Mehmet Pa\u015fa Sokak",
      "road_geometry": null
    },
    {
      "name": "Ortaklar",
      "category": [
        "shop.jewelry"
      ],
      "lat": 41.0095582,
      "lon": 28.9696741,
      "osm_id": 5244806743,
      "osm_type": "node",
      "address": "Tavuk Pazar\u0131 Sokak",
      "road_geometry": null
    },
    {
      "name": "Best Cila",
      "category": [
        "shop.jewelry"
      ],
      "lat": 41.0095445,
      "lon": 28.9698281,
      "osm_id": 5244806745,
      "osm_type": "node",
      "address": "Tavuk Pazar\u0131 Sokak",
      "road_geometry": null
    },
    {
      "name": "Karamer",
      "category": [
        "shop.jewelry"
      ],
      "lat": 41.0092248,
      "lon": 28.9704774,
      "osm_id": 5244806750,
      "osm_type": "node",
      "address": "Tavuk Pazar\u0131 Sokak",
      "road_geometry": null
    },
    {
      "name": "Utku Eczanesi",
      "category": [
        "amenity.pharmacy"
      ],
      "lat": 41.0094756,
      "lon": 28.9701742,
      "osm_id": 5244806753,
      "osm_type": "node",
      "address": "Tavuk Pazar\u0131 Sokak",
      "road_geometry": null
    },
    {
      "name": "Jack Pierre",
      "category": [
        "shop.watches"
      ],
      "lat": 41.0093219,
      "lon": 28.9701394,
      "osm_id": 5244806754,
      "osm_type": "node",
      "address": "Atik Ali Pa\u015fa Sokak",
      "road_geometry": null
    },
    {
      "name": "valentine diamond",
      "category": [
        "shop.jewelry"
      ],
      "lat": 41.0090708,
      "lon": 28.9700237,
      "osm_id": 5244806757,
      "osm_type": "node",
      "address": "Atik Ali Pa\u015fa Sokak",
      "road_geometry": null
    },
    {
      "name": "TAKIDASANAT AT\u00d6LYE",
      "category": [
        "shop.mall"
      ],
      "lat": 41.0092695,
      "lon": 28.9718013,
      "osm_id": 5244806779,
      "osm_type": "node",
      "address": "Vezirhan Caddesi",
      "road_geometry": null
    },
    {
      "name": "Prens Leather",
      "category": [
        "shop.clothes"
      ],
      "lat": 41.0094958,
      "lon": 28.971281,
      "osm_id": 5244806786,
      "osm_type": "node",
      "address": "Vezirhan Caddesi",
      "road_geometry": null
    },
    {
      "name": "Sirius P\u0131rlanta",
      "category": [
        "shop.jewelry"
      ],
      "lat": 41.0096504,
      "lon": 28.9712532,
      "osm_id": 5244806788,
      "osm_type": "node",
      "address": "Piyer Loti Caddesi",
      "road_geometry": null
    },
    {
      "name": "Aslan",
      "category": [
        "amenity.restaurant"
      ],
      "lat": 41.0098134,
      "lon": 28.9712918,
      "osm_id": 5244806791,
      "osm_type": "node",
      "address": "Vezirhan Caddesi",
      "road_geometry": null
    },
    {
      "name": "Fiore Doro",
      "category": [
        "shop.jewelry"
      ],
      "lat": 41.0100754,
      "lon": 28.9713628,
      "osm_id": 5244806793,
      "osm_type": "node",
      "address": "Vezirhan Caddesi",
      "road_geometry": null
    },
    {
      "name": "Diamond risus / Istanbul Han",
      "category": [
        "shop.jewelry"
      ],
      "lat": 41.0100554,
      "lon": 28.9717046,
      "osm_id": 5244806796,
      "osm_type": "node",
      "address": "Ali Baba T\u00fcrbe Sokak",
      "road_geometry": null
    },
    {
      "name": "Azra Nur",
      "category": [
        "shop.jewelry"
      ],
      "lat": 41.0096959,
      "lon": 28.9718534,
      "osm_id": 5244806801,
      "osm_type": "node",
      "address": "Gazi Sinan Pa\u015fa Sokak",
      "road_geometry": null
    },
    {
      "name": "MAS",
      "category": [
        "shop.jewelry"
      ],
      "lat": 41.0097896,
      "lon": 28.9718474,
      "osm_id": 5244806802,
      "osm_type": "node",
      "address": "Gazi Sinan Pa\u015fa Sokak",
      "road_geometry": null
    },
    {
      "name": "Carina",
      "category": [
        "shop.clothes"
      ],
      "lat": 41.0099814,
      "lon": 28.971345,
      "osm_id": 5244807388,
      "osm_type": "node",
      "address": "Vezirhan Caddesi",
      "road_geometry": null
    },
    {
      "name": "Ottoman et Mangal",
      "category": [
        "amenity.restaurant"
      ],
      "lat": 41.0096823,
      "lon": 28.9701504,
      "osm_id": 5244807392,
      "osm_type": "node",
      "address": "\u00c7ar\u015f\u0131kap\u0131 Nuruosmaniye Caddesi",
      "road_geometry": null
    },
    {
      "name": "Tarihi Sof\u00e7uhan Muhallebicisi",
      "category": [
        "amenity.restaurant"
      ],
      "lat": 41.0097996,
      "lon": 28.9699626,
      "osm_id": 5244807393,
      "osm_type": "node",
      "address": "\u00c7ar\u015f\u0131kap\u0131 Nuruosmaniye Caddesi",
      "road_geometry": null
    },
    {
      "name": "Melek Devli",
      "category": [
        "shop.jewelry"
      ],
      "lat": 41.0107994,
      "lon": 28.970546,
      "osm_id": 5244807401,
      "osm_type": "node",
      "address": "K\u0131l\u0131\u00e7c\u0131lar Soka\u011f\u0131",
      "road_geometry": null
    },
    {
      "name": "Deniz Babu\u00e7 P\u0131rlanta",
      "category": [
        "shop.jewelry"
      ],
      "lat": 41.0107168,
      "lon": 28.9700933,
      "osm_id": 5244807404,
      "osm_type": "node",
      "address": "K\u0131l\u0131\u00e7c\u0131lar Soka\u011f\u0131",
      "road_geometry": null
    },
    {
      "name": "Ligori GOLD",
      "category": [
        "shop.jewelry"
      ],
      "lat": 41.0106783,
      "lon": 28.9698814,
      "osm_id": 5244807406,
      "osm_type": "node",
      "address": "\u00c7uhac\u0131 Han\u0131 Soka\u011f\u0131",
      "road_geometry": null
    },
    {
      "name": "Yusuf Baysal Kuyumculuk",
      "category": [
        "shop.jewelry"
      ],
      "lat": 41.0108308,
      "lon": 28.9697955,
      "osm_id": 5244807408,
      "osm_type": "node",
      "address": "\u00c7uhac\u0131 Han\u0131 Soka\u011f\u0131",
      "road_geometry": null
    },
    {
      "name": "Ekol Kuyumculuk",
      "category": [
        "shop.jewelry"
      ],
      "lat": 41.0109182,
      "lon": 28.969776,
      "osm_id": 5244807409,
      "osm_type": "node",
      "address": "\u00c7uhac\u0131 Han\u0131 Soka\u011f\u0131",
      "road_geometry": null
    },
    {
      "name": "I\u015f\u0131klar Etek",
      "category": [
        "shop.clothes"
      ],
      "lat": 41.0112302,
      "lon": 28.9706815,
      "osm_id": 5244807924,
      "osm_type": "node",
      "address": "K\u00fc\u00e7\u00fcky\u0131ld\u0131z Han\u0131 Soka\u011f\u0131",
      "road_geometry": null
    },
    {
      "name": "Sercan Jewelry",
      "category": [
        "shop.jewelry"
      ],
      "lat": 41.0109097,
      "lon": 28.9704674,
      "osm_id": 5244807927,
      "osm_type": "node",
      "address": "K\u00fc\u00e7\u00fckY\u0131ld\u0131z Han Sokak",
      "road_geometry": null
    },
    {
      "name": "Kilisli D\u00f6nerci",
      "category": [
        "amenity.fast_food"
      ],
      "lat": 41.0108667,
      "lon": 28.9707809,
      "osm_id": 5244807935,
      "osm_type": "node",
      "address": "K\u0131l\u0131\u00e7c\u0131lar Soka\u011f\u0131",
      "road_geometry": null
    },
    {
      "name": "Inan Kuyumculuk",
      "category": [
        "shop.jewelry"
      ],
      "lat": 41.010726,
      "lon": 28.9711406,
      "osm_id": 5244807936,
      "osm_type": "node",
      "address": "Vezirhan Caddesi",
      "road_geometry": null
    },
    {
      "name": "Nuruosmaniye Kutuphanesi",
      "category": [
        "amenity.library"
      ],
      "lat": 41.0105893,
      "lon": 28.9710102,
      "osm_id": 5244807938,
      "osm_type": "node",
      "address": "Vezirhan Caddesi",
      "road_geometry": null
    },
    {
      "name": "B\u00f6rekci Cemil Usta",
      "category": [
        "amenity.fast_food"
      ],
      "lat": 41.0104164,
      "lon": 28.9713494,
      "osm_id": 5244807939,
      "osm_type": "node",
      "address": "Vezirhan Caddesi",
      "road_geometry": null
    },
    {
      "name": "Karis Mucevherat",
      "category": [
        "shop.jewelry"
      ],
      "lat": 41.0105504,
      "lon": 28.9716944,
      "osm_id": 5244807943,
      "osm_type": "node",
      "address": "\u015eerefefendi Soka\u011f\u0131",
      "road_geometry": null
    },
    {
      "name": "Alrayan Restaurant",
      "category": [
        "amenity.restaurant"
      ],
      "lat": 41.0096924,
      "lon": 28.9691233,
      "osm_id": 5244807965,
      "osm_type": "node",
      "address": "K\u00fcrk\u00e7\u00fcler Kap\u0131s\u0131 Sokak",
      "road_geometry": null
    },
    {
      "name": "Erdal Yald\u0131z",
      "category": [
        "shop.jewelry"
      ],
      "lat": 41.0095926,
      "lon": 28.969216,
      "osm_id": 5244807967,
      "osm_type": "node",
      "address": "K\u00fcrk\u00e7\u00fcler Kap\u0131s\u0131 Sokak",
      "road_geometry": null
    },
    {
      "name": "G\u00fclsal",
      "category": [
        "shop.clothes"
      ],
      "lat": 41.0112181,
      "lon": 28.9696961,
      "osm_id": 5244811469,
      "osm_type": "node",
      "address": "Mahmutpa\u015fa Yoku\u015fu",
      "road_geometry": null
    },
    {
      "name": "Fahri Usta",
      "category": [
        "amenity.restaurant"
      ],
      "lat": 41.0111857,
      "lon": 28.9693503,
      "osm_id": 5244811471,
      "osm_type": "node",
      "address": "Mahmutpa\u015fa Yoku\u015fu",
      "road_geometry": null
    },
    {
      "name": "KOKORE\u00c7\u00c7\u0130",
      "category": [
        "amenity.fast_food"
      ],
      "lat": 41.0106711,
      "lon": 28.9704631,
      "osm_id": 5340499425,
      "osm_type": "node",
      "address": null,
      "road_geometry": null
    },
    {
      "name": "cat",
      "category": [
        "shop.toys"
      ],
      "lat": 41.0091961,
      "lon": 28.9713694,
      "osm_id": 6753771086,
      "osm_type": "node",
      "address": null,
      "road_geometry": null
    },
    {
      "name": "Lida Diamond",
      "category": [
        "shop.jewelry"
      ],
      "lat": 41.0101129,
      "lon": 28.9718739,
      "osm_id": 8411437690,
      "osm_type": "node",
      "address": "Nur-u Osmaniye Caddesi",
      "road_geometry": null
    },
    {
      "name": "Jival",
      "category": [
        "shop.jewelry"
      ],
      "lat": 41.009396,
      "lon": 28.9713193,
      "osm_id": 8482221310,
      "osm_type": "node",
      "address": "Vezirhan Caddesi",
      "road_geometry": null
    },
    {
      "name": "Bena Ice Cream",
      "category": [
        "amenity.ice_cream"
      ],
      "lat": 41.0091245,
      "lon": 28.9702155,
      "osm_id": 11212829444,
      "osm_type": "node",
      "address": null,
      "road_geometry": null
    },
    {
      "name": "916 Plus",
      "category": [
        "shop.jewelry"
      ],
      "lat": 41.0098007,
      "lon": 28.9717192,
      "osm_id": 12110313478,
      "osm_type": "node",
      "address": "Gazi Sinanpa\u015fa Soka\u011f\u0131",
      "road_geometry": null
    }
  ],
  "refinement": {
    "original_poi_count": 157,
    "removed_count": 105,
    "model": "gemini-2.5-flash"
  }
}