{
  "image": "dataset/images/567.png",
  "center_lat": 41.0123873873874,
  "center_lon": 28.964477160279074,
  "bbox": [
    28.962984773519384,
    41.011261261261275,
    28.965969547038767,
    41.01351351351353
  ],
  "unique_categories": [
    "shop.furniture",
    "shop.gift",
    "shop.clothes",
    "amenity.fast_food",
    "amenity.university"
  ],
  "poi_count_per_category": {
    "shop.furniture": 1,
    "shop.gift": 2,
    "shop.clothes": 4,
    "amenity.fast_food": 1,
    "amenity.university": 1
  },
  "poi_count": 9,
  "pois": [
    {
      "name": "\u0130stanbul \u00dcniversitesi",
      "category": [
        "amenity.university"
      ],
      "lat": 41.0132424,
      "lon": 28.9637609,
      "osm_id": 269715461,
      "osm_type": "node",
      "address": null,
      "road_geometry": null
    },
    {
      "name": "B'lazzotti",
      "category": [
        "shop.clothes"
      ],
      "lat": 41.0115903,
      "lon": 28.9657791,
      "osm_id": 5113485061,
      "osm_type": "node",
      "address": "Dar\u00fclf\u00fcnun caddesi",
      "road_geometry": null
    },
    {
      "name": "\u015eener lingerie",
      "category": [
        "shop.clothes"
      ],
      "lat": 41.0117147,
      "lon": 28.9659449,
      "osm_id": 5113485063,
      "osm_type": "node",
      "address": "Fuat pa\u015fa caddesi",
      "road_geometry": null
    },
    {
      "name": "Lamoda",
      "category": [
        "shop.clothes"
      ],
      "lat": 41.0120552,
      "lon": 28.9659659,
      "osm_id": 5113485069,
      "osm_type": "node",
      "address": "Fuat pa\u015fa caddesi",
      "road_geometry": null
    },
    {
      "name": "Eraslan",
      "category": [
        "shop.gift"
      ],
      "lat": 41.0123671,
      "lon": 28.965961,
      "osm_id": 5113485072,
      "osm_type": "node",
      "address": "Fuat pa\u015fa caddesi",
      "road_geometry": null
    },
    {
      "name": "Do\u011fo\u015flar",
      "category": [
        "shop.clothes"
      ],
      "lat": 41.0126904,
      "lon": 28.9659413,
      "osm_id": 5113485073,
      "osm_type": "node",
      "address": "Fuat pa\u015fa caddesi",
      "road_geometry": null
    },
    {
      "name": "K\u0131rm\u0131z\u0131 elma",
      "category": [
        "amenity.fast_food"
      ],
      "lat": 41.0128441,
      "lon": 28.9659427,
      "osm_id": 5113485075,
      "osm_type": "node",
      "address": "Fuat pa\u015fa caddesi",
      "road_geometry": null
    },
    {
      "name": "Delil kristal",
      "category": [
        "shop.gift"
      ],
      "lat": 41.012923,
      "lon": 28.9659194,
      "osm_id": 5113485076,
      "osm_type": "node",
      "address": "Fuat pa\u015fa caddesi",
      "road_geometry": null
    },
    {
      "name": "Ko\u00e7al",
      "category": [
        "shop.furniture"
      ],
      "lat": 41.0133,
      "lon": 28.9658962,
      "osm_id": 5113485081,
      "osm_type": "node",
      "address": "Fuat pa\u015fa caddesi",
      "road_geometry": null
    }
  ],
  "refinement": {
    "original_poi_count": 18,
    "removed_count": 9,
    "model": "gemini-2.5-flash"
  }
}