{
  "image": "dataset/images/59.png",
  "center_lat": 40.80563063063063,
  "center_lon": -73.96578226160955,
  "bbox": [
    -73.96726998936565,
    40.80450450450451,
    -73.96429453385343,
    40.80675675675676
  ],
  "unique_categories": [
    "amenity.ice_cream",
    "amenity.veterinary",
    "amenity.bank",
    "shop.photo",
    "shop.books",
    "shop.hairdresser",
    "amenity.fast_food",
    "shop.stationery",
    "amenity.clinic",
    "shop.mobile_phone",
    "shop.deli",
    "amenity.pharmacy",
    "amenity.library",
    "shop.art",
    "shop.florist",
    "tourism.information",
    "amenity.restaurant",
    "amenity.cafe"
  ],
  "poi_count_per_category": {
    "amenity.ice_cream": 3,
    "amenity.veterinary": 1,
    "amenity.bank": 1,
    "shop.photo": 1,
    "shop.books": 2,
    "shop.hairdresser": 2,
    "amenity.fast_food": 4,
    "shop.stationery": 1,
    "amenity.clinic": 1,
    "shop.mobile_phone": 1,
    "shop.deli": 2,
    "amenity.pharmacy": 1,
    "amenity.library": 1,
    "shop.art": 1,
    "shop.florist": 1,
    "tourism.information": 2,
    "amenity.restaurant": 4,
    "amenity.cafe": 1
  },
  "poi_count": 30,
  "pois": [
    {
      "name": "Le Monde",
      "category": [
        "amenity.restaurant"
      ],
      "lat": 40.8057782,
      "lon": -73.9658657,
      "osm_id": 570912397,
      "osm_type": "node",
      "address": "Broadway",
      "road_geometry": null
    },
    {
      "name": "Tom's Restaurant",
      "category": [
        "amenity.restaurant"
      ],
      "lat": 40.8054509,
      "lon": -73.9654163,
      "osm_id": 1119244578,
      "osm_type": "node",
      "address": "Broadway",
      "road_geometry": null
    },
    {
      "name": "Citibank",
      "category": [
        "amenity.bank"
      ],
      "lat": 40.8050753,
      "lon": -73.9663899,
      "osm_id": 1994680556,
      "osm_type": "node",
      "address": "Broadway",
      "road_geometry": null
    },
    {
      "name": "Famous Famiglia",
      "category": [
        "amenity.fast_food"
      ],
      "lat": 40.8048337,
      "lon": -73.9665577,
      "osm_id": 1994680558,
      "osm_type": "node",
      "address": "Broadway",
      "road_geometry": null
    },
    {
      "name": "Duane Reade",
      "category": [
        "amenity.pharmacy"
      ],
      "lat": 40.8048227,
      "lon": -73.9658563,
      "osm_id": 2045635326,
      "osm_type": "node",
      "address": "Broadway",
      "road_geometry": null
    },
    {
      "name": "Verizon",
      "category": [
        "shop.mobile_phone"
      ],
      "lat": 40.8054748,
      "lon": -73.9661193,
      "osm_id": 2279017951,
      "osm_type": "node",
      "address": "Broadway",
      "road_geometry": null
    },
    {
      "name": "Morningside Heights",
      "category": [
        "amenity.library"
      ],
      "lat": 40.806122,
      "lon": -73.9649202,
      "osm_id": 2631399309,
      "osm_type": "node",
      "address": "Broadway",
      "road_geometry": null
    },
    {
      "name": "Janoff's Stationery",
      "category": [
        "shop.stationery"
      ],
      "lat": 40.8050612,
      "lon": -73.9657154,
      "osm_id": 2707988185,
      "osm_type": "node",
      "address": "Broadway",
      "road_geometry": null
    },
    {
      "name": "Universal Barber Shop",
      "category": [
        "shop.hairdresser"
      ],
      "lat": 40.804987,
      "lon": -73.9657675,
      "osm_id": 2707989225,
      "osm_type": "node",
      "address": "Broadway",
      "road_geometry": null
    },
    {
      "name": "Book Culture",
      "category": [
        "shop.books"
      ],
      "lat": 40.8050208,
      "lon": -73.9650084,
      "osm_id": 2707989850,
      "osm_type": "node",
      "address": "West 112th Street",
      "road_geometry": null
    },
    {
      "name": "Milano Market",
      "category": [
        "shop.deli"
      ],
      "lat": 40.8057016,
      "lon": -73.9652302,
      "osm_id": 2765363743,
      "osm_type": "node",
      "address": "Broadway",
      "road_geometry": null
    },
    {
      "name": "Pinkberry",
      "category": [
        "amenity.ice_cream"
      ],
      "lat": 40.8046575,
      "lon": -73.9666962,
      "osm_id": 2796437587,
      "osm_type": "node",
      "address": "Broadway",
      "road_geometry": null
    },
    {
      "name": "Jack's Art Gallery",
      "category": [
        "shop.art"
      ],
      "lat": 40.8047518,
      "lon": -73.9666221,
      "osm_id": 2796437588,
      "osm_type": "node",
      "address": "Broadway",
      "road_geometry": null
    },
    {
      "name": "Bond Vet",
      "category": [
        "amenity.veterinary"
      ],
      "lat": 40.8052808,
      "lon": -73.9662507,
      "osm_id": 2796437592,
      "osm_type": "node",
      "address": "Broadway",
      "road_geometry": null
    },
    {
      "name": "Community Food & Juice",
      "category": [
        "amenity.restaurant"
      ],
      "lat": 40.8059481,
      "lon": -73.9657438,
      "osm_id": 2796448525,
      "osm_type": "node",
      "address": "Broadway",
      "road_geometry": null
    },
    {
      "name": "Blue Bottle Coffee",
      "category": [
        "amenity.cafe"
      ],
      "lat": 40.8062968,
      "lon": -73.9654905,
      "osm_id": 2796448528,
      "osm_type": "node",
      "address": "Broadway",
      "road_geometry": null
    },
    {
      "name": "Book Culture",
      "category": [
        "shop.books"
      ],
      "lat": 40.806712,
      "lon": -73.9651801,
      "osm_id": 2796448532,
      "osm_type": "node",
      "address": "Broadway",
      "road_geometry": null
    },
    {
      "name": "Flowers by Valli",
      "category": [
        "shop.florist"
      ],
      "lat": 40.8056854,
      "lon": -73.9659335,
      "osm_id": 5924114806,
      "osm_type": "node",
      "address": "Broadway",
      "road_geometry": null
    },
    {
      "name": "Dig",
      "category": [
        "amenity.fast_food"
      ],
      "lat": 40.8055514,
      "lon": -73.9653417,
      "osm_id": 6904407682,
      "osm_type": "node",
      "address": "Broadway",
      "road_geometry": null
    },
    {
      "name": "LinkNYC",
      "category": [
        "tourism.information"
      ],
      "lat": 40.8054805,
      "lon": -73.9655265,
      "osm_id": 7004367801,
      "osm_type": "node",
      "address": null,
      "road_geometry": null
    },
    {
      "name": "LinkNYC",
      "category": [
        "tourism.information"
      ],
      "lat": 40.8059316,
      "lon": -73.9650795,
      "osm_id": 7004367803,
      "osm_type": "node",
      "address": null,
      "road_geometry": null
    },
    {
      "name": "Wu + Nussbaum",
      "category": [
        "amenity.restaurant"
      ],
      "lat": 40.8060976,
      "lon": -73.9656359,
      "osm_id": 7004392888,
      "osm_type": "node",
      "address": "Broadway",
      "road_geometry": null
    },
    {
      "name": "BanBan Shop",
      "category": [
        "amenity.fast_food"
      ],
      "lat": 40.8064913,
      "lon": -73.9653451,
      "osm_id": 7004416095,
      "osm_type": "node",
      "address": "Broadway",
      "road_geometry": null
    },
    {
      "name": "H\u00e4agen-Dazs",
      "category": [
        "amenity.ice_cream"
      ],
      "lat": 40.8064174,
      "lon": -73.9654003,
      "osm_id": 7004443655,
      "osm_type": "node",
      "address": "Broadway",
      "road_geometry": null
    },
    {
      "name": "Samad's Gourmet",
      "category": [
        "shop.deli"
      ],
      "lat": 40.8051641,
      "lon": -73.9663298,
      "osm_id": 9409060625,
      "osm_type": "node",
      "address": "Broadway",
      "road_geometry": null
    },
    {
      "name": "Liz Green Photography",
      "category": [
        "shop.photo"
      ],
      "lat": 40.8058025,
      "lon": -73.966976,
      "osm_id": 10755918454,
      "osm_type": "node",
      "address": "Riverside Drive",
      "road_geometry": null
    },
    {
      "name": "Junzi Kitchen",
      "category": [
        "amenity.fast_food"
      ],
      "lat": 40.8057904,
      "lon": -73.9651642,
      "osm_id": 11399303946,
      "osm_type": "node",
      "address": "Broadway",
      "road_geometry": null
    },
    {
      "name": "Salon 601",
      "category": [
        "shop.hairdresser"
      ],
      "lat": 40.8057347,
      "lon": -73.9661711,
      "osm_id": 11410862563,
      "osm_type": "node",
      "address": "West 112th Street",
      "road_geometry": null
    },
    {
      "name": "Mount Sinai Doctors",
      "category": [
        "amenity.clinic"
      ],
      "lat": 40.8053475,
      "lon": -73.9663219,
      "osm_id": 12174237440,
      "osm_type": "node",
      "address": "Broadway",
      "road_geometry": null
    },
    {
      "name": "Softside Ice Cream",
      "category": [
        "amenity.ice_cream"
      ],
      "lat": 40.8052307,
      "lon": -73.9655203,
      "osm_id": 12763331031,
      "osm_type": "node",
      "address": "Broadway",
      "road_geometry": null
    }
  ],
  "refinement": {
    "original_poi_count": 58,
    "removed_count": 28,
    "model": "gemini-2.5-flash"
  }
}