{
  "image": "dataset/images/59.png",
  "center_lat": 48.85612612612612,
  "center_lon": 2.3401345720100095,
  "bbox": [
    2.338423048006673,
    48.855,
    2.341846096013346,
    48.85725225225225
  ],
  "unique_categories": [
    "shop.interior_decoration",
    "amenity.drinking_water",
    "shop.art",
    "highway.bus_stop",
    "shop.furniture",
    "shop.gift",
    "shop.jewelry",
    "amenity.bar",
    "amenity.restaurant",
    "shop.antiques",
    "shop.clothes",
    "tourism.artwork",
    "tourism.hotel"
  ],
  "poi_count_per_category": {
    "shop.interior_decoration": 1,
    "amenity.drinking_water": 1,
    "shop.art": 7,
    "highway.bus_stop": 4,
    "shop.furniture": 2,
    "shop.gift": 2,
    "shop.jewelry": 1,
    "amenity.bar": 6,
    "amenity.restaurant": 3,
    "shop.antiques": 2,
    "shop.clothes": 1,
    "tourism.artwork": 1,
    "tourism.hotel": 2
  },
  "poi_count": 32,
  "pois": [
    {
      "name": "Fontaine Wallace",
      "category": [
        "amenity.drinking_water",
        "tourism.artwork"
      ],
      "lat": 48.8560751,
      "lon": 2.3406591,
      "osm_id": 503665264,
      "osm_type": "node",
      "address": null,
      "road_geometry": null
    },
    {
      "name": "Pont Neuf - Quai des Grands Augustins",
      "category": [
        "highway.bus_stop"
      ],
      "lat": 48.8558899,
      "lon": 2.3408768,
      "osm_id": 2043615213,
      "osm_type": "node",
      "address": null,
      "road_geometry": null
    },
    {
      "name": "Le Cavern",
      "category": [
        "amenity.bar"
      ],
      "lat": 48.8551759,
      "lon": 2.3398323,
      "osm_id": 2305979353,
      "osm_type": "node",
      "address": null,
      "road_geometry": null
    },
    {
      "name": "H\u00f4tel de Nesle",
      "category": [
        "tourism.hotel"
      ],
      "lat": 48.8551761,
      "lon": 2.3389821,
      "osm_id": 4194066289,
      "osm_type": "node",
      "address": null,
      "road_geometry": null
    },
    {
      "name": "Restaurant Guy Savoy",
      "category": [
        "amenity.restaurant"
      ],
      "lat": 48.8565393,
      "lon": 2.3395348,
      "osm_id": 4449907191,
      "osm_type": "node",
      "address": null,
      "road_geometry": null
    },
    {
      "name": "Pont Neuf - Quai des Grands Augustins",
      "category": [
        "highway.bus_stop"
      ],
      "lat": 48.8558867,
      "lon": 2.3403487,
      "osm_id": 4853868192,
      "osm_type": "node",
      "address": null,
      "road_geometry": null
    },
    {
      "name": "Pont Neuf - Quai des Grands Augustins",
      "category": [
        "highway.bus_stop"
      ],
      "lat": 48.8562509,
      "lon": 2.3395045,
      "osm_id": 4920983804,
      "osm_type": "node",
      "address": null,
      "road_geometry": null
    },
    {
      "name": "Sp\u00edti Sou",
      "category": [
        "amenity.bar"
      ],
      "lat": 48.85524,
      "lon": 2.3413595,
      "osm_id": 4986721620,
      "osm_type": "node",
      "address": null,
      "road_geometry": null
    },
    {
      "name": "Galerie Da-end",
      "category": [
        "shop.art"
      ],
      "lat": 48.855781,
      "lon": 2.3388621,
      "osm_id": 4986750552,
      "osm_type": "node",
      "address": null,
      "road_geometry": null
    },
    {
      "name": "Fluctuat",
      "category": [
        "amenity.bar"
      ],
      "lat": 48.8568003,
      "lon": 2.3415189,
      "osm_id": 5222745902,
      "osm_type": "node",
      "address": null,
      "road_geometry": null
    },
    {
      "name": "L\u2019Assignat",
      "category": [
        "amenity.bar"
      ],
      "lat": 48.8561481,
      "lon": 2.3395406,
      "osm_id": 5610209421,
      "osm_type": "node",
      "address": null,
      "road_geometry": null
    },
    {
      "name": "Lap\u00e9rouse",
      "category": [
        "amenity.restaurant"
      ],
      "lat": 48.8551198,
      "lon": 2.3415336,
      "osm_id": 7124772485,
      "osm_type": "node",
      "address": "Quai des Grands Augustins",
      "road_geometry": null
    },
    {
      "name": "Oona",
      "category": [
        "shop.clothes"
      ],
      "lat": 48.8552651,
      "lon": 2.3398995,
      "osm_id": 7726922082,
      "osm_type": "node",
      "address": null,
      "road_geometry": null
    },
    {
      "name": "Kamel Mennour",
      "category": [
        "shop.art"
      ],
      "lat": 48.8552821,
      "lon": 2.3401513,
      "osm_id": 7726940989,
      "osm_type": "node",
      "address": null,
      "road_geometry": null
    },
    {
      "name": "Citadines",
      "category": [
        "tourism.hotel"
      ],
      "lat": 48.8555342,
      "lon": 2.3409339,
      "osm_id": 7948700804,
      "osm_type": "node",
      "address": null,
      "road_geometry": null
    },
    {
      "name": "Pont Neuf - Quai des Grands Augustins",
      "category": [
        "highway.bus_stop"
      ],
      "lat": 48.8558467,
      "lon": 2.3409542,
      "osm_id": 8050360406,
      "osm_type": "node",
      "address": null,
      "road_geometry": null
    },
    {
      "name": "Bonjour de Paris",
      "category": [
        "shop.gift"
      ],
      "lat": 48.8556839,
      "lon": 2.3407158,
      "osm_id": 8261519816,
      "osm_type": "node",
      "address": "Quai des Grands Augustins",
      "road_geometry": null
    },
    {
      "name": "Souvenirs de Paris",
      "category": [
        "shop.gift"
      ],
      "lat": 48.8557039,
      "lon": 2.3402547,
      "osm_id": 9142421343,
      "osm_type": "node",
      "address": null,
      "road_geometry": null
    },
    {
      "name": "Kar\u00e9",
      "category": [
        "amenity.restaurant"
      ],
      "lat": 48.8557453,
      "lon": 2.3400768,
      "osm_id": 9887754013,
      "osm_type": "node",
      "address": null,
      "road_geometry": null
    },
    {
      "name": "Rapha\u00ebl Bedos",
      "category": [
        "shop.antiques"
      ],
      "lat": 48.8570586,
      "lon": 2.3416479,
      "osm_id": 10019638990,
      "osm_type": "node",
      "address": null,
      "road_geometry": null
    },
    {
      "name": "Ekinox",
      "category": [
        "amenity.bar"
      ],
      "lat": 48.8552032,
      "lon": 2.3396263,
      "osm_id": 10746357511,
      "osm_type": "node",
      "address": null,
      "road_geometry": null
    },
    {
      "name": "Carl Hansen & S\u00f8n",
      "category": [
        "shop.interior_decoration"
      ],
      "lat": 48.8553657,
      "lon": 2.3411929,
      "osm_id": 10869266097,
      "osm_type": "node",
      "address": null,
      "road_geometry": null
    },
    {
      "name": "\u00c9tat de Si\u00e8ge",
      "category": [
        "shop.furniture"
      ],
      "lat": 48.8559535,
      "lon": 2.3401882,
      "osm_id": 11850786968,
      "osm_type": "node",
      "address": null,
      "road_geometry": null
    },
    {
      "name": "Luc Allemand",
      "category": [
        "shop.art"
      ],
      "lat": 48.8555939,
      "lon": 2.3385211,
      "osm_id": 11918835846,
      "osm_type": "node",
      "address": null,
      "road_geometry": null
    },
    {
      "name": "Catier",
      "category": [
        "shop.art"
      ],
      "lat": 48.8556667,
      "lon": 2.338664,
      "osm_id": 11918835860,
      "osm_type": "node",
      "address": null,
      "road_geometry": null
    },
    {
      "name": "John Ferr\u00e8re",
      "category": [
        "shop.art"
      ],
      "lat": 48.8554698,
      "lon": 2.3398441,
      "osm_id": 11937604617,
      "osm_type": "node",
      "address": null,
      "road_geometry": null
    },
    {
      "name": "\u00c9g\u00e9e",
      "category": [
        "shop.jewelry"
      ],
      "lat": 48.8556027,
      "lon": 2.3401845,
      "osm_id": 11937604621,
      "osm_type": "node",
      "address": null,
      "road_geometry": null
    },
    {
      "name": "Cabinet Marcilhac",
      "category": [
        "shop.antiques"
      ],
      "lat": 48.8551015,
      "lon": 2.3391659,
      "osm_id": 11937604634,
      "osm_type": "node",
      "address": null,
      "road_geometry": null
    },
    {
      "name": "Maison Rapin",
      "category": [
        "shop.furniture"
      ],
      "lat": 48.8563114,
      "lon": 2.3398531,
      "osm_id": 11937604643,
      "osm_type": "node",
      "address": null,
      "road_geometry": null
    },
    {
      "name": "Babel",
      "category": [
        "shop.art"
      ],
      "lat": 48.8559154,
      "lon": 2.3391048,
      "osm_id": 11937604649,
      "osm_type": "node",
      "address": null,
      "road_geometry": null
    },
    {
      "name": "Ni Une Ni Deux",
      "category": [
        "amenity.bar"
      ],
      "lat": 48.8557041,
      "lon": 2.3400205,
      "osm_id": 13052165901,
      "osm_type": "node",
      "address": null,
      "road_geometry": null
    },
    {
      "name": "Kamel Mennour",
      "category": [
        "shop.art"
      ],
      "lat": 48.8551479,
      "lon": 2.3400575,
      "osm_id": 13071252031,
      "osm_type": "node",
      "address": null,
      "road_geometry": null
    }
  ],
  "refinement": {
    "original_poi_count": 86,
    "removed_count": 54,
    "model": "gemini-2.5-flash"
  }
}