{
  "image": "dataset/images/593.png",
  "center_lat": 41.01689189189191,
  "center_lon": 28.97641737684856,
  "bbox": [
    28.974924888044146,
    41.015765765765785,
    28.977909865652975,
    41.01801801801804
  ],
  "unique_categories": [
    "amenity.ferry_terminal",
    "shop.perfumery",
    "highway.bus_stop",
    "shop.convenience",
    "shop.gift",
    "amenity.restaurant",
    "amenity.bicycle_rental",
    "amenity.post_office",
    "shop.books",
    "amenity.fast_food"
  ],
  "poi_count_per_category": {
    "amenity.ferry_terminal": 3,
    "shop.perfumery": 1,
    "highway.bus_stop": 3,
    "shop.convenience": 1,
    "shop.gift": 1,
    "amenity.restaurant": 1,
    "amenity.bicycle_rental": 1,
    "amenity.post_office": 1,
    "shop.books": 1,
    "amenity.fast_food": 1
  },
  "poi_count": 14,
  "pois": [
    {
      "name": "Emin\u00f6n\u00fc",
      "category": [
        "amenity.ferry_terminal"
      ],
      "lat": 41.0175781,
      "lon": 28.9751818,
      "osm_id": 2474131665,
      "osm_type": "node",
      "address": null,
      "road_geometry": null
    },
    {
      "name": "Sirkeci",
      "category": [
        "amenity.ferry_terminal"
      ],
      "lat": 41.016772,
      "lon": 28.9776393,
      "osm_id": 3083547590,
      "osm_type": "node",
      "address": null,
      "road_geometry": null
    },
    {
      "name": "Semb\u00f6l b\u00fcfe",
      "category": [
        "amenity.fast_food"
      ],
      "lat": 41.0167889,
      "lon": 28.976238,
      "osm_id": 3457706724,
      "osm_type": "node",
      "address": null,
      "road_geometry": null
    },
    {
      "name": "Yurti\u00e7i kargo",
      "category": [
        "amenity.post_office"
      ],
      "lat": 41.0161543,
      "lon": 28.9750215,
      "osm_id": 5110347230,
      "osm_type": "node",
      "address": "Yal\u0131 k\u00f6\u015fk\u00fc caddesi",
      "road_geometry": null
    },
    {
      "name": "Rumeli \u00e7ikolata",
      "category": [
        "amenity.restaurant"
      ],
      "lat": 41.0158057,
      "lon": 28.9759473,
      "osm_id": 5110347271,
      "osm_type": "node",
      "address": "Ankara Caddesi",
      "road_geometry": null
    },
    {
      "name": "D&P Perfumum",
      "category": [
        "shop.perfumery"
      ],
      "lat": 41.0162164,
      "lon": 28.9762392,
      "osm_id": 5110347276,
      "osm_type": "node",
      "address": "Ankara Caddesi",
      "road_geometry": null
    },
    {
      "name": "Emin\u00f6n\u00fc \u0130skelesi",
      "category": [
        "amenity.ferry_terminal"
      ],
      "lat": 41.0171316,
      "lon": 28.976271,
      "osm_id": 5672864364,
      "osm_type": "node",
      "address": null,
      "road_geometry": null
    },
    {
      "name": "Merkez Saatcilik",
      "category": [
        "shop.gift"
      ],
      "lat": 41.0159568,
      "lon": 28.9757211,
      "osm_id": 5982598985,
      "osm_type": "node",
      "address": null,
      "road_geometry": null
    },
    {
      "name": "Sirkeci-1 \u0130sbike \u0130stasyonu",
      "category": [
        "amenity.bicycle_rental"
      ],
      "lat": 41.0164861,
      "lon": 28.9767835,
      "osm_id": 8946621256,
      "osm_type": "node",
      "address": null,
      "road_geometry": null
    },
    {
      "name": "Migros Jet",
      "category": [
        "shop.convenience"
      ],
      "lat": 41.016023,
      "lon": 28.976143,
      "osm_id": 9950496828,
      "osm_type": "node",
      "address": null,
      "road_geometry": null
    },
    {
      "name": "Emin\u00f6n\u00fc Iskele",
      "category": [
        "highway.bus_stop"
      ],
      "lat": 41.01668,
      "lon": 28.975283,
      "osm_id": 11514094866,
      "osm_type": "node",
      "address": null,
      "road_geometry": null
    },
    {
      "name": "Sirkeci",
      "category": [
        "highway.bus_stop"
      ],
      "lat": 41.016045,
      "lon": 28.97721,
      "osm_id": 11514147478,
      "osm_type": "node",
      "address": null,
      "road_geometry": null
    },
    {
      "name": "Emin\u00f6n\u00fc \u0130skele",
      "category": [
        "highway.bus_stop"
      ],
      "lat": 41.017119,
      "lon": 28.975377,
      "osm_id": 11514222776,
      "osm_type": "node",
      "address": null,
      "road_geometry": null
    },
    {
      "name": "\u0130stanbul Kitap\u00e7\u0131s\u0131",
      "category": [
        "shop.books"
      ],
      "lat": 41.0169337,
      "lon": 28.9761848,
      "osm_id": 12352274168,
      "osm_type": "node",
      "address": null,
      "road_geometry": null
    }
  ],
  "refinement": {
    "original_poi_count": 25,
    "removed_count": 11,
    "model": "gemini-2.5-flash"
  }
}