{
  "image": "dataset/images/621.png",
  "center_lat": 41.023648648648674,
  "center_lon": 28.96149264191497,
  "bbox": [
    28.96,
    41.02252252252255,
    28.962985283829934,
    41.024774774774805
  ],
  "unique_categories": [
    "shop.electronics",
    "amenity.cafe",
    "highway.bus_stop",
    "shop.gift",
    "amenity.restaurant",
    "railway.tram_stop"
  ],
  "poi_count_per_category": {
    "shop.electronics": 1,
    "amenity.cafe": 2,
    "highway.bus_stop": 2,
    "shop.gift": 1,
    "amenity.restaurant": 1,
    "railway.tram_stop": 2
  },
  "poi_count": 9,
  "pois": [
    {
      "name": "Mabed Kafe",
      "category": [
        "amenity.cafe"
      ],
      "lat": 41.0231389,
      "lon": 28.9608655,
      "osm_id": 5081442490,
      "osm_type": "node",
      "address": "Abd\u00fclezelpa\u015fa Caddesi",
      "road_geometry": null
    },
    {
      "name": "Osman Oglu Kebap",
      "category": [
        "amenity.restaurant"
      ],
      "lat": 41.0235841,
      "lon": 28.9604911,
      "osm_id": 5081442496,
      "osm_type": "node",
      "address": "Abd\u00fclezelpa\u015fa Caddesi",
      "road_geometry": null
    },
    {
      "name": "Hilal Elektrik",
      "category": [
        "shop.electronics"
      ],
      "lat": 41.0231976,
      "lon": 28.9603076,
      "osm_id": 5081442504,
      "osm_type": "node",
      "address": "\u00dcsk\u00fcpl\u00fc Caddesi",
      "road_geometry": null
    },
    {
      "name": "Cibali",
      "category": [
        "railway.tram_stop"
      ],
      "lat": 41.0242528,
      "lon": 28.9603158,
      "osm_id": 8225587071,
      "osm_type": "node",
      "address": null,
      "road_geometry": null
    },
    {
      "name": "Cibali",
      "category": [
        "railway.tram_stop"
      ],
      "lat": 41.0242282,
      "lon": 28.9602875,
      "osm_id": 8225587072,
      "osm_type": "node",
      "address": null,
      "road_geometry": null
    },
    {
      "name": "Sultan bazaar",
      "category": [
        "shop.gift"
      ],
      "lat": 41.0228298,
      "lon": 28.9606199,
      "osm_id": 10033127978,
      "osm_type": "node",
      "address": null,
      "road_geometry": null
    },
    {
      "name": "AlengiR Cafe",
      "category": [
        "amenity.cafe"
      ],
      "lat": 41.0232981,
      "lon": 28.9606528,
      "osm_id": 11107630706,
      "osm_type": "node",
      "address": null,
      "road_geometry": null
    },
    {
      "name": "Cibali-Kadir Has \u00dcniversitesi",
      "category": [
        "highway.bus_stop"
      ],
      "lat": 41.023472,
      "lon": 28.960567,
      "osm_id": 11543327075,
      "osm_type": "node",
      "address": null,
      "road_geometry": null
    },
    {
      "name": "Cibali-Kadir Has \u00dcniversitesi",
      "category": [
        "highway.bus_stop"
      ],
      "lat": 41.024313,
      "lon": 28.960101,
      "osm_id": 11543327094,
      "osm_type": "node",
      "address": null,
      "road_geometry": null
    }
  ],
  "refinement": {
    "original_poi_count": 21,
    "removed_count": 12,
    "model": "gemini-2.5-flash"
  }
}