{
  "image": "dataset/images/638.png",
  "center_lat": 41.02590090090093,
  "center_lon": 28.979405008524356,
  "bbox": [
    28.977912315560943,
    41.024774774774805,
    28.980897701487766,
    41.02702702702706
  ],
  "unique_categories": [
    "shop.cosmetics",
    "amenity.cafe",
    "highway.bus_stop",
    "amenity.fuel",
    "amenity.bar",
    "shop.sports",
    "amenity.restaurant",
    "shop.clothes",
    "amenity.bank",
    "shop.optician",
    "amenity.fast_food",
    "railway.tram_stop",
    "tourism.hotel"
  ],
  "poi_count_per_category": {
    "shop.cosmetics": 1,
    "amenity.cafe": 6,
    "highway.bus_stop": 2,
    "amenity.fuel": 1,
    "amenity.bar": 3,
    "shop.sports": 1,
    "amenity.restaurant": 9,
    "shop.clothes": 1,
    "amenity.bank": 2,
    "shop.optician": 1,
    "amenity.fast_food": 6,
    "railway.tram_stop": 2,
    "tourism.hotel": 3
  },
  "poi_count": 38,
  "pois": [
    {
      "name": "Opet",
      "category": [
        "amenity.fuel"
      ],
      "lat": 41.0260804,
      "lon": 28.9797859,
      "osm_id": 269367213,
      "osm_type": "node",
      "address": null,
      "road_geometry": null
    },
    {
      "name": "Tophane",
      "category": [
        "railway.tram_stop"
      ],
      "lat": 41.0267605,
      "lon": 28.9803334,
      "osm_id": 276948489,
      "osm_type": "node",
      "address": null,
      "road_geometry": null
    },
    {
      "name": "Weingart Hotel",
      "category": [
        "tourism.hotel"
      ],
      "lat": 41.0248728,
      "lon": 28.9779749,
      "osm_id": 1770234334,
      "osm_type": "node",
      "address": null,
      "road_geometry": null
    },
    {
      "name": "Unter",
      "category": [
        "amenity.bar"
      ],
      "lat": 41.0254323,
      "lon": 28.9789344,
      "osm_id": 2901379804,
      "osm_type": "node",
      "address": "Karaali Kaptan Sokak",
      "road_geometry": null
    },
    {
      "name": "Tophane",
      "category": [
        "railway.tram_stop"
      ],
      "lat": 41.0268005,
      "lon": 28.9802781,
      "osm_id": 3282412925,
      "osm_type": "node",
      "address": null,
      "road_geometry": null
    },
    {
      "name": "Coffy",
      "category": [
        "amenity.cafe"
      ],
      "lat": 41.0256363,
      "lon": 28.9802777,
      "osm_id": 3452097031,
      "osm_type": "node",
      "address": null,
      "road_geometry": null
    },
    {
      "name": "Burgerlab",
      "category": [
        "amenity.fast_food"
      ],
      "lat": 41.0255301,
      "lon": 28.9798266,
      "osm_id": 3453711783,
      "osm_type": "node",
      "address": null,
      "road_geometry": null
    },
    {
      "name": "Galata 1875 Suites",
      "category": [
        "tourism.hotel"
      ],
      "lat": 41.0264838,
      "lon": 28.9779849,
      "osm_id": 3780724830,
      "osm_type": "node",
      "address": "L\u00fcleci Hendek Soka\u011f\u0131",
      "road_geometry": null
    },
    {
      "name": "Sport city",
      "category": [
        "shop.sports"
      ],
      "lat": 41.0259799,
      "lon": 28.9782953,
      "osm_id": 4415225096,
      "osm_type": "node",
      "address": "Kemeralt\u0131 Caddesi",
      "road_geometry": null
    },
    {
      "name": "Nabu Karakoy",
      "category": [
        "amenity.restaurant"
      ],
      "lat": 41.025256,
      "lon": 28.9799279,
      "osm_id": 4713299358,
      "osm_type": "node",
      "address": "Murakip Sokak",
      "road_geometry": null
    },
    {
      "name": "Bey",
      "category": [
        "shop.clothes"
      ],
      "lat": 41.0258611,
      "lon": 28.980571,
      "osm_id": 5222809822,
      "osm_type": "node",
      "address": null,
      "road_geometry": null
    },
    {
      "name": "Tophane",
      "category": [
        "highway.bus_stop"
      ],
      "lat": 41.0267361,
      "lon": 28.9804571,
      "osm_id": 5493411821,
      "osm_type": "node",
      "address": null,
      "road_geometry": null
    },
    {
      "name": "Tophane",
      "category": [
        "highway.bus_stop"
      ],
      "lat": 41.0267886,
      "lon": 28.9798829,
      "osm_id": 5493980624,
      "osm_type": "node",
      "address": null,
      "road_geometry": null
    },
    {
      "name": "Moc Cafe",
      "category": [
        "amenity.cafe"
      ],
      "lat": 41.0261392,
      "lon": 28.9786441,
      "osm_id": 5799770855,
      "osm_type": "node",
      "address": null,
      "road_geometry": null
    },
    {
      "name": "Chez Moi",
      "category": [
        "amenity.restaurant"
      ],
      "lat": 41.0254144,
      "lon": 28.9800215,
      "osm_id": 6116261387,
      "osm_type": "node",
      "address": null,
      "road_geometry": null
    },
    {
      "name": "T\u00fcrkiye Finans",
      "category": [
        "amenity.bank"
      ],
      "lat": 41.026136,
      "lon": 28.9792516,
      "osm_id": 6389943485,
      "osm_type": "node",
      "address": null,
      "road_geometry": null
    },
    {
      "name": "Starbucks",
      "category": [
        "amenity.cafe"
      ],
      "lat": 41.0257575,
      "lon": 28.9804249,
      "osm_id": 6786026487,
      "osm_type": "node",
      "address": null,
      "road_geometry": null
    },
    {
      "name": "Lue karak\u00f6y",
      "category": [
        "amenity.restaurant"
      ],
      "lat": 41.025648,
      "lon": 28.9805011,
      "osm_id": 6829609286,
      "osm_type": "node",
      "address": null,
      "road_geometry": null
    },
    {
      "name": "Pa\u015fa K\u00f6fte Karak\u00f6y",
      "category": [
        "amenity.restaurant"
      ],
      "lat": 41.0258938,
      "lon": 28.9802662,
      "osm_id": 6850778888,
      "osm_type": "node",
      "address": null,
      "road_geometry": null
    },
    {
      "name": "Berlin line",
      "category": [
        "amenity.bar"
      ],
      "lat": 41.0251373,
      "lon": 28.9796485,
      "osm_id": 7175723268,
      "osm_type": "node",
      "address": null,
      "road_geometry": null
    },
    {
      "name": "TEB",
      "category": [
        "amenity.bank"
      ],
      "lat": 41.0250283,
      "lon": 28.9784042,
      "osm_id": 9045027717,
      "osm_type": "node",
      "address": null,
      "road_geometry": null
    },
    {
      "name": "Papel",
      "category": [
        "amenity.restaurant"
      ],
      "lat": 41.0255288,
      "lon": 28.9804748,
      "osm_id": 9221352280,
      "osm_type": "node",
      "address": null,
      "road_geometry": null
    },
    {
      "name": "Amelie",
      "category": [
        "amenity.cafe"
      ],
      "lat": 41.02553,
      "lon": 28.9808455,
      "osm_id": 9673774484,
      "osm_type": "node",
      "address": null,
      "road_geometry": null
    },
    {
      "name": "Nox",
      "category": [
        "amenity.bar"
      ],
      "lat": 41.0252079,
      "lon": 28.9795738,
      "osm_id": 11152361906,
      "osm_type": "node",
      "address": null,
      "road_geometry": null
    },
    {
      "name": "Koali",
      "category": [
        "amenity.restaurant"
      ],
      "lat": 41.0264507,
      "lon": 28.9783222,
      "osm_id": 11162825207,
      "osm_type": "node",
      "address": null,
      "road_geometry": null
    },
    {
      "name": "Costa Karak\u00f6y Hotel",
      "category": [
        "tourism.hotel"
      ],
      "lat": 41.0251554,
      "lon": 28.9785796,
      "osm_id": 11403687169,
      "osm_type": "node",
      "address": "Necatibey Caddesi",
      "road_geometry": null
    },
    {
      "name": "Ra'Fi",
      "category": [
        "amenity.cafe"
      ],
      "lat": 41.0254651,
      "lon": 28.9792379,
      "osm_id": 11968450328,
      "osm_type": "node",
      "address": null,
      "road_geometry": null
    },
    {
      "name": "Noa Pure",
      "category": [
        "shop.cosmetics"
      ],
      "lat": 41.0252933,
      "lon": 28.9796745,
      "osm_id": 12512834716,
      "osm_type": "node",
      "address": null,
      "road_geometry": null
    },
    {
      "name": "Ma Fish Wrap",
      "category": [
        "amenity.fast_food"
      ],
      "lat": 41.0253782,
      "lon": 28.9793528,
      "osm_id": 12512834717,
      "osm_type": "node",
      "address": null,
      "road_geometry": null
    },
    {
      "name": "Pera Port Lounge",
      "category": [
        "amenity.restaurant"
      ],
      "lat": 41.0258258,
      "lon": 28.979956,
      "osm_id": 12512834723,
      "osm_type": "node",
      "address": null,
      "road_geometry": null
    },
    {
      "name": "Poppy",
      "category": [
        "amenity.restaurant"
      ],
      "lat": 41.0259793,
      "lon": 28.9801324,
      "osm_id": 12512834724,
      "osm_type": "node",
      "address": null,
      "road_geometry": null
    },
    {
      "name": "Chuck",
      "category": [
        "amenity.fast_food"
      ],
      "lat": 41.0254902,
      "lon": 28.9800997,
      "osm_id": 12512834732,
      "osm_type": "node",
      "address": null,
      "road_geometry": null
    },
    {
      "name": "\u0130zmir I\u015fi",
      "category": [
        "amenity.fast_food"
      ],
      "lat": 41.0251181,
      "lon": 28.97947,
      "osm_id": 12512834745,
      "osm_type": "node",
      "address": null,
      "road_geometry": null
    },
    {
      "name": "Graffity Karak\u00f6y",
      "category": [
        "shop.optician"
      ],
      "lat": 41.0250301,
      "lon": 28.979349,
      "osm_id": 12512834747,
      "osm_type": "node",
      "address": null,
      "road_geometry": null
    },
    {
      "name": "Bonker's",
      "category": [
        "amenity.restaurant"
      ],
      "lat": 41.02489,
      "lon": 28.9793508,
      "osm_id": 12512834749,
      "osm_type": "node",
      "address": null,
      "road_geometry": null
    },
    {
      "name": "Assaggio",
      "category": [
        "amenity.fast_food"
      ],
      "lat": 41.0250594,
      "lon": 28.9787575,
      "osm_id": 12512834761,
      "osm_type": "node",
      "address": null,
      "road_geometry": null
    },
    {
      "name": "Swanky By Havali",
      "category": [
        "amenity.cafe"
      ],
      "lat": 41.0248958,
      "lon": 28.9786055,
      "osm_id": 12512834782,
      "osm_type": "node",
      "address": null,
      "road_geometry": null
    },
    {
      "name": "Prado's Pasta",
      "category": [
        "amenity.fast_food"
      ],
      "lat": 41.0249785,
      "lon": 28.9786794,
      "osm_id": 12512834783,
      "osm_type": "node",
      "address": null,
      "road_geometry": null
    }
  ],
  "refinement": {
    "original_poi_count": 91,
    "removed_count": 53,
    "model": "gemini-2.5-flash"
  }
}