{
  "image": "dataset/images/65.png",
  "center_lat": 48.858378378378376,
  "center_lon": 2.3401348030268316,
  "bbox": [
    2.338423202017888,
    48.85725225225225,
    2.341846404035776,
    48.85950450450451
  ],
  "unique_categories": [
    "amenity.hospital",
    "amenity.cafe",
    "highway.bus_stop",
    "shop.gift",
    "amenity.restaurant",
    "shop.antiques",
    "amenity.fast_food",
    "tourism.information"
  ],
  "poi_count_per_category": {
    "amenity.hospital": 1,
    "amenity.cafe": 1,
    "highway.bus_stop": 1,
    "shop.gift": 2,
    "amenity.restaurant": 1,
    "shop.antiques": 1,
    "amenity.fast_food": 1,
    "tourism.information": 1
  },
  "poi_count": 9,
  "pois": [
    {
      "name": "Pont des Arts",
      "category": [
        "highway.bus_stop"
      ],
      "lat": 48.8590803,
      "lon": 2.3385053,
      "osm_id": 2039206117,
      "osm_type": "node",
      "address": null,
      "road_geometry": null
    },
    {
      "name": "Art auction",
      "category": [
        "shop.antiques"
      ],
      "lat": 48.8593762,
      "lon": 2.3403098,
      "osm_id": 3396586045,
      "osm_type": "node",
      "address": null,
      "road_geometry": null
    },
    {
      "name": "Caf\u00e9 des Arts",
      "category": [
        "amenity.cafe"
      ],
      "lat": 48.859096,
      "lon": 2.3402013,
      "osm_id": 3396587307,
      "osm_type": "node",
      "address": null,
      "road_geometry": null
    },
    {
      "name": "Souvenir",
      "category": [
        "shop.gift"
      ],
      "lat": 48.8589001,
      "lon": 2.3411332,
      "osm_id": 5014754680,
      "osm_type": "node",
      "address": null,
      "road_geometry": null
    },
    {
      "name": "Cadeaux - Souvenirs",
      "category": [
        "shop.gift"
      ],
      "lat": 48.85904,
      "lon": 2.3404495,
      "osm_id": 5014845609,
      "osm_type": "node",
      "address": "Quai du Louvre",
      "road_geometry": null
    },
    {
      "name": "Luncha",
      "category": [
        "amenity.restaurant"
      ],
      "lat": 48.858872,
      "lon": 2.3413443,
      "osm_id": 5014845611,
      "osm_type": "node",
      "address": null,
      "road_geometry": null
    },
    {
      "name": "Coffee Cr\u00eapes",
      "category": [
        "amenity.fast_food"
      ],
      "lat": 48.8589549,
      "lon": 2.3408275,
      "osm_id": 5014847508,
      "osm_type": "node",
      "address": "Quai du Louvre",
      "road_geometry": null
    },
    {
      "name": "Square du Vert-Galant",
      "category": [
        "tourism.information"
      ],
      "lat": 48.8572551,
      "lon": 2.3406945,
      "osm_id": 8493135684,
      "osm_type": "node",
      "address": null,
      "road_geometry": null
    },
    {
      "name": "Clinique du Louvre",
      "category": [
        "amenity.hospital"
      ],
      "lat": 48.8592105,
      "lon": 2.3411286,
      "osm_id": 10594499020,
      "osm_type": "node",
      "address": "Rue des Pr\u00eatres Saint-Germain l'Auxerrois",
      "road_geometry": null
    }
  ],
  "refinement": {
    "original_poi_count": 23,
    "removed_count": 14,
    "model": "gemini-2.5-flash"
  }
}