{
  "image": "dataset/images/656.png",
  "center_lat": 19.42837837837838,
  "center_lon": -99.13425297848364,
  "bbox": [
    -99.13544709198545,
    19.427252252252252,
    -99.13305886498182,
    19.429504504504504
  ],
  "unique_categories": [
    "amenity.pharmacy",
    "tourism.hostel",
    "amenity.ice_cream",
    "shop.fabric",
    "shop.tailor",
    "amenity.cafe",
    "shop.convenience",
    "shop.stationery",
    "amenity.restaurant",
    "shop.clothes",
    "shop.beauty"
  ],
  "poi_count_per_category": {
    "amenity.pharmacy": 2,
    "tourism.hostel": 1,
    "amenity.ice_cream": 1,
    "shop.fabric": 1,
    "shop.tailor": 1,
    "amenity.cafe": 1,
    "shop.convenience": 2,
    "shop.stationery": 1,
    "amenity.restaurant": 3,
    "shop.clothes": 5,
    "shop.beauty": 2
  },
  "poi_count": 20,
  "pois": [
    {
      "name": "Farmacia Par\u00eds",
      "category": [
        "amenity.pharmacy"
      ],
      "lat": 19.4293127,
      "lon": -99.1349024,
      "osm_id": 5452303926,
      "osm_type": "node",
      "address": null,
      "road_geometry": null
    },
    {
      "name": "Pollos",
      "category": [
        "amenity.restaurant"
      ],
      "lat": 19.4277016,
      "lon": -99.1347664,
      "osm_id": 5509017063,
      "osm_type": "node",
      "address": null,
      "road_geometry": null
    },
    {
      "name": "Nutrisa",
      "category": [
        "amenity.ice_cream"
      ],
      "lat": 19.4274104,
      "lon": -99.1339193,
      "osm_id": 5509017065,
      "osm_type": "node",
      "address": null,
      "road_geometry": null
    },
    {
      "name": "Oxxo",
      "category": [
        "shop.convenience"
      ],
      "lat": 19.4275544,
      "lon": -99.1351241,
      "osm_id": 5509017077,
      "osm_type": "node",
      "address": null,
      "road_geometry": null
    },
    {
      "name": "Ava",
      "category": [
        "shop.clothes"
      ],
      "lat": 19.4275566,
      "lon": -99.1336373,
      "osm_id": 5509017106,
      "osm_type": "node",
      "address": null,
      "road_geometry": null
    },
    {
      "name": "Mini Bodegas Plaza",
      "category": [
        "shop.convenience"
      ],
      "lat": 19.4274629,
      "lon": -99.1343581,
      "osm_id": 5509017120,
      "osm_type": "node",
      "address": null,
      "road_geometry": null
    },
    {
      "name": "Salon Mezquite",
      "category": [
        "shop.beauty"
      ],
      "lat": 19.4277687,
      "lon": -99.1352891,
      "osm_id": 5509017232,
      "osm_type": "node",
      "address": null,
      "road_geometry": null
    },
    {
      "name": "Liz minelli",
      "category": [
        "shop.clothes"
      ],
      "lat": 19.4275871,
      "lon": -99.1338747,
      "osm_id": 5509017249,
      "osm_type": "node",
      "address": null,
      "road_geometry": null
    },
    {
      "name": "Janine",
      "category": [
        "shop.clothes"
      ],
      "lat": 19.427626,
      "lon": -99.1341777,
      "osm_id": 5509017288,
      "osm_type": "node",
      "address": null,
      "road_geometry": null
    },
    {
      "name": "Kefre",
      "category": [
        "shop.clothes"
      ],
      "lat": 19.4274832,
      "lon": -99.133065,
      "osm_id": 5509017291,
      "osm_type": "node",
      "address": null,
      "road_geometry": null
    },
    {
      "name": "Mark Taylor Uniforms",
      "category": [
        "shop.tailor"
      ],
      "lat": 19.4273477,
      "lon": -99.1333946,
      "osm_id": 5509017301,
      "osm_type": "node",
      "address": null,
      "road_geometry": null
    },
    {
      "name": "Hilos Perfectos",
      "category": [
        "shop.fabric"
      ],
      "lat": 19.4275123,
      "lon": -99.134772,
      "osm_id": 5509017311,
      "osm_type": "node",
      "address": null,
      "road_geometry": null
    },
    {
      "name": "Papeleria SEP",
      "category": [
        "shop.stationery"
      ],
      "lat": 19.4273767,
      "lon": -99.1336374,
      "osm_id": 5509017313,
      "osm_type": "node",
      "address": null,
      "road_geometry": null
    },
    {
      "name": "Gom",
      "category": [
        "amenity.pharmacy"
      ],
      "lat": 19.4275385,
      "lon": -99.134991,
      "osm_id": 5509017423,
      "osm_type": "node",
      "address": null,
      "road_geometry": null
    },
    {
      "name": "Treze",
      "category": [
        "shop.clothes"
      ],
      "lat": 19.4273186,
      "lon": -99.1331516,
      "osm_id": 5509017428,
      "osm_type": "node",
      "address": null,
      "road_geometry": null
    },
    {
      "name": "Estetica",
      "category": [
        "shop.beauty"
      ],
      "lat": 19.427672,
      "lon": -99.1345356,
      "osm_id": 5509017436,
      "osm_type": "node",
      "address": null,
      "road_geometry": null
    },
    {
      "name": "La Burra Blanca",
      "category": [
        "amenity.cafe"
      ],
      "lat": 19.4275021,
      "lon": -99.1332127,
      "osm_id": 5840035311,
      "osm_type": "node",
      "address": null,
      "road_geometry": null
    },
    {
      "name": "Elkar",
      "category": [
        "amenity.restaurant"
      ],
      "lat": 19.4277195,
      "lon": -99.1349402,
      "osm_id": 6366212885,
      "osm_type": "node",
      "address": null,
      "road_geometry": null
    },
    {
      "name": "Elkar Pollo",
      "category": [
        "amenity.restaurant"
      ],
      "lat": 19.4291319,
      "lon": -99.1349159,
      "osm_id": 8840581917,
      "osm_type": "node",
      "address": null,
      "road_geometry": null
    },
    {
      "name": "Apapacho Hostel",
      "category": [
        "tourism.hostel"
      ],
      "lat": 19.4287426,
      "lon": -99.1349627,
      "osm_id": 12467358801,
      "osm_type": "node",
      "address": "Calle 5 de Febrero",
      "road_geometry": null
    }
  ],
  "refinement": {
    "original_poi_count": 52,
    "removed_count": 32,
    "model": "gemini-2.5-flash"
  }
}