{
  "image": "dataset/images/659.png",
  "center_lat": 19.42837837837838,
  "center_lon": -99.12708829747274,
  "bbox": [
    -99.12828241097455,
    19.427252252252252,
    -99.12589418397091,
    19.429504504504504
  ],
  "unique_categories": [
    "shop.fabric",
    "highway.bus_stop",
    "shop.convenience",
    "shop.stationery",
    "shop.mall"
  ],
  "poi_count_per_category": {
    "shop.fabric": 1,
    "highway.bus_stop": 1,
    "shop.convenience": 1,
    "shop.stationery": 1,
    "shop.mall": 1
  },
  "poi_count": 5,
  "pois": [
    {
      "name": "Circunvalaci\u00f3n",
      "category": [
        "highway.bus_stop"
      ],
      "lat": 19.4282687,
      "lon": -99.1259566,
      "osm_id": 4208310489,
      "osm_type": "node",
      "address": null,
      "road_geometry": null
    },
    {
      "name": "Jarcieria la Lomita Montes",
      "category": [
        "shop.fabric"
      ],
      "lat": 19.4273358,
      "lon": -99.1279516,
      "osm_id": 5509017059,
      "osm_type": "node",
      "address": null,
      "road_geometry": null
    },
    {
      "name": "Puestos De Papeleria",
      "category": [
        "shop.stationery"
      ],
      "lat": 19.4276119,
      "lon": -99.1279147,
      "osm_id": 5509017228,
      "osm_type": "node",
      "address": null,
      "road_geometry": null
    },
    {
      "name": "Abarrotes La Union",
      "category": [
        "shop.convenience"
      ],
      "lat": 19.4274457,
      "lon": -99.1279369,
      "osm_id": 5509017306,
      "osm_type": "node",
      "address": null,
      "road_geometry": null
    },
    {
      "name": "Plaza de la Belleza Popular",
      "category": [
        "shop.mall"
      ],
      "lat": 19.4291845,
      "lon": -99.1279068,
      "osm_id": 11767207675,
      "osm_type": "node",
      "address": null,
      "road_geometry": null
    }
  ],
  "refinement": {
    "original_poi_count": 16,
    "removed_count": 11,
    "model": "gemini-2.5-flash"
  }
}