{
  "image": "dataset/images/672.png",
  "center_lat": 19.432882882882883,
  "center_lon": -99.13902926691622,
  "bbox": [
    -99.14022341353298,
    19.431756756756755,
    -99.13783512029947,
    19.434009009009007
  ],
  "unique_categories": [
    "shop.shoes",
    "amenity.cafe",
    "shop.bakery",
    "shop.convenience",
    "amenity.restaurant",
    "amenity.bicycle_rental",
    "amenity.fast_food",
    "tourism.hotel",
    "shop.beauty"
  ],
  "poi_count_per_category": {
    "shop.shoes": 2,
    "amenity.cafe": 1,
    "shop.bakery": 2,
    "shop.convenience": 1,
    "amenity.restaurant": 5,
    "amenity.bicycle_rental": 1,
    "amenity.fast_food": 2,
    "tourism.hotel": 1,
    "shop.beauty": 1
  },
  "poi_count": 16,
  "pois": [
    {
      "name": "Burger King",
      "category": [
        "amenity.fast_food"
      ],
      "lat": 19.4336182,
      "lon": -99.1384532,
      "osm_id": 2409358343,
      "osm_type": "node",
      "address": null,
      "road_geometry": null
    },
    {
      "name": "Ecobici Gante / Venustiano Carranza",
      "category": [
        "amenity.bicycle_rental"
      ],
      "lat": 19.4321164,
      "lon": -99.1396815,
      "osm_id": 2812612862,
      "osm_type": "node",
      "address": null,
      "road_geometry": null
    },
    {
      "name": "Oxxo",
      "category": [
        "shop.convenience"
      ],
      "lat": 19.4323436,
      "lon": -99.1381271,
      "osm_id": 4156700094,
      "osm_type": "node",
      "address": null,
      "road_geometry": null
    },
    {
      "name": "Aldo",
      "category": [
        "shop.shoes"
      ],
      "lat": 19.4336639,
      "lon": -99.138238,
      "osm_id": 4156700292,
      "osm_type": "node",
      "address": null,
      "road_geometry": null
    },
    {
      "name": "Mishka Perfumer\u00eda",
      "category": [
        "shop.beauty"
      ],
      "lat": 19.4338312,
      "lon": -99.1380287,
      "osm_id": 4156700293,
      "osm_type": "node",
      "address": null,
      "road_geometry": null
    },
    {
      "name": "Aldo",
      "category": [
        "shop.shoes"
      ],
      "lat": 19.4325951,
      "lon": -99.1386554,
      "osm_id": 4156700299,
      "osm_type": "node",
      "address": null,
      "road_geometry": null
    },
    {
      "name": "Casa Churra",
      "category": [
        "amenity.fast_food"
      ],
      "lat": 19.4326801,
      "lon": -99.1391907,
      "osm_id": 4156700300,
      "osm_type": "node",
      "address": null,
      "road_geometry": null
    },
    {
      "name": "El Globo",
      "category": [
        "shop.bakery"
      ],
      "lat": 19.4327921,
      "lon": -99.1400768,
      "osm_id": 4156700301,
      "osm_type": "node",
      "address": null,
      "road_geometry": null
    },
    {
      "name": "Cielito Querido Caf\u00e9",
      "category": [
        "amenity.cafe"
      ],
      "lat": 19.4329179,
      "lon": -99.14014,
      "osm_id": 4156725718,
      "osm_type": "node",
      "address": null,
      "road_geometry": null
    },
    {
      "name": "Salon Corona",
      "category": [
        "amenity.restaurant"
      ],
      "lat": 19.4338866,
      "lon": -99.1396769,
      "osm_id": 5054358621,
      "osm_type": "node",
      "address": null,
      "road_geometry": null
    },
    {
      "name": "Pasteler\u00eda Ideal",
      "category": [
        "shop.bakery"
      ],
      "lat": 19.4327582,
      "lon": -99.139848,
      "osm_id": 6051481787,
      "osm_type": "node",
      "address": "16 de Septiembre",
      "road_geometry": null
    },
    {
      "name": "La casa de To\u00f1o",
      "category": [
        "amenity.restaurant"
      ],
      "lat": 19.4339642,
      "lon": -99.1388821,
      "osm_id": 6141363561,
      "osm_type": "node",
      "address": null,
      "road_geometry": null
    },
    {
      "name": "Casa 19",
      "category": [
        "amenity.restaurant"
      ],
      "lat": 19.4318006,
      "lon": -99.1401349,
      "osm_id": 6315283444,
      "osm_type": "node",
      "address": null,
      "road_geometry": null
    },
    {
      "name": "Terraza Don Batiz",
      "category": [
        "amenity.restaurant"
      ],
      "lat": 19.4337061,
      "lon": -99.1386512,
      "osm_id": 6806753686,
      "osm_type": "node",
      "address": null,
      "road_geometry": null
    },
    {
      "name": "Gffjv",
      "category": [
        "amenity.restaurant"
      ],
      "lat": 19.4336882,
      "lon": -99.1388701,
      "osm_id": 6846683585,
      "osm_type": "node",
      "address": null,
      "road_geometry": null
    },
    {
      "name": "Hotel Principal",
      "category": [
        "tourism.hotel"
      ],
      "lat": 19.4329089,
      "lon": -99.1385759,
      "osm_id": 7984727760,
      "osm_type": "node",
      "address": "Calle Sim\u00f3n Bol\u00edvar",
      "road_geometry": null
    }
  ],
  "refinement": {
    "original_poi_count": 31,
    "removed_count": 15,
    "model": "gemini-2.5-flash"
  }
}