{
  "image": "dataset/images/673.png",
  "center_lat": 19.432882882882883,
  "center_lon": -99.13664097368272,
  "bbox": [
    -99.13783512029947,
    19.431756756756755,
    -99.13544682706596,
    19.434009009009007
  ],
  "unique_categories": [
    "amenity.atm",
    "shop.hardware",
    "amenity.cafe",
    "shop.perfumery",
    "shop.jewelry",
    "amenity.restaurant",
    "amenity.bar",
    "amenity.bank",
    "shop.clothes",
    "shop.books",
    "shop.mobile_phone",
    "amenity.fast_food",
    "tourism.artwork",
    "shop.department_store",
    "tourism.attraction"
  ],
  "poi_count_per_category": {
    "amenity.atm": 1,
    "shop.hardware": 1,
    "amenity.cafe": 4,
    "shop.perfumery": 1,
    "shop.jewelry": 1,
    "amenity.restaurant": 8,
    "amenity.bar": 3,
    "amenity.bank": 1,
    "shop.clothes": 3,
    "shop.books": 1,
    "shop.mobile_phone": 1,
    "amenity.fast_food": 2,
    "tourism.artwork": 1,
    "shop.department_store": 1,
    "tourism.attraction": 1
  },
  "poi_count": 30,
  "pois": [
    {
      "name": "Scotiabank",
      "category": [
        "amenity.bank"
      ],
      "lat": 19.4331215,
      "lon": -99.136194,
      "osm_id": 1707410211,
      "osm_type": "node",
      "address": null,
      "road_geometry": null
    },
    {
      "name": "Starbucks",
      "category": [
        "amenity.cafe"
      ],
      "lat": 19.4336727,
      "lon": -99.136787,
      "osm_id": 4081638496,
      "osm_type": "node",
      "address": null,
      "road_geometry": null
    },
    {
      "name": "Pirates Burgers",
      "category": [
        "amenity.fast_food"
      ],
      "lat": 19.4321474,
      "lon": -99.1367703,
      "osm_id": 4156700297,
      "osm_type": "node",
      "address": null,
      "road_geometry": null
    },
    {
      "name": "Banorte",
      "category": [
        "amenity.atm"
      ],
      "lat": 19.4321749,
      "lon": -99.1369564,
      "osm_id": 4156712591,
      "osm_type": "node",
      "address": null,
      "road_geometry": null
    },
    {
      "name": "Restaurante Vegetariano Terra Nostre",
      "category": [
        "amenity.restaurant"
      ],
      "lat": 19.4330489,
      "lon": -99.137451,
      "osm_id": 4158566492,
      "osm_type": "node",
      "address": null,
      "road_geometry": null
    },
    {
      "name": "La Isla del drag\u00f3n",
      "category": [
        "amenity.restaurant"
      ],
      "lat": 19.4329286,
      "lon": -99.1372938,
      "osm_id": 4158566593,
      "osm_type": "node",
      "address": null,
      "road_geometry": null
    },
    {
      "name": "Casa Boker",
      "category": [
        "shop.hardware"
      ],
      "lat": 19.4323884,
      "lon": -99.1368619,
      "osm_id": 4335676090,
      "osm_type": "node",
      "address": "16 de Septiembre",
      "road_geometry": null
    },
    {
      "name": "Helados Santa Clara",
      "category": [
        "amenity.cafe"
      ],
      "lat": 19.4335422,
      "lon": -99.1374793,
      "osm_id": 4335676893,
      "osm_type": "node",
      "address": "Francisco I. Madero",
      "road_geometry": null
    },
    {
      "name": "Helados Santa Clara",
      "category": [
        "amenity.cafe"
      ],
      "lat": 19.4321776,
      "lon": -99.1370059,
      "osm_id": 4335707493,
      "osm_type": "node",
      "address": "16 de Septiembre",
      "road_geometry": null
    },
    {
      "name": "Vips",
      "category": [
        "amenity.restaurant"
      ],
      "lat": 19.4334147,
      "lon": -99.1365647,
      "osm_id": 4345144789,
      "osm_type": "node",
      "address": null,
      "road_geometry": null
    },
    {
      "name": "Vips",
      "category": [
        "amenity.restaurant"
      ],
      "lat": 19.4334977,
      "lon": -99.1358757,
      "osm_id": 4345144989,
      "osm_type": "node",
      "address": null,
      "road_geometry": null
    },
    {
      "name": "Centro del Reloj",
      "category": [
        "shop.jewelry"
      ],
      "lat": 19.432483,
      "lon": -99.1354576,
      "osm_id": 4345299489,
      "osm_type": "node",
      "address": "Palma",
      "road_geometry": null
    },
    {
      "name": "Azul Hist\u00f3rico",
      "category": [
        "amenity.restaurant"
      ],
      "lat": 19.4328886,
      "lon": -99.136196,
      "osm_id": 4524776489,
      "osm_type": "node",
      "address": null,
      "road_geometry": null
    },
    {
      "name": "Zara",
      "category": [
        "shop.clothes"
      ],
      "lat": 19.4336271,
      "lon": -99.1361543,
      "osm_id": 4579197391,
      "osm_type": "node",
      "address": null,
      "road_geometry": null
    },
    {
      "name": "McDonald's",
      "category": [
        "amenity.fast_food"
      ],
      "lat": 19.433496,
      "lon": -99.1372063,
      "osm_id": 4780024021,
      "osm_type": "node",
      "address": "Francisco I. Madero",
      "road_geometry": null
    },
    {
      "name": "Gandhi",
      "category": [
        "shop.books"
      ],
      "lat": 19.4338074,
      "lon": -99.1376707,
      "osm_id": 5187629371,
      "osm_type": "node",
      "address": null,
      "road_geometry": null
    },
    {
      "name": "Nonsolo",
      "category": [
        "amenity.bar"
      ],
      "lat": 19.4327968,
      "lon": -99.137483,
      "osm_id": 5264926321,
      "osm_type": "node",
      "address": null,
      "road_geometry": null
    },
    {
      "name": "Hilaria Gastrobar",
      "category": [
        "amenity.bar"
      ],
      "lat": 19.4332544,
      "lon": -99.1356127,
      "osm_id": 5329453821,
      "osm_type": "node",
      "address": "Calle Francisco I. Madero",
      "road_geometry": null
    },
    {
      "name": "Pata Negra",
      "category": [
        "amenity.bar"
      ],
      "lat": 19.4340038,
      "lon": -99.1355046,
      "osm_id": 5618803121,
      "osm_type": "node",
      "address": "5 de Mayo",
      "road_geometry": null
    },
    {
      "name": "Movistar",
      "category": [
        "shop.mobile_phone"
      ],
      "lat": 19.4331735,
      "lon": -99.1372571,
      "osm_id": 5623518525,
      "osm_type": "node",
      "address": null,
      "road_geometry": null
    },
    {
      "name": "Calle Madero",
      "category": [
        "tourism.attraction"
      ],
      "lat": 19.4334111,
      "lon": -99.1358477,
      "osm_id": 6081141093,
      "osm_type": "node",
      "address": null,
      "road_geometry": null
    },
    {
      "name": "Sanborns",
      "category": [
        "shop.department_store"
      ],
      "lat": 19.4323465,
      "lon": -99.1365446,
      "osm_id": 6332252046,
      "osm_type": "node",
      "address": null,
      "road_geometry": null
    },
    {
      "name": "Los Vegetarianos",
      "category": [
        "amenity.restaurant"
      ],
      "lat": 19.4335249,
      "lon": -99.1356727,
      "osm_id": 7715974485,
      "osm_type": "node",
      "address": null,
      "road_geometry": null
    },
    {
      "name": "Arte callejero",
      "category": [
        "tourism.artwork"
      ],
      "lat": 19.4337657,
      "lon": -99.1374988,
      "osm_id": 8235927317,
      "osm_type": "node",
      "address": null,
      "road_geometry": null
    },
    {
      "name": "Vips",
      "category": [
        "amenity.restaurant"
      ],
      "lat": 19.433758,
      "lon": -99.1377996,
      "osm_id": 8665030241,
      "osm_type": "node",
      "address": null,
      "road_geometry": null
    },
    {
      "name": "Comfort",
      "category": [
        "shop.clothes"
      ],
      "lat": 19.4323136,
      "lon": -99.1363336,
      "osm_id": 10069621217,
      "osm_type": "node",
      "address": "Calle Isabel la Cat\u00f3lica",
      "road_geometry": null
    },
    {
      "name": "Fraiche",
      "category": [
        "shop.perfumery"
      ],
      "lat": 19.4324472,
      "lon": -99.1371075,
      "osm_id": 10069621317,
      "osm_type": "node",
      "address": "16 de Septiembre",
      "road_geometry": null
    },
    {
      "name": "Loncher\u00eda La Rambla",
      "category": [
        "amenity.restaurant"
      ],
      "lat": 19.4328526,
      "lon": -99.1373136,
      "osm_id": 10978461713,
      "osm_type": "node",
      "address": null,
      "road_geometry": null
    },
    {
      "name": "Caf\u00e9 Emir",
      "category": [
        "amenity.cafe"
      ],
      "lat": 19.4327485,
      "lon": -99.1373393,
      "osm_id": 11788931084,
      "osm_type": "node",
      "address": null,
      "road_geometry": null
    },
    {
      "name": "Nike Factory Store",
      "category": [
        "shop.clothes"
      ],
      "lat": 19.43202,
      "lon": -99.1355167,
      "osm_id": 13059401237,
      "osm_type": "node",
      "address": null,
      "road_geometry": null
    }
  ],
  "refinement": {
    "original_poi_count": 42,
    "removed_count": 12,
    "model": "gemini-2.5-flash"
  }
}