{
  "image": "dataset/images/685.png",
  "center_lat": 19.435135135135134,
  "center_lon": -99.12947587869016,
  "bbox": [
    -99.13067004186784,
    19.434009009009007,
    -99.12828171551249,
    19.436261261261258
  ],
  "unique_categories": [
    "tourism.hotel",
    "amenity.bank",
    "amenity.cafe",
    "shop.books"
  ],
  "poi_count_per_category": {
    "tourism.hotel": 1,
    "amenity.bank": 1,
    "amenity.cafe": 1,
    "shop.books": 2
  },
  "poi_count": 5,
  "pois": [
    {
      "name": "Hotel Templo Mayor",
      "category": [
        "tourism.hotel"
      ],
      "lat": 19.4361914,
      "lon": -99.1297162,
      "osm_id": 4687361079,
      "osm_type": "node",
      "address": null,
      "road_geometry": null
    },
    {
      "name": "Nacional Monte de Piedad",
      "category": [
        "amenity.bank"
      ],
      "lat": 19.4355499,
      "lon": -99.129464,
      "osm_id": 5622804005,
      "osm_type": "node",
      "address": null,
      "road_geometry": null
    },
    {
      "name": "Pepita Cafe",
      "category": [
        "amenity.cafe"
      ],
      "lat": 19.4354728,
      "lon": -99.1305206,
      "osm_id": 11757237430,
      "osm_type": "node",
      "address": null,
      "road_geometry": null
    },
    {
      "name": "La feria del libro",
      "category": [
        "shop.books"
      ],
      "lat": 19.4354421,
      "lon": -99.1303257,
      "osm_id": 11926923383,
      "osm_type": "node",
      "address": null,
      "road_geometry": null
    },
    {
      "name": "Porr\u00faa",
      "category": [
        "shop.books"
      ],
      "lat": 19.4355981,
      "lon": -99.1300817,
      "osm_id": 11926924933,
      "osm_type": "node",
      "address": null,
      "road_geometry": null
    }
  ],
  "refinement": {
    "original_poi_count": 8,
    "removed_count": 3,
    "model": "gemini-2.5-flash"
  }
}