{
  "image": "dataset/images/691.png",
  "center_lat": 19.437387387387385,
  "center_lon": -99.1366407418136,
  "bbox": [
    -99.13783492155451,
    19.436261261261258,
    -99.13544656207269,
    19.43851351351351
  ],
  "unique_categories": [
    "amenity.pub",
    "shop.hairdresser",
    "amenity.restaurant",
    "amenity.bar",
    "tourism.hotel"
  ],
  "poi_count_per_category": {
    "amenity.pub": 1,
    "shop.hairdresser": 1,
    "amenity.restaurant": 1,
    "amenity.bar": 1,
    "tourism.hotel": 2
  },
  "poi_count": 6,
  "pois": [
    {
      "name": "Hotel Atlanta",
      "category": [
        "tourism.hotel"
      ],
      "lat": 19.4380782,
      "lon": -99.1374738,
      "osm_id": 4154582995,
      "osm_type": "node",
      "address": null,
      "road_geometry": null
    },
    {
      "name": "R\u00edo de la Plata",
      "category": [
        "amenity.bar"
      ],
      "lat": 19.4372791,
      "lon": -99.1376782,
      "osm_id": 4160316090,
      "osm_type": "node",
      "address": null,
      "road_geometry": null
    },
    {
      "name": "La Dominica",
      "category": [
        "amenity.pub"
      ],
      "lat": 19.4378521,
      "lon": -99.135497,
      "osm_id": 4173294590,
      "osm_type": "node",
      "address": null,
      "road_geometry": null
    },
    {
      "name": "F Hotel",
      "category": [
        "tourism.hotel"
      ],
      "lat": 19.4378477,
      "lon": -99.1359774,
      "osm_id": 4173294690,
      "osm_type": "node",
      "address": null,
      "road_geometry": null
    },
    {
      "name": "UTA Pizzer\u00eda",
      "category": [
        "amenity.restaurant"
      ],
      "lat": 19.4363457,
      "lon": -99.1356764,
      "osm_id": 4181864726,
      "osm_type": "node",
      "address": "Calle Donceles",
      "road_geometry": null
    },
    {
      "name": "Peluquer\u00eda New York",
      "category": [
        "shop.hairdresser"
      ],
      "lat": 19.4371314,
      "lon": -99.1366751,
      "osm_id": 6960857885,
      "osm_type": "node",
      "address": null,
      "road_geometry": null
    }
  ],
  "refinement": {
    "original_poi_count": 15,
    "removed_count": 9,
    "model": "gemini-2.5-flash"
  }
}