{
  "image": "dataset/images/70.png",
  "center_lat": 48.86063063063063,
  "center_lon": 2.336711678024126,
  "bbox": [
    2.335,
    48.85950450450451,
    2.338423356048252,
    48.86175675675676
  ],
  "unique_categories": [
    "amenity.cafe",
    "tourism.artwork"
  ],
  "poi_count_per_category": {
    "amenity.cafe": 2,
    "tourism.artwork": 2
  },
  "poi_count": 4,
  "pois": [
    {
      "name": "Le Caf\u00e9 Marly",
      "category": [
        "amenity.cafe"
      ],
      "lat": 48.8616428,
      "lon": 2.3359304,
      "osm_id": 247455918,
      "osm_type": "node",
      "address": "Rue de Rivoli",
      "road_geometry": null
    },
    {
      "name": "Le Travail manuel",
      "category": [
        "tourism.artwork"
      ],
      "lat": 48.860185,
      "lon": 2.3366597,
      "osm_id": 11263923669,
      "osm_type": "node",
      "address": null,
      "road_geometry": null
    },
    {
      "name": "L'Art",
      "category": [
        "tourism.artwork"
      ],
      "lat": 48.8602432,
      "lon": 2.3364265,
      "osm_id": 11263923670,
      "osm_type": "node",
      "address": null,
      "road_geometry": null
    },
    {
      "name": "Starbucks",
      "category": [
        "amenity.cafe"
      ],
      "lat": 48.8613349,
      "lon": 2.3358204,
      "osm_id": 11586192760,
      "osm_type": "node",
      "address": null,
      "road_geometry": null
    }
  ],
  "refinement": {
    "original_poi_count": 7,
    "removed_count": 3,
    "model": "gemini-2.5-flash"
  }
}