{
  "image": "dataset/images/739.png",
  "center_lat": 40.80112612612612,
  "center_lon": -73.96875983736997,
  "bbox": [
    -73.97024746416187,
    40.8,
    -73.96727221057806,
    40.80225225225225
  ],
  "unique_categories": [
    "amenity.atm",
    "amenity.place_of_worship",
    "highway.bus_stop",
    "shop.convenience",
    "amenity.restaurant",
    "amenity.bar",
    "amenity.bank",
    "shop.mobile_phone",
    "shop.hairdresser",
    "amenity.bicycle_rental",
    "shop.optician",
    "tourism.artwork",
    "shop.massage",
    "shop.beauty"
  ],
  "poi_count_per_category": {
    "amenity.atm": 1,
    "amenity.place_of_worship": 1,
    "highway.bus_stop": 4,
    "shop.convenience": 2,
    "amenity.restaurant": 5,
    "amenity.bar": 2,
    "amenity.bank": 1,
    "shop.mobile_phone": 1,
    "shop.hairdresser": 2,
    "amenity.bicycle_rental": 1,
    "shop.optician": 1,
    "tourism.artwork": 1,
    "shop.massage": 1,
    "shop.beauty": 1
  },
  "poi_count": 24,
  "pois": [
    {
      "name": "New York Buddhist Church",
      "category": [
        "amenity.place_of_worship"
      ],
      "lat": 40.8016539,
      "lon": -73.9701238,
      "osm_id": 357620590,
      "osm_type": "node",
      "address": null,
      "road_geometry": null
    },
    {
      "name": "West 106th Street & Broadway",
      "category": [
        "highway.bus_stop"
      ],
      "lat": 40.8013407,
      "lon": -73.9675843,
      "osm_id": 2226852778,
      "osm_type": "node",
      "address": null,
      "road_geometry": null
    },
    {
      "name": "LaserAway",
      "category": [
        "shop.beauty"
      ],
      "lat": 40.8022129,
      "lon": -73.9674641,
      "osm_id": 2279017950,
      "osm_type": "node",
      "address": "Broadway",
      "road_geometry": null
    },
    {
      "name": "Bank of America",
      "category": [
        "amenity.bank"
      ],
      "lat": 40.8019529,
      "lon": -73.9675069,
      "osm_id": 2279017952,
      "osm_type": "node",
      "address": "Broadway",
      "road_geometry": null
    },
    {
      "name": "Bank of America",
      "category": [
        "amenity.atm"
      ],
      "lat": 40.8019491,
      "lon": -73.9675075,
      "osm_id": 2279017960,
      "osm_type": "node",
      "address": null,
      "road_geometry": null
    },
    {
      "name": "Six Corners Marketplace",
      "category": [
        "shop.convenience"
      ],
      "lat": 40.8012852,
      "lon": -73.9681784,
      "osm_id": 2312065740,
      "osm_type": "node",
      "address": "Broadway",
      "road_geometry": null
    },
    {
      "name": "Smoke Jazz & Supper Club",
      "category": [
        "amenity.restaurant"
      ],
      "lat": 40.8011187,
      "lon": -73.9682057,
      "osm_id": 2312065757,
      "osm_type": "node",
      "address": "Broadway",
      "road_geometry": null
    },
    {
      "name": "The Ellington",
      "category": [
        "amenity.restaurant"
      ],
      "lat": 40.8008613,
      "lon": -73.9682637,
      "osm_id": 2384892236,
      "osm_type": "node",
      "address": "Broadway",
      "road_geometry": null
    },
    {
      "name": "Tap a Keg",
      "category": [
        "amenity.bar"
      ],
      "lat": 40.800303,
      "lon": -73.9683394,
      "osm_id": 2384892242,
      "osm_type": "node",
      "address": "Broadway",
      "road_geometry": null
    },
    {
      "name": "Serafina",
      "category": [
        "amenity.restaurant"
      ],
      "lat": 40.800492,
      "lon": -73.9682823,
      "osm_id": 2384892243,
      "osm_type": "node",
      "address": "Broadway",
      "road_geometry": null
    },
    {
      "name": "Caf\u00e9 du Soleil",
      "category": [
        "amenity.restaurant"
      ],
      "lat": 40.8000965,
      "lon": -73.9683967,
      "osm_id": 2761533833,
      "osm_type": "node",
      "address": "Broadway",
      "road_geometry": null
    },
    {
      "name": "AT&T",
      "category": [
        "shop.mobile_phone"
      ],
      "lat": 40.8001802,
      "lon": -73.9683663,
      "osm_id": 2761533868,
      "osm_type": "node",
      "address": "Broadway",
      "road_geometry": null
    },
    {
      "name": "Convenience Grocery",
      "category": [
        "shop.convenience"
      ],
      "lat": 40.8001826,
      "lon": -73.9677493,
      "osm_id": 2761533879,
      "osm_type": "node",
      "address": "Broadway",
      "road_geometry": null
    },
    {
      "name": "Classic Scissors II",
      "category": [
        "shop.hairdresser"
      ],
      "lat": 40.8008675,
      "lon": -73.9676376,
      "osm_id": 2761564515,
      "osm_type": "node",
      "address": "Broadway",
      "road_geometry": null
    },
    {
      "name": "Columns Wine Bar",
      "category": [
        "amenity.bar"
      ],
      "lat": 40.8009462,
      "lon": -73.9676253,
      "osm_id": 2761564519,
      "osm_type": "node",
      "address": "Broadway",
      "road_geometry": null
    },
    {
      "name": "Broadway / 106th St",
      "category": [
        "highway.bus_stop"
      ],
      "lat": 40.8010783,
      "lon": -73.9681125,
      "osm_id": 3271250922,
      "osm_type": "node",
      "address": null,
      "road_geometry": null
    },
    {
      "name": "Broadway / W 105th St",
      "category": [
        "highway.bus_stop"
      ],
      "lat": 40.8015504,
      "lon": -73.9676666,
      "osm_id": 3271250923,
      "osm_type": "node",
      "address": null,
      "road_geometry": null
    },
    {
      "name": "Citi Bike - West End Ave & W 107 St",
      "category": [
        "amenity.bicycle_rental"
      ],
      "lat": 40.8022377,
      "lon": -73.9681178,
      "osm_id": 6086883839,
      "osm_type": "node",
      "address": null,
      "road_geometry": null
    },
    {
      "name": "Broadway & West 106th Street",
      "category": [
        "highway.bus_stop"
      ],
      "lat": 40.8017413,
      "lon": -73.9676562,
      "osm_id": 8703182173,
      "osm_type": "node",
      "address": null,
      "road_geometry": null
    },
    {
      "name": "LensCrafters",
      "category": [
        "shop.optician"
      ],
      "lat": 40.8017491,
      "lon": -73.9675534,
      "osm_id": 11411597871,
      "osm_type": "node",
      "address": "Broadway",
      "road_geometry": null
    },
    {
      "name": "Koko Wings",
      "category": [
        "amenity.restaurant"
      ],
      "lat": 40.8009562,
      "lon": -73.9673468,
      "osm_id": 11411614762,
      "osm_type": "node",
      "address": "West 106th Street",
      "road_geometry": null
    },
    {
      "name": "Long Teng Massage",
      "category": [
        "shop.massage"
      ],
      "lat": 40.80048,
      "lon": -73.9676178,
      "osm_id": 11414262371,
      "osm_type": "node",
      "address": "West 105th Street",
      "road_geometry": null
    },
    {
      "name": "Straus Monument",
      "category": [
        "tourism.artwork"
      ],
      "lat": 40.8017383,
      "lon": -73.9682178,
      "osm_id": 11810089111,
      "osm_type": "node",
      "address": null,
      "road_geometry": null
    },
    {
      "name": "Nafilino Beauty Salon",
      "category": [
        "shop.hairdresser"
      ],
      "lat": 40.8006453,
      "lon": -73.9676005,
      "osm_id": 12646048268,
      "osm_type": "node",
      "address": "Broadway",
      "road_geometry": null
    }
  ],
  "refinement": {
    "original_poi_count": 41,
    "removed_count": 17,
    "model": "gemini-2.5-flash"
  }
}