{
  "image": "dataset/images/74.png",
  "center_lat": 48.86063063063063,
  "center_lon": 2.3504051022171337,
  "bbox": [
    2.3486934241930078,
    48.85950450450451,
    2.3521167802412597,
    48.86175675675676
  ],
  "unique_categories": [
    "amenity.college",
    "amenity.pub",
    "amenity.restaurant",
    "tourism.gallery",
    "amenity.fast_food",
    "shop.massage",
    "shop.bicycle",
    "shop.tobacco",
    "shop.optician",
    "amenity.bank",
    "shop.books",
    "amenity.community_centre",
    "amenity.cafe",
    "amenity.bar",
    "shop.erotic",
    "shop.clothes",
    "shop.shoes",
    "amenity.pharmacy",
    "shop.gift",
    "shop.sports",
    "amenity.bicycle_rental",
    "tourism.artwork",
    "shop.copyshop"
  ],
  "poi_count_per_category": {
    "amenity.college": 1,
    "amenity.pub": 1,
    "amenity.restaurant": 9,
    "tourism.gallery": 1,
    "amenity.fast_food": 6,
    "shop.massage": 1,
    "shop.bicycle": 1,
    "shop.tobacco": 2,
    "shop.optician": 2,
    "amenity.bank": 1,
    "shop.books": 1,
    "amenity.community_centre": 1,
    "amenity.cafe": 5,
    "amenity.bar": 10,
    "shop.erotic": 1,
    "shop.clothes": 9,
    "shop.shoes": 5,
    "amenity.pharmacy": 2,
    "shop.gift": 3,
    "shop.sports": 2,
    "amenity.bicycle_rental": 1,
    "tourism.artwork": 1,
    "shop.copyshop": 3
  },
  "poi_count": 69,
  "pois": [
    {
      "name": "Madame Claude",
      "category": [
        "amenity.restaurant"
      ],
      "lat": 48.860847,
      "lon": 2.3488026,
      "osm_id": 677967928,
      "osm_type": "node",
      "address": null,
      "road_geometry": null
    },
    {
      "name": "Quick",
      "category": [
        "amenity.fast_food"
      ],
      "lat": 48.8602015,
      "lon": 2.3488661,
      "osm_id": 677981959,
      "osm_type": "node",
      "address": null,
      "road_geometry": null
    },
    {
      "name": "Pharmacie Beaubourg",
      "category": [
        "amenity.pharmacy"
      ],
      "lat": 48.8616909,
      "lon": 2.351843,
      "osm_id": 679068386,
      "osm_type": "node",
      "address": null,
      "road_geometry": null
    },
    {
      "name": "Foul&es",
      "category": [
        "shop.sports"
      ],
      "lat": 48.8615038,
      "lon": 2.3501794,
      "osm_id": 697281514,
      "osm_type": "node",
      "address": "Boulevard de S\u00e9bastopol",
      "road_geometry": null
    },
    {
      "name": "Le Cavalier Bleu",
      "category": [
        "amenity.cafe"
      ],
      "lat": 48.8615836,
      "lon": 2.3514645,
      "osm_id": 697454396,
      "osm_type": "node",
      "address": "Rue Saint-Martin",
      "road_geometry": null
    },
    {
      "name": "Sun Caf\u00e9",
      "category": [
        "amenity.restaurant"
      ],
      "lat": 48.8595507,
      "lon": 2.3490695,
      "osm_id": 699897179,
      "osm_type": "node",
      "address": null,
      "road_geometry": null
    },
    {
      "name": "Le bar du bistrot",
      "category": [
        "amenity.bar"
      ],
      "lat": 48.8600619,
      "lon": 2.3497943,
      "osm_id": 700272839,
      "osm_type": "node",
      "address": null,
      "road_geometry": null
    },
    {
      "name": "KFC",
      "category": [
        "amenity.fast_food"
      ],
      "lat": 48.8607571,
      "lon": 2.349172,
      "osm_id": 707701009,
      "osm_type": "node",
      "address": "Boulevard de S\u00e9bastopol",
      "road_geometry": null
    },
    {
      "name": "IRCAM",
      "category": [
        "amenity.college"
      ],
      "lat": 48.8598478,
      "lon": 2.3513855,
      "osm_id": 855292325,
      "osm_type": "node",
      "address": null,
      "road_geometry": null
    },
    {
      "name": "Hellfest Corner",
      "category": [
        "amenity.bar"
      ],
      "lat": 48.8607916,
      "lon": 2.3503038,
      "osm_id": 1164839323,
      "osm_type": "node",
      "address": "Rue Quincampoix",
      "road_geometry": null
    },
    {
      "name": "Puma",
      "category": [
        "shop.clothes"
      ],
      "lat": 48.860406,
      "lon": 2.3495364,
      "osm_id": 1651309344,
      "osm_type": "node",
      "address": "Boulevard de S\u00e9bastopol",
      "road_geometry": null
    },
    {
      "name": "Copystar",
      "category": [
        "shop.copyshop"
      ],
      "lat": 48.8611114,
      "lon": 2.3499337,
      "osm_id": 2003145808,
      "osm_type": "node",
      "address": "Boulevard de S\u00e9bastopol",
      "road_geometry": null
    },
    {
      "name": "Cr\u00e9dit Agricole",
      "category": [
        "amenity.bank"
      ],
      "lat": 48.8598944,
      "lon": 2.3492846,
      "osm_id": 2003145809,
      "osm_type": "node",
      "address": "Boulevard de Sebastopot",
      "road_geometry": null
    },
    {
      "name": "Oculto",
      "category": [
        "amenity.bar"
      ],
      "lat": 48.8601219,
      "lon": 2.3499738,
      "osm_id": 2003145820,
      "osm_type": "node",
      "address": "Rue Quincampoix",
      "road_geometry": null
    },
    {
      "name": "Univers Pharmacie",
      "category": [
        "amenity.pharmacy"
      ],
      "lat": 48.8607,
      "lon": 2.3497286,
      "osm_id": 2003145887,
      "osm_type": "node",
      "address": "Boulevard de S\u00e9bastopol",
      "road_geometry": null
    },
    {
      "name": "L'Oiseau de feu",
      "category": [
        "tourism.artwork"
      ],
      "lat": 48.8595692,
      "lon": 2.3515462,
      "osm_id": 2104261983,
      "osm_type": "node",
      "address": null,
      "road_geometry": null
    },
    {
      "name": "Bistrot Charbon",
      "category": [
        "amenity.restaurant"
      ],
      "lat": 48.861088,
      "lon": 2.3512876,
      "osm_id": 2137762218,
      "osm_type": "node",
      "address": "Rue Saint-Martin",
      "road_geometry": null
    },
    {
      "name": "Librairie Wallonie-Bruxelles",
      "category": [
        "shop.books"
      ],
      "lat": 48.86105,
      "lon": 2.3506093,
      "osm_id": 2137762219,
      "osm_type": "node",
      "address": null,
      "road_geometry": null
    },
    {
      "name": "Camper",
      "category": [
        "shop.shoes"
      ],
      "lat": 48.860385,
      "lon": 2.3506397,
      "osm_id": 2138310202,
      "osm_type": "node",
      "address": null,
      "road_geometry": null
    },
    {
      "name": "Citadium",
      "category": [
        "shop.clothes"
      ],
      "lat": 48.860511,
      "lon": 2.3500775,
      "osm_id": 2138310206,
      "osm_type": "node",
      "address": "Rue Quincampoix",
      "road_geometry": null
    },
    {
      "name": "Iris Galerie",
      "category": [
        "tourism.gallery"
      ],
      "lat": 48.8613189,
      "lon": 2.3513249,
      "osm_id": 2138310211,
      "osm_type": "node",
      "address": "Rue Saint-Martin",
      "road_geometry": null
    },
    {
      "name": "ASICS",
      "category": [
        "shop.shoes"
      ],
      "lat": 48.860605,
      "lon": 2.3496879,
      "osm_id": 2138310213,
      "osm_type": "node",
      "address": null,
      "road_geometry": null
    },
    {
      "name": "Subway",
      "category": [
        "amenity.fast_food"
      ],
      "lat": 48.8597897,
      "lon": 2.3508185,
      "osm_id": 2148477931,
      "osm_type": "node",
      "address": "Rue Saint-Martin",
      "road_geometry": null
    },
    {
      "name": "Caf\u00e9 Beaubourg",
      "category": [
        "amenity.cafe"
      ],
      "lat": 48.8600106,
      "lon": 2.3509612,
      "osm_id": 2152981900,
      "osm_type": "node",
      "address": "Rue Saint-Merri",
      "road_geometry": null
    },
    {
      "name": "Sissor",
      "category": [
        "shop.clothes"
      ],
      "lat": 48.8615076,
      "lon": 2.3491315,
      "osm_id": 2394065565,
      "osm_type": "node",
      "address": "Rue Saint-Denis",
      "road_geometry": null
    },
    {
      "name": "Hall's beer Tavern",
      "category": [
        "amenity.bar"
      ],
      "lat": 48.8616362,
      "lon": 2.3492126,
      "osm_id": 2394065566,
      "osm_type": "node",
      "address": "Rue Sant-Denis",
      "road_geometry": null
    },
    {
      "name": "Mc Brides",
      "category": [
        "amenity.pub"
      ],
      "lat": 48.861037,
      "lon": 2.3488844,
      "osm_id": 2394065575,
      "osm_type": "node",
      "address": "Rue Saint-Denis",
      "road_geometry": null
    },
    {
      "name": "Al Solito Posto",
      "category": [
        "amenity.restaurant"
      ],
      "lat": 48.8598551,
      "lon": 2.3505914,
      "osm_id": 2460774590,
      "osm_type": "node",
      "address": null,
      "road_geometry": null
    },
    {
      "name": "La Com\u00e9die",
      "category": [
        "amenity.bar"
      ],
      "lat": 48.8598698,
      "lon": 2.3498057,
      "osm_id": 2685503280,
      "osm_type": "node",
      "address": null,
      "road_geometry": null
    },
    {
      "name": "The North Face",
      "category": [
        "shop.clothes"
      ],
      "lat": 48.8609574,
      "lon": 2.3498764,
      "osm_id": 3471754293,
      "osm_type": "node",
      "address": "Boulevard de S\u00e9bastopol",
      "road_geometry": null
    },
    {
      "name": "RG",
      "category": [
        "shop.clothes"
      ],
      "lat": 48.8597221,
      "lon": 2.3491381,
      "osm_id": 3475289594,
      "osm_type": "node",
      "address": null,
      "road_geometry": null
    },
    {
      "name": "La lunetterie",
      "category": [
        "shop.optician"
      ],
      "lat": 48.8596347,
      "lon": 2.3491207,
      "osm_id": 3475292693,
      "osm_type": "node",
      "address": "Boulevard de Sebastopot",
      "road_geometry": null
    },
    {
      "name": "Demory Paris",
      "category": [
        "amenity.bar"
      ],
      "lat": 48.861674,
      "lon": 2.3508982,
      "osm_id": 3512343285,
      "osm_type": "node",
      "address": "Rue Quincampoix",
      "road_geometry": null
    },
    {
      "name": "Mulan",
      "category": [
        "amenity.restaurant"
      ],
      "lat": 48.8596249,
      "lon": 2.3507224,
      "osm_id": 3657971150,
      "osm_type": "node",
      "address": "Rue Saint-Martin",
      "road_geometry": null
    },
    {
      "name": "Chouchou",
      "category": [
        "amenity.restaurant"
      ],
      "lat": 48.8599881,
      "lon": 2.3487599,
      "osm_id": 3658039957,
      "osm_type": "node",
      "address": "Boulevard de S\u00e9bastopol",
      "road_geometry": null
    },
    {
      "name": "Cr\u00eaperie bobo",
      "category": [
        "amenity.fast_food"
      ],
      "lat": 48.8599258,
      "lon": 2.3512194,
      "osm_id": 4358957893,
      "osm_type": "node",
      "address": null,
      "road_geometry": null
    },
    {
      "name": "El Hombre",
      "category": [
        "amenity.bar"
      ],
      "lat": 48.859909,
      "lon": 2.3495019,
      "osm_id": 4560139429,
      "osm_type": "node",
      "address": null,
      "road_geometry": null
    },
    {
      "name": "Fripe Avenue",
      "category": [
        "shop.clothes"
      ],
      "lat": 48.8598411,
      "lon": 2.350856,
      "osm_id": 5353492569,
      "osm_type": "node",
      "address": "Rue Saint-Martin",
      "road_geometry": null
    },
    {
      "name": "L'Univers de L\u00e9o",
      "category": [
        "shop.gift"
      ],
      "lat": 48.8605227,
      "lon": 2.3509707,
      "osm_id": 5353492572,
      "osm_type": "node",
      "address": "Rue Saint-Martin",
      "road_geometry": null
    },
    {
      "name": "Pho Saint-Martin",
      "category": [
        "amenity.fast_food"
      ],
      "lat": 48.8599044,
      "lon": 2.3508781,
      "osm_id": 5353492578,
      "osm_type": "node",
      "address": "Rue Saint-Martin",
      "road_geometry": null
    },
    {
      "name": "Image in' Air",
      "category": [
        "shop.gift"
      ],
      "lat": 48.860666,
      "lon": 2.3510452,
      "osm_id": 5353492581,
      "osm_type": "node",
      "address": "Rue Saint-Martin",
      "road_geometry": null
    },
    {
      "name": "Le Petit Marcel",
      "category": [
        "amenity.bar"
      ],
      "lat": 48.8616719,
      "lon": 2.3511651,
      "osm_id": 5914412593,
      "osm_type": "node",
      "address": "Rue Rambuteau",
      "road_geometry": null
    },
    {
      "name": "V\u00e9lo Station",
      "category": [
        "shop.bicycle"
      ],
      "lat": 48.8613232,
      "lon": 2.350082,
      "osm_id": 7179679717,
      "osm_type": "node",
      "address": "Boulevard de S\u00e9bastopol",
      "road_geometry": null
    },
    {
      "name": "Optical Center",
      "category": [
        "shop.optician"
      ],
      "lat": 48.8602775,
      "lon": 2.3494669,
      "osm_id": 7272413344,
      "osm_type": "node",
      "address": "Boulevard de S\u00e9bastopol",
      "road_geometry": null
    },
    {
      "name": "Cossonnerie - S\u00e9bastopol",
      "category": [
        "amenity.bicycle_rental"
      ],
      "lat": 48.8613336,
      "lon": 2.3492977,
      "osm_id": 7426508324,
      "osm_type": "node",
      "address": null,
      "road_geometry": null
    },
    {
      "name": "Potala cuisine",
      "category": [
        "amenity.restaurant"
      ],
      "lat": 48.8615881,
      "lon": 2.3508459,
      "osm_id": 7925178995,
      "osm_type": "node",
      "address": null,
      "road_geometry": null
    },
    {
      "name": "Milk Print",
      "category": [
        "shop.copyshop"
      ],
      "lat": 48.8608964,
      "lon": 2.349273,
      "osm_id": 8752013056,
      "osm_type": "node",
      "address": null,
      "road_geometry": null
    },
    {
      "name": "Boxxman",
      "category": [
        "shop.erotic"
      ],
      "lat": 48.8614204,
      "lon": 2.3493621,
      "osm_id": 9731596760,
      "osm_type": "node",
      "address": "Rue de la Cossonnerie",
      "road_geometry": null
    },
    {
      "name": "Tabac Le Pompidou",
      "category": [
        "shop.tobacco"
      ],
      "lat": 48.8599765,
      "lon": 2.3500734,
      "osm_id": 9869127881,
      "osm_type": "node",
      "address": null,
      "road_geometry": null
    },
    {
      "name": "Bzen Spa",
      "category": [
        "shop.massage"
      ],
      "lat": 48.8616564,
      "lon": 2.349713,
      "osm_id": 9869273487,
      "osm_type": "node",
      "address": "Boulevard de S\u00e9bastopol",
      "road_geometry": null
    },
    {
      "name": "Top 4 Running",
      "category": [
        "shop.sports"
      ],
      "lat": 48.8611729,
      "lon": 2.3494025,
      "osm_id": 9869273495,
      "osm_type": "node",
      "address": "Boulevard de S\u00e9bastopol",
      "road_geometry": null
    },
    {
      "name": "Snipes",
      "category": [
        "shop.shoes"
      ],
      "lat": 48.8610723,
      "lon": 2.3493596,
      "osm_id": 9869273496,
      "osm_type": "node",
      "address": "Boulevard de S\u00e9bastopol",
      "road_geometry": null
    },
    {
      "name": "Cafe",
      "category": [
        "amenity.cafe"
      ],
      "lat": 48.8597847,
      "lon": 2.3498489,
      "osm_id": 9907698037,
      "osm_type": "node",
      "address": "Rue Quincampoix",
      "road_geometry": null
    },
    {
      "name": "Rookies",
      "category": [
        "amenity.fast_food"
      ],
      "lat": 48.859687,
      "lon": 2.350554,
      "osm_id": 10153088257,
      "osm_type": "node",
      "address": "Rue Saint-Martin",
      "road_geometry": null
    },
    {
      "name": "Halles Company",
      "category": [
        "shop.gift"
      ],
      "lat": 48.8603207,
      "lon": 2.3499412,
      "osm_id": 10729380444,
      "osm_type": "node",
      "address": null,
      "road_geometry": null
    },
    {
      "name": "Snipes",
      "category": [
        "shop.shoes"
      ],
      "lat": 48.8611407,
      "lon": 2.3489747,
      "osm_id": 10925254888,
      "osm_type": "node",
      "address": null,
      "road_geometry": null
    },
    {
      "name": "El badia",
      "category": [
        "shop.tobacco"
      ],
      "lat": 48.8617029,
      "lon": 2.3490321,
      "osm_id": 11503909766,
      "osm_type": "node",
      "address": "Rue Sant-Denis",
      "road_geometry": null
    },
    {
      "name": "Mode Pole",
      "category": [
        "shop.shoes"
      ],
      "lat": 48.8617318,
      "lon": 2.3492592,
      "osm_id": 11503930861,
      "osm_type": "node",
      "address": "Rue Sant-Denis",
      "road_geometry": null
    },
    {
      "name": "Fripouilles",
      "category": [
        "shop.clothes"
      ],
      "lat": 48.8612975,
      "lon": 2.3487572,
      "osm_id": 11519753425,
      "osm_type": "node",
      "address": "Rue Saint-Denis",
      "road_geometry": null
    },
    {
      "name": "Milkprint",
      "category": [
        "shop.copyshop"
      ],
      "lat": 48.860937,
      "lon": 2.3488397,
      "osm_id": 11519754498,
      "osm_type": "node",
      "address": "Boulevard de S\u00e9bastopol",
      "road_geometry": null
    },
    {
      "name": "L'Osteria",
      "category": [
        "amenity.restaurant"
      ],
      "lat": 48.8603644,
      "lon": 2.3497881,
      "osm_id": 11522776327,
      "osm_type": "node",
      "address": "Rue Aubry le Boucher",
      "road_geometry": null
    },
    {
      "name": "Le MAG Jeunes LGBT+",
      "category": [
        "amenity.community_centre"
      ],
      "lat": 48.8606527,
      "lon": 2.3502492,
      "osm_id": 11556888615,
      "osm_type": "node",
      "address": "Rue Quincampoix",
      "road_geometry": null
    },
    {
      "name": "Le 41",
      "category": [
        "amenity.bar"
      ],
      "lat": 48.8609143,
      "lon": 2.3504004,
      "osm_id": 11556898154,
      "osm_type": "node",
      "address": null,
      "road_geometry": null
    },
    {
      "name": "Philea",
      "category": [
        "shop.clothes"
      ],
      "lat": 48.8612687,
      "lon": 2.3505077,
      "osm_id": 11556906306,
      "osm_type": "node",
      "address": null,
      "road_geometry": null
    },
    {
      "name": "Barberousse Paris",
      "category": [
        "amenity.bar"
      ],
      "lat": 48.8614904,
      "lon": 2.3507933,
      "osm_id": 11556913680,
      "osm_type": "node",
      "address": "Rue Quincampoix",
      "road_geometry": null
    },
    {
      "name": "Space",
      "category": [
        "amenity.restaurant"
      ],
      "lat": 48.861534,
      "lon": 2.3506747,
      "osm_id": 11556938327,
      "osm_type": "node",
      "address": null,
      "road_geometry": null
    },
    {
      "name": "Fripe Avenue",
      "category": [
        "shop.clothes"
      ],
      "lat": 48.859778,
      "lon": 2.3506083,
      "osm_id": 11603053059,
      "osm_type": "node",
      "address": null,
      "road_geometry": null
    },
    {
      "name": "Urban bakery Caf\u00e9",
      "category": [
        "amenity.cafe"
      ],
      "lat": 48.8601366,
      "lon": 2.3493952,
      "osm_id": 12197523441,
      "osm_type": "node",
      "address": "Rue de la Reynie",
      "road_geometry": null
    },
    {
      "name": "Kozy",
      "category": [
        "amenity.cafe"
      ],
      "lat": 48.8611667,
      "lon": 2.3513117,
      "osm_id": 12944694467,
      "osm_type": "node",
      "address": null,
      "road_geometry": null
    }
  ],
  "refinement": {
    "original_poi_count": 161,
    "removed_count": 92,
    "model": "gemini-2.5-flash"
  }
}