{
  "image": "dataset/images/740.png",
  "center_lat": 40.80112612612612,
  "center_lon": -73.96578458378616,
  "bbox": [
    -73.96727221057806,
    40.8,
    -73.96429695699425,
    40.80225225225225
  ],
  "unique_categories": [
    "shop.laundry",
    "shop.tobacco",
    "shop.hardware",
    "highway.bus_stop",
    "amenity.cafe",
    "shop.convenience",
    "leisure.hackerspace",
    "amenity.restaurant",
    "amenity.bar",
    "shop.hairdresser",
    "amenity.bicycle_rental",
    "amenity.doctors",
    "amenity.fast_food",
    "shop.massage",
    "shop.dry_cleaning"
  ],
  "poi_count_per_category": {
    "shop.laundry": 1,
    "shop.tobacco": 1,
    "shop.hardware": 1,
    "highway.bus_stop": 2,
    "amenity.cafe": 1,
    "shop.convenience": 2,
    "leisure.hackerspace": 1,
    "amenity.restaurant": 4,
    "amenity.bar": 2,
    "shop.hairdresser": 1,
    "amenity.bicycle_rental": 1,
    "amenity.doctors": 1,
    "amenity.fast_food": 4,
    "shop.massage": 1,
    "shop.dry_cleaning": 1
  },
  "poi_count": 24,
  "pois": [
    {
      "name": "Acosta Restaurant",
      "category": [
        "amenity.fast_food"
      ],
      "lat": 40.8003312,
      "lon": -73.9660124,
      "osm_id": 2535746162,
      "osm_type": "node",
      "address": "Amsterdam Avenue",
      "road_geometry": null
    },
    {
      "name": "DDY Minimarket & Deli",
      "category": [
        "shop.convenience"
      ],
      "lat": 40.8009409,
      "lon": -73.9651057,
      "osm_id": 2535746170,
      "osm_type": "node",
      "address": "Amsterdam Avenue",
      "road_geometry": null
    },
    {
      "name": "Dynasty Dry Cleaners",
      "category": [
        "shop.dry_cleaning"
      ],
      "lat": 40.8011399,
      "lon": -73.9649631,
      "osm_id": 2761641646,
      "osm_type": "node",
      "address": "Amsterdam Avenue",
      "road_geometry": null
    },
    {
      "name": "Super Nice Pizza",
      "category": [
        "amenity.restaurant"
      ],
      "lat": 40.8015676,
      "lon": -73.9646575,
      "osm_id": 2761641649,
      "osm_type": "node",
      "address": "Amsterdam Avenue",
      "road_geometry": null
    },
    {
      "name": "Uptown Dermatology",
      "category": [
        "amenity.doctors"
      ],
      "lat": 40.8017643,
      "lon": -73.9644909,
      "osm_id": 2761651130,
      "osm_type": "node",
      "address": "Amsterdam Avenue",
      "road_geometry": null
    },
    {
      "name": "All Fresh Laundry & Cleaners",
      "category": [
        "shop.laundry"
      ],
      "lat": 40.8009093,
      "lon": -73.9655986,
      "osm_id": 2761663414,
      "osm_type": "node",
      "address": "Amsterdam Avenue",
      "road_geometry": null
    },
    {
      "name": "West 106th Street & Amsterdam Avenue",
      "category": [
        "highway.bus_stop"
      ],
      "lat": 40.8002004,
      "lon": -73.9653942,
      "osm_id": 3271250959,
      "osm_type": "node",
      "address": null,
      "road_geometry": null
    },
    {
      "name": "Skill Mill",
      "category": [
        "leisure.hackerspace"
      ],
      "lat": 40.8007427,
      "lon": -73.9652361,
      "osm_id": 6604808750,
      "osm_type": "node",
      "address": "Amsterdam Avenue",
      "road_geometry": null
    },
    {
      "name": "Columbia Deli",
      "category": [
        "shop.convenience"
      ],
      "lat": 40.8006329,
      "lon": -73.965322,
      "osm_id": 6958893263,
      "osm_type": "node",
      "address": "Amsterdam Avenue",
      "road_geometry": null
    },
    {
      "name": "Anar",
      "category": [
        "amenity.restaurant"
      ],
      "lat": 40.8002094,
      "lon": -73.9656338,
      "osm_id": 7040362186,
      "osm_type": "node",
      "address": "Amsterdam Avenue",
      "road_geometry": null
    },
    {
      "name": "Living Thai",
      "category": [
        "amenity.restaurant"
      ],
      "lat": 40.8000987,
      "lon": -73.9657163,
      "osm_id": 7041983091,
      "osm_type": "node",
      "address": "Amsterdam Avenue",
      "road_geometry": null
    },
    {
      "name": "Nobody Told Me",
      "category": [
        "amenity.bar"
      ],
      "lat": 40.8008066,
      "lon": -73.9651977,
      "osm_id": 7159068915,
      "osm_type": "node",
      "address": "Amsterdam Avenue",
      "road_geometry": null
    },
    {
      "name": "Amsterdam Avenue & West 106th Street",
      "category": [
        "highway.bus_stop"
      ],
      "lat": 40.800686,
      "lon": -73.9654047,
      "osm_id": 8402020627,
      "osm_type": "node",
      "address": null,
      "road_geometry": null
    },
    {
      "name": "Dive 106",
      "category": [
        "amenity.bar"
      ],
      "lat": 40.8007289,
      "lon": -73.9657309,
      "osm_id": 8438585854,
      "osm_type": "node",
      "address": "Amsterdam Avenue",
      "road_geometry": null
    },
    {
      "name": "Metro II Hair Studio",
      "category": [
        "shop.hairdresser"
      ],
      "lat": 40.8010499,
      "lon": -73.9655013,
      "osm_id": 11402028475,
      "osm_type": "node",
      "address": "Amsterdam Avenue",
      "road_geometry": null
    },
    {
      "name": "PokeDoke",
      "category": [
        "amenity.fast_food"
      ],
      "lat": 40.8004754,
      "lon": -73.9661976,
      "osm_id": 11413565317,
      "osm_type": "node",
      "address": "West 106th Street",
      "road_geometry": null
    },
    {
      "name": "Domino's",
      "category": [
        "amenity.fast_food"
      ],
      "lat": 40.8013353,
      "lon": -73.9648235,
      "osm_id": 11413866656,
      "osm_type": "node",
      "address": "Amsterdam Avenue",
      "road_geometry": null
    },
    {
      "name": "Super Nice Coffee and Bakery",
      "category": [
        "amenity.cafe"
      ],
      "lat": 40.8015058,
      "lon": -73.9644654,
      "osm_id": 11413869531,
      "osm_type": "node",
      "address": "West 108th Street",
      "road_geometry": null
    },
    {
      "name": "Pancho's Antojitos Mexicano",
      "category": [
        "amenity.restaurant"
      ],
      "lat": 40.8013901,
      "lon": -73.965234,
      "osm_id": 11415714612,
      "osm_type": "node",
      "address": "Amsterdam Avenue",
      "road_geometry": null
    },
    {
      "name": "3 Times",
      "category": [
        "amenity.fast_food"
      ],
      "lat": 40.8014845,
      "lon": -73.9651629,
      "osm_id": 11415714614,
      "osm_type": "node",
      "address": "Amsterdam Avenue",
      "road_geometry": null
    },
    {
      "name": "Columbia Smoke Shop",
      "category": [
        "shop.tobacco"
      ],
      "lat": 40.8017214,
      "lon": -73.9650059,
      "osm_id": 11418605766,
      "osm_type": "node",
      "address": "Amsterdam Avenue",
      "road_geometry": null
    },
    {
      "name": "Iglarsh Supply",
      "category": [
        "shop.hardware"
      ],
      "lat": 40.8018973,
      "lon": -73.9643964,
      "osm_id": 11419259548,
      "osm_type": "node",
      "address": "Amsterdam Avenue",
      "road_geometry": null
    },
    {
      "name": "Long Teng Body Work",
      "category": [
        "shop.massage"
      ],
      "lat": 40.800554,
      "lon": -73.9653891,
      "osm_id": 11447975607,
      "osm_type": "node",
      "address": "Amsterdam Avenue",
      "road_geometry": null
    },
    {
      "name": "Citi Bike - W 106 St & Amsterdam Ave",
      "category": [
        "amenity.bicycle_rental"
      ],
      "lat": 40.8007117,
      "lon": -73.9661511,
      "osm_id": 11873613000,
      "osm_type": "node",
      "address": null,
      "road_geometry": null
    }
  ],
  "refinement": {
    "original_poi_count": 54,
    "removed_count": 30,
    "model": "gemini-2.5-flash"
  }
}