{
  "image": "dataset/images/764.png",
  "center_lat": 40.803378378378376,
  "center_lon": -73.9657834227637,
  "bbox": [
    -73.96727110003485,
    40.80225225225225,
    -73.96429574549256,
    40.80450450450451
  ],
  "unique_categories": [
    "shop.tobacco",
    "highway.bus_stop",
    "amenity.cafe",
    "shop.convenience",
    "amenity.restaurant",
    "amenity.bank",
    "amenity.bicycle_rental",
    "amenity.post_box",
    "amenity.fast_food",
    "shop.supermarket"
  ],
  "poi_count_per_category": {
    "shop.tobacco": 1,
    "highway.bus_stop": 3,
    "amenity.cafe": 1,
    "shop.convenience": 2,
    "amenity.restaurant": 4,
    "amenity.bank": 2,
    "amenity.bicycle_rental": 1,
    "amenity.post_box": 1,
    "amenity.fast_food": 1,
    "shop.supermarket": 2
  },
  "poi_count": 18,
  "pois": [
    {
      "name": "Chase",
      "category": [
        "amenity.bank"
      ],
      "lat": 40.8035649,
      "lon": -73.9667771,
      "osm_id": 1994680554,
      "osm_type": "node",
      "address": "Broadway",
      "road_geometry": null
    },
    {
      "name": "H Mart",
      "category": [
        "shop.supermarket"
      ],
      "lat": 40.8038856,
      "lon": -73.9665484,
      "osm_id": 1994680557,
      "osm_type": "node",
      "address": "Broadway",
      "road_geometry": null
    },
    {
      "name": "TD Bank",
      "category": [
        "amenity.bank"
      ],
      "lat": 40.8039041,
      "lon": -73.9672394,
      "osm_id": 1994680563,
      "osm_type": "node",
      "address": "Broadway",
      "road_geometry": null
    },
    {
      "name": "Broadway / Cathedral Parkway",
      "category": [
        "highway.bus_stop"
      ],
      "lat": 40.8039773,
      "lon": -73.9670823,
      "osm_id": 1994680574,
      "osm_type": "node",
      "address": null,
      "road_geometry": null
    },
    {
      "name": "Broadway Tobacco House",
      "category": [
        "shop.tobacco"
      ],
      "lat": 40.8029579,
      "lon": -73.9672398,
      "osm_id": 2761671631,
      "osm_type": "node",
      "address": "Broadway",
      "road_geometry": null
    },
    {
      "name": "Gong Cha",
      "category": [
        "amenity.cafe"
      ],
      "lat": 40.8031673,
      "lon": -73.9670896,
      "osm_id": 2761671634,
      "osm_type": "node",
      "address": "Broadway",
      "road_geometry": null
    },
    {
      "name": "109 Spicy Gourmet Deli",
      "category": [
        "shop.convenience"
      ],
      "lat": 40.802353,
      "lon": -73.9645686,
      "osm_id": 2761671642,
      "osm_type": "node",
      "address": "Amsterdam Avenue",
      "road_geometry": null
    },
    {
      "name": "Roti Roll (Bombay Frankie)",
      "category": [
        "amenity.restaurant"
      ],
      "lat": 40.8025909,
      "lon": -73.9643696,
      "osm_id": 2761677767,
      "osm_type": "node",
      "address": "Amsterdam Avenue",
      "road_geometry": null
    },
    {
      "name": "Koronet Pizza",
      "category": [
        "amenity.restaurant"
      ],
      "lat": 40.8044412,
      "lon": -73.9661746,
      "osm_id": 2765266916,
      "osm_type": "node",
      "address": "Broadway",
      "road_geometry": null
    },
    {
      "name": "Westside Market",
      "category": [
        "shop.supermarket"
      ],
      "lat": 40.8042614,
      "lon": -73.9662829,
      "osm_id": 2765266922,
      "osm_type": "node",
      "address": "Broadway",
      "road_geometry": null
    },
    {
      "name": "Broadway & West 108th Street",
      "category": [
        "highway.bus_stop"
      ],
      "lat": 40.8030822,
      "lon": -73.9672711,
      "osm_id": 3271250924,
      "osm_type": "node",
      "address": null,
      "road_geometry": null
    },
    {
      "name": "Cathedral Parkway & Broadway",
      "category": [
        "highway.bus_stop"
      ],
      "lat": 40.8038417,
      "lon": -73.9661562,
      "osm_id": 3271250927,
      "osm_type": "node",
      "address": null,
      "road_geometry": null
    },
    {
      "name": "Playa Bowls",
      "category": [
        "amenity.fast_food"
      ],
      "lat": 40.8044414,
      "lon": -73.9668661,
      "osm_id": 3907629284,
      "osm_type": "node",
      "address": "Broadway",
      "road_geometry": null
    },
    {
      "name": "Himalayan Curry House",
      "category": [
        "amenity.restaurant"
      ],
      "lat": 40.8026396,
      "lon": -73.9671313,
      "osm_id": 5978745721,
      "osm_type": "node",
      "address": "West 108th Street",
      "road_geometry": null
    },
    {
      "name": "Citi Bike - Cathedral Pkwy & Broadway",
      "category": [
        "amenity.bicycle_rental"
      ],
      "lat": 40.8042321,
      "lon": -73.9670394,
      "osm_id": 6086890320,
      "osm_type": "node",
      "address": null,
      "road_geometry": null
    },
    {
      "name": "USPS",
      "category": [
        "amenity.post_box"
      ],
      "lat": 40.8041251,
      "lon": -73.9669703,
      "osm_id": 7022723855,
      "osm_type": "node",
      "address": null,
      "road_geometry": null
    },
    {
      "name": "Grab & Go",
      "category": [
        "shop.convenience"
      ],
      "lat": 40.8032748,
      "lon": -73.9670125,
      "osm_id": 7024236394,
      "osm_type": "node",
      "address": "Broadway",
      "road_geometry": null
    },
    {
      "name": "Atlas Kitchen",
      "category": [
        "amenity.restaurant"
      ],
      "lat": 40.8032937,
      "lon": -73.9667641,
      "osm_id": 11447982727,
      "osm_type": "node",
      "address": "West 109th Street",
      "road_geometry": null
    }
  ],
  "refinement": {
    "original_poi_count": 32,
    "removed_count": 14,
    "model": "gemini-2.5-flash"
  }
}