{
  "image": "dataset/images/817.png",
  "center_lat": 40.807882882882886,
  "center_lon": -73.95090331785568,
  "bbox": [
    -73.95239109610247,
    40.80675675675676,
    -73.94941553960888,
    40.80900900900902
  ],
  "unique_categories": [
    "shop.hairdresser",
    "highway.bus_stop",
    "shop.convenience",
    "amenity.restaurant"
  ],
  "poi_count_per_category": {
    "shop.hairdresser": 1,
    "highway.bus_stop": 1,
    "shop.convenience": 1,
    "amenity.restaurant": 1
  },
  "poi_count": 4,
  "pois": [
    {
      "name": "Gourmet Deli",
      "category": [
        "shop.convenience"
      ],
      "lat": 40.8089007,
      "lon": -73.951878,
      "osm_id": 2767383760,
      "osm_type": "node",
      "address": "Frederick Douglass Boulevard",
      "road_geometry": null
    },
    {
      "name": "Chez Alain",
      "category": [
        "amenity.restaurant"
      ],
      "lat": 40.8073593,
      "lon": -73.9498334,
      "osm_id": 5266905501,
      "osm_type": "node",
      "address": "Adam Clayton Powell Jr Boulevard",
      "road_geometry": null
    },
    {
      "name": "Adam Clayton Powell Jr. Boulevard & West 122nd Street",
      "category": [
        "highway.bus_stop"
      ],
      "lat": 40.8068989,
      "lon": -73.9500816,
      "osm_id": 5274265068,
      "osm_type": "node",
      "address": null,
      "road_geometry": null
    },
    {
      "name": "Slayed By Vicky African Hair Braiding",
      "category": [
        "shop.hairdresser"
      ],
      "lat": 40.8077216,
      "lon": -73.9496813,
      "osm_id": 11840561722,
      "osm_type": "node",
      "address": "Adam Clayton Powell Jr. Boulevard",
      "road_geometry": null
    }
  ],
  "refinement": {
    "original_poi_count": 6,
    "removed_count": 2,
    "model": "gemini-2.5-flash"
  }
}