{
  "image": "dataset/images/82.png",
  "center_lat": 48.86513513513514,
  "center_lon": 2.3367118320832203,
  "bbox": [
    2.335,
    48.86400900900902,
    2.33842366416644,
    48.86626126126127
  ],
  "unique_categories": [
    "shop.tattoo",
    "shop.bag",
    "shop.interior_decoration",
    "amenity.school",
    "amenity.ice_cream",
    "highway.bus_stop",
    "amenity.cafe",
    "shop.convenience",
    "shop.perfumery",
    "amenity.restaurant",
    "amenity.bar",
    "shop.antiques",
    "shop.clothes",
    "tourism.artwork",
    "shop.travel_agency",
    "shop.supermarket",
    "tourism.hotel"
  ],
  "poi_count_per_category": {
    "shop.tattoo": 1,
    "shop.bag": 1,
    "shop.interior_decoration": 1,
    "amenity.school": 1,
    "amenity.ice_cream": 1,
    "highway.bus_stop": 1,
    "amenity.cafe": 5,
    "shop.convenience": 1,
    "shop.perfumery": 2,
    "amenity.restaurant": 16,
    "amenity.bar": 1,
    "shop.antiques": 3,
    "shop.clothes": 5,
    "tourism.artwork": 1,
    "shop.travel_agency": 1,
    "shop.supermarket": 1,
    "tourism.hotel": 1
  },
  "poi_count": 43,
  "pois": [
    {
      "name": "Juv\u00e9niles",
      "category": [
        "amenity.bar"
      ],
      "lat": 48.8662564,
      "lon": 2.3370561,
      "osm_id": 247455913,
      "osm_type": "node",
      "address": null,
      "road_geometry": null
    },
    {
      "name": "Antoine",
      "category": [
        "shop.clothes"
      ],
      "lat": 48.8648371,
      "lon": 2.335091,
      "osm_id": 682258926,
      "osm_type": "node",
      "address": null,
      "road_geometry": null
    },
    {
      "name": "Palais Royal - Com\u00e9die Fran\u00e7aise",
      "category": [
        "highway.bus_stop"
      ],
      "lat": 48.8642974,
      "lon": 2.3351961,
      "osm_id": 973872832,
      "osm_type": "node",
      "address": null,
      "road_geometry": null
    },
    {
      "name": "Le Grand V\u00e9four",
      "category": [
        "amenity.restaurant"
      ],
      "lat": 48.8661551,
      "lon": 2.3379157,
      "osm_id": 1454687141,
      "osm_type": "node",
      "address": null,
      "road_geometry": null
    },
    {
      "name": "Gyoza Hohei",
      "category": [
        "amenity.restaurant"
      ],
      "lat": 48.8662137,
      "lon": 2.3353607,
      "osm_id": 1477602783,
      "osm_type": "node",
      "address": null,
      "road_geometry": null
    },
    {
      "name": "La\u00ef-la\u00ef Ken",
      "category": [
        "amenity.restaurant"
      ],
      "lat": 48.8657884,
      "lon": 2.3351488,
      "osm_id": 1477602785,
      "osm_type": "node",
      "address": null,
      "road_geometry": null
    },
    {
      "name": "K-mart",
      "category": [
        "shop.supermarket"
      ],
      "lat": 48.865499,
      "lon": 2.3352849,
      "osm_id": 1477602786,
      "osm_type": "node",
      "address": null,
      "road_geometry": null
    },
    {
      "name": "Sam Sun",
      "category": [
        "amenity.restaurant"
      ],
      "lat": 48.8658042,
      "lon": 2.3367261,
      "osm_id": 1503093260,
      "osm_type": "node",
      "address": null,
      "road_geometry": null
    },
    {
      "name": "L'Ecrin",
      "category": [
        "amenity.restaurant"
      ],
      "lat": 48.8651667,
      "lon": 2.3364852,
      "osm_id": 1503093275,
      "osm_type": "node",
      "address": null,
      "road_geometry": null
    },
    {
      "name": "Kunitoraya",
      "category": [
        "amenity.restaurant"
      ],
      "lat": 48.8659036,
      "lon": 2.3367736,
      "osm_id": 1503093279,
      "osm_type": "node",
      "address": null,
      "road_geometry": null
    },
    {
      "name": "Rivedroite",
      "category": [
        "shop.bag"
      ],
      "lat": 48.8642551,
      "lon": 2.3362232,
      "osm_id": 2872313960,
      "osm_type": "node",
      "address": null,
      "road_geometry": null
    },
    {
      "name": "Takara",
      "category": [
        "amenity.restaurant"
      ],
      "lat": 48.864967,
      "lon": 2.3359225,
      "osm_id": 3111840469,
      "osm_type": "node",
      "address": null,
      "road_geometry": null
    },
    {
      "name": "T\u00e9lescope",
      "category": [
        "amenity.cafe"
      ],
      "lat": 48.866146,
      "lon": 2.3363625,
      "osm_id": 4159770002,
      "osm_type": "node",
      "address": null,
      "road_geometry": null
    },
    {
      "name": "Coll\u00e8ge Jean-Baptiste Poquelin",
      "category": [
        "amenity.school"
      ],
      "lat": 48.8646291,
      "lon": 2.3355309,
      "osm_id": 4683880491,
      "osm_type": "node",
      "address": null,
      "road_geometry": null
    },
    {
      "name": "Kunitoraya - Restaurant",
      "category": [
        "amenity.restaurant"
      ],
      "lat": 48.8661805,
      "lon": 2.3362674,
      "osm_id": 4935628438,
      "osm_type": "node",
      "address": "Rue Villedo",
      "road_geometry": null
    },
    {
      "name": "Carrefour City",
      "category": [
        "shop.convenience"
      ],
      "lat": 48.8660144,
      "lon": 2.3368962,
      "osm_id": 6176889751,
      "osm_type": "node",
      "address": null,
      "road_geometry": null
    },
    {
      "name": "Yi Yun",
      "category": [
        "amenity.cafe"
      ],
      "lat": 48.8660378,
      "lon": 2.3357655,
      "osm_id": 7008992980,
      "osm_type": "node",
      "address": null,
      "road_geometry": null
    },
    {
      "name": "Doriimu",
      "category": [
        "amenity.cafe"
      ],
      "lat": 48.8650912,
      "lon": 2.3366632,
      "osm_id": 7009159193,
      "osm_type": "node",
      "address": null,
      "road_geometry": null
    },
    {
      "name": "Isaka caf\u00e9",
      "category": [
        "amenity.ice_cream"
      ],
      "lat": 48.8659086,
      "lon": 2.3359939,
      "osm_id": 7051393805,
      "osm_type": "node",
      "address": null,
      "road_geometry": null
    },
    {
      "name": "Nicola\u00ef",
      "category": [
        "shop.perfumery"
      ],
      "lat": 48.8652495,
      "lon": 2.3367396,
      "osm_id": 7670969849,
      "osm_type": "node",
      "address": null,
      "road_geometry": null
    },
    {
      "name": "Enjoy",
      "category": [
        "amenity.cafe"
      ],
      "lat": 48.8653217,
      "lon": 2.3365668,
      "osm_id": 7796868786,
      "osm_type": "node",
      "address": null,
      "road_geometry": null
    },
    {
      "name": "\u3084\u3059\u3079\u3048",
      "category": [
        "amenity.restaurant"
      ],
      "lat": 48.8659274,
      "lon": 2.3351935,
      "osm_id": 8246094450,
      "osm_type": "node",
      "address": null,
      "road_geometry": null
    },
    {
      "name": "Chikoja",
      "category": [
        "amenity.restaurant"
      ],
      "lat": 48.8660147,
      "lon": 2.3354946,
      "osm_id": 8246094451,
      "osm_type": "node",
      "address": "Rue Sainte-Anne",
      "road_geometry": null
    },
    {
      "name": "Pavillon Louvre Rivoli",
      "category": [
        "tourism.hotel"
      ],
      "lat": 48.8652167,
      "lon": 2.3362805,
      "osm_id": 8630419808,
      "osm_type": "node",
      "address": "Rue Moli\u00e8re",
      "road_geometry": null
    },
    {
      "name": "Odile Texier",
      "category": [
        "shop.interior_decoration"
      ],
      "lat": 48.8648521,
      "lon": 2.3370262,
      "osm_id": 9705621417,
      "osm_type": "node",
      "address": null,
      "road_geometry": null
    },
    {
      "name": "Casoar",
      "category": [
        "shop.antiques"
      ],
      "lat": 48.8650378,
      "lon": 2.3371067,
      "osm_id": 9705623521,
      "osm_type": "node",
      "address": null,
      "road_geometry": null
    },
    {
      "name": "Ivana Dimitrie",
      "category": [
        "shop.antiques"
      ],
      "lat": 48.8651451,
      "lon": 2.3371788,
      "osm_id": 9705629117,
      "osm_type": "node",
      "address": null,
      "road_geometry": null
    },
    {
      "name": "L'Escalier d'Argent",
      "category": [
        "shop.antiques"
      ],
      "lat": 48.8653131,
      "lon": 2.3372616,
      "osm_id": 9705630417,
      "osm_type": "node",
      "address": null,
      "road_geometry": null
    },
    {
      "name": "Caf\u00e9 du th\u00e9\u00e2tre",
      "category": [
        "amenity.restaurant"
      ],
      "lat": 48.8660857,
      "lon": 2.3376518,
      "osm_id": 9780876668,
      "osm_type": "node",
      "address": null,
      "road_geometry": null
    },
    {
      "name": "Marisol",
      "category": [
        "shop.perfumery"
      ],
      "lat": 48.8658748,
      "lon": 2.337532,
      "osm_id": 9780876698,
      "osm_type": "node",
      "address": null,
      "road_geometry": null
    },
    {
      "name": "La Taverne de Zhao",
      "category": [
        "amenity.restaurant"
      ],
      "lat": 48.8653036,
      "lon": 2.3362775,
      "osm_id": 9888443618,
      "osm_type": "node",
      "address": "Rue Moli\u00e8re",
      "road_geometry": null
    },
    {
      "name": "Dessins Hautes Fr\u00e9quences",
      "category": [
        "tourism.artwork"
      ],
      "lat": 48.8644427,
      "lon": 2.3361262,
      "osm_id": 10120618615,
      "osm_type": "node",
      "address": null,
      "road_geometry": null
    },
    {
      "name": "Pantagruel",
      "category": [
        "amenity.restaurant"
      ],
      "lat": 48.8641463,
      "lon": 2.3361736,
      "osm_id": 11694743557,
      "osm_type": "node",
      "address": "Rue de Richelieu",
      "road_geometry": null
    },
    {
      "name": "Emitravel Paris",
      "category": [
        "shop.travel_agency"
      ],
      "lat": 48.8647501,
      "lon": 2.3353709,
      "osm_id": 12310311901,
      "osm_type": "node",
      "address": null,
      "road_geometry": null
    },
    {
      "name": "Takara",
      "category": [
        "amenity.restaurant"
      ],
      "lat": 48.8650224,
      "lon": 2.3357722,
      "osm_id": 12310311905,
      "osm_type": "node",
      "address": null,
      "road_geometry": null
    },
    {
      "name": "Lison",
      "category": [
        "shop.clothes"
      ],
      "lat": 48.8653698,
      "lon": 2.3361682,
      "osm_id": 12310311906,
      "osm_type": "node",
      "address": null,
      "road_geometry": null
    },
    {
      "name": "J'y Troque",
      "category": [
        "shop.clothes"
      ],
      "lat": 48.8662172,
      "lon": 2.3362189,
      "osm_id": 12328407704,
      "osm_type": "node",
      "address": null,
      "road_geometry": null
    },
    {
      "name": "Maison Kitsun\u00e9",
      "category": [
        "shop.clothes"
      ],
      "lat": 48.8647899,
      "lon": 2.3364987,
      "osm_id": 12729979678,
      "osm_type": "node",
      "address": null,
      "road_geometry": null
    },
    {
      "name": "Stella Forest",
      "category": [
        "shop.clothes"
      ],
      "lat": 48.8640412,
      "lon": 2.3354977,
      "osm_id": 12729979688,
      "osm_type": "node",
      "address": null,
      "road_geometry": null
    },
    {
      "name": "EnYaa",
      "category": [
        "amenity.restaurant"
      ],
      "lat": 48.8658193,
      "lon": 2.3372158,
      "osm_id": 12758468017,
      "osm_type": "node",
      "address": null,
      "road_geometry": null
    },
    {
      "name": "Micho",
      "category": [
        "amenity.restaurant"
      ],
      "lat": 48.8660412,
      "lon": 2.3371539,
      "osm_id": 12758468024,
      "osm_type": "node",
      "address": null,
      "road_geometry": null
    },
    {
      "name": "La Vanit\u00e9",
      "category": [
        "shop.tattoo"
      ],
      "lat": 48.8659518,
      "lon": 2.3372849,
      "osm_id": 12758468027,
      "osm_type": "node",
      "address": null,
      "road_geometry": null
    },
    {
      "name": "Le T\u00ea",
      "category": [
        "amenity.cafe"
      ],
      "lat": 48.8660672,
      "lon": 2.3373446,
      "osm_id": 12758468028,
      "osm_type": "node",
      "address": null,
      "road_geometry": null
    }
  ],
  "refinement": {
    "original_poi_count": 127,
    "removed_count": 84,
    "model": "gemini-2.5-flash"
  }
}