{
  "image": "dataset/images/98.png",
  "center_lat": 18.92337837837838,
  "center_lon": 72.83333321405335,
  "bbox": [
    72.83214275490288,
    18.922252252252253,
    72.83452367320383,
    18.924504504504505
  ],
  "unique_categories": [
    "amenity.hospital",
    "amenity.ferry_terminal",
    "amenity.cafe",
    "amenity.fuel",
    "amenity.restaurant",
    "tourism.artwork",
    "amenity.fast_food",
    "tourism.hotel"
  ],
  "poi_count_per_category": {
    "amenity.hospital": 1,
    "amenity.ferry_terminal": 1,
    "amenity.cafe": 2,
    "amenity.fuel": 1,
    "amenity.restaurant": 4,
    "tourism.artwork": 1,
    "amenity.fast_food": 2,
    "tourism.hotel": 1
  },
  "poi_count": 13,
  "pois": [
    {
      "name": "Bademiya Seekh Kebab Stall",
      "category": [
        "amenity.fast_food"
      ],
      "lat": 18.9231497,
      "lon": 72.8325111,
      "osm_id": 488208617,
      "osm_type": "node",
      "address": "Tullock Road",
      "road_geometry": null
    },
    {
      "name": "Indigo Deli",
      "category": [
        "amenity.restaurant"
      ],
      "lat": 18.9239059,
      "lon": 72.8332921,
      "osm_id": 683779184,
      "osm_type": "node",
      "address": "Chhatrapati Shivaji Maharaj Road",
      "road_geometry": null
    },
    {
      "name": "Gateway of India - Mandwa Rewas Ferry Terminal",
      "category": [
        "amenity.ferry_terminal"
      ],
      "lat": 18.9229191,
      "lon": 72.8345228,
      "osm_id": 870449150,
      "osm_type": "node",
      "address": null,
      "road_geometry": null
    },
    {
      "name": "Bharat Petroleum",
      "category": [
        "amenity.fuel"
      ],
      "lat": 18.9243367,
      "lon": 72.8328758,
      "osm_id": 3306535083,
      "osm_type": "node",
      "address": null,
      "road_geometry": null
    },
    {
      "name": "The Table",
      "category": [
        "amenity.restaurant"
      ],
      "lat": 18.9241821,
      "lon": 72.8330843,
      "osm_id": 4099677901,
      "osm_type": "node",
      "address": "Chhatrapati Shivaji Maharaj Road",
      "road_geometry": null
    },
    {
      "name": "Le Pain Quotidien",
      "category": [
        "amenity.cafe"
      ],
      "lat": 18.9240286,
      "lon": 72.8335791,
      "osm_id": 4099677902,
      "osm_type": "node",
      "address": "Chhatrapati Shivaji Maharaj Road",
      "road_geometry": null
    },
    {
      "name": "Subway",
      "category": [
        "amenity.fast_food"
      ],
      "lat": 18.9242153,
      "lon": 72.8327681,
      "osm_id": 4841690923,
      "osm_type": "node",
      "address": null,
      "road_geometry": null
    },
    {
      "name": "\u092c\u0917\u0926\u093e\u0926\u0940 \u0930\u0947\u0938\u094d\u091f\u094b\u0930\u0947\u0902\u091f",
      "category": [
        "amenity.restaurant"
      ],
      "lat": 18.9229102,
      "lon": 72.8324423,
      "osm_id": 5209844942,
      "osm_type": "node",
      "address": null,
      "road_geometry": null
    },
    {
      "name": "Ling's Pavilion",
      "category": [
        "amenity.restaurant"
      ],
      "lat": 18.9236808,
      "lon": 72.8324278,
      "osm_id": 5300321221,
      "osm_type": "node",
      "address": "Mahakavi Bhushan Road (Lansdowne Road)",
      "road_geometry": null
    },
    {
      "name": "Shivaji Maharaj Statue",
      "category": [
        "tourism.artwork"
      ],
      "lat": 18.9228448,
      "lon": 72.8338591,
      "osm_id": 6869946311,
      "osm_type": "node",
      "address": null,
      "road_geometry": null
    },
    {
      "name": "Abode Bombay",
      "category": [
        "tourism.hotel"
      ],
      "lat": 18.9237234,
      "lon": 72.8326873,
      "osm_id": 7137339285,
      "osm_type": "node",
      "address": "Mahakavi Bhushan Road (Lansdowne Road)",
      "road_geometry": null
    },
    {
      "name": "Kalajot Hospital",
      "category": [
        "amenity.hospital"
      ],
      "lat": 18.923038,
      "lon": 72.832811,
      "osm_id": 7664032193,
      "osm_type": "node",
      "address": null,
      "road_geometry": null
    },
    {
      "name": "Subko Mini at Abode Bombay",
      "category": [
        "amenity.cafe"
      ],
      "lat": 18.9237378,
      "lon": 72.8327082,
      "osm_id": 11542420692,
      "osm_type": "node",
      "address": null,
      "road_geometry": null
    }
  ],
  "refinement": {
    "original_poi_count": 26,
    "removed_count": 13,
    "model": "gemini-2.5-flash"
  }
}