{
  "image": "dataset/images/105.png",
  "center_lat": 18.925630630630632,
  "center_lon": 72.83333332635647,
  "bbox": [
    72.83214285116269,
    18.924504504504505,
    72.83452380155025,
    18.926756756756756
  ],
  "unique_categories": [
    "tourism.artwork",
    "highway.bus_stop",
    "amenity.cinema",
    "amenity.fountain",
    "amenity.theatre",
    "amenity.bank",
    "railway.proposed"
  ],
  "poi_count_per_category": {
    "tourism.artwork": 2,
    "highway.bus_stop": 3,
    "amenity.cinema": 1,
    "amenity.fountain": 1,
    "amenity.theatre": 1,
    "amenity.bank": 1,
    "railway.proposed": 1
  },
  "poi_count": 10,
  "pois": [
    {
      "name": "Regal Cinema",
      "category": [
        "amenity.cinema"
      ],
      "lat": 18.9245934,
      "lon": 72.8325192,
      "osm_id": 669259757,
      "osm_type": "node",
      "address": null,
      "road_geometry": null
    },
    {
      "name": "Dr Shyama Prasad Mukherjee Chowk",
      "category": [
        "highway.bus_stop"
      ],
      "lat": 18.9258816,
      "lon": 72.8331644,
      "osm_id": 2629682535,
      "osm_type": "node",
      "address": null,
      "road_geometry": null
    },
    {
      "name": "HDFC Bank",
      "category": [
        "amenity.bank"
      ],
      "lat": 18.9248221,
      "lon": 72.8324272,
      "osm_id": 3306535077,
      "osm_type": "node",
      "address": null,
      "road_geometry": null
    },
    {
      "name": "Wellington Fountain",
      "category": [
        "amenity.fountain"
      ],
      "lat": 18.9254605,
      "lon": 72.8323309,
      "osm_id": 8457587103,
      "osm_type": "node",
      "address": null,
      "road_geometry": null
    },
    {
      "name": "Lion's Gate",
      "category": [
        "highway.bus_stop"
      ],
      "lat": 18.9262605,
      "lon": 72.8338623,
      "osm_id": 9741195097,
      "osm_type": "node",
      "address": null,
      "road_geometry": null
    },
    {
      "name": "Dr Shyama Prasad Mukherjee Chowk",
      "category": [
        "highway.bus_stop"
      ],
      "lat": 18.9257701,
      "lon": 72.833396,
      "osm_id": 10269913999,
      "osm_type": "node",
      "address": null,
      "road_geometry": null
    },
    {
      "name": "Childrens Museum Amphitheathre",
      "category": [
        "amenity.theatre"
      ],
      "lat": 18.926054,
      "lon": 72.8331427,
      "osm_id": 12299107686,
      "osm_type": "node",
      "address": null,
      "road_geometry": null
    },
    {
      "name": "Coral Woman",
      "category": [
        "tourism.artwork"
      ],
      "lat": 18.9261147,
      "lon": 72.832786,
      "osm_id": 12299166859,
      "osm_type": "node",
      "address": null,
      "road_geometry": null
    },
    {
      "name": "Data Mining",
      "category": [
        "tourism.artwork"
      ],
      "lat": 18.9262032,
      "lon": 72.8328405,
      "osm_id": 12299166869,
      "osm_type": "node",
      "address": null,
      "road_geometry": null
    },
    {
      "name": "SMP Circle",
      "category": [
        "railway.proposed"
      ],
      "lat": 18.92526,
      "lon": 72.8326095,
      "osm_id": 12902121997,
      "osm_type": "node",
      "address": null,
      "road_geometry": null
    }
  ]
}