{
  "image": "dataset/images/1157.png",
  "center_lat": 40.839414414414456,
  "center_lon": -73.93897208556028,
  "bbox": [
    -73.94046057127832,
    40.83828828828833,
    -73.93748359984224,
    40.84054054054059
  ],
  "unique_categories": [
    "railway.stop",
    "railway.station",
    "amenity.restaurant",
    "amenity.community_centre",
    "amenity.post_office"
  ],
  "poi_count_per_category": {
    "railway.stop": 2,
    "railway.station": 1,
    "amenity.restaurant": 1,
    "amenity.community_centre": 2,
    "amenity.post_office": 1
  },
  "poi_count": 7,
  "pois": [
    {
      "name": "Audubon Station New York Post Office",
      "category": [
        "amenity.post_office"
      ],
      "lat": 40.8385686,
      "lon": -73.9390106,
      "osm_id": 357621225,
      "osm_type": "node",
      "address": null,
      "road_geometry": null
    },
    {
      "name": "New York City Community Board 12",
      "category": [
        "amenity.community_centre"
      ],
      "lat": 40.8391766,
      "lon": -73.9396092,
      "osm_id": 4922137455,
      "osm_type": "node",
      "address": null,
      "road_geometry": null
    },
    {
      "name": "Alianza Dominicana Cultural Center",
      "category": [
        "amenity.community_centre"
      ],
      "lat": 40.8392644,
      "lon": -73.9396018,
      "osm_id": 5750222460,
      "osm_type": "node",
      "address": "West 166th Street",
      "road_geometry": null
    },
    {
      "name": "Dallas BBQ",
      "category": [
        "amenity.restaurant"
      ],
      "lat": 40.8395821,
      "lon": -73.9404606,
      "osm_id": 5750222852,
      "osm_type": "node",
      "address": "Broadway",
      "road_geometry": null
    },
    {
      "name": "168th Street",
      "category": [
        "railway.stop"
      ],
      "lat": 40.8400532,
      "lon": -73.9398669,
      "osm_id": 6693913785,
      "osm_type": "node",
      "address": null,
      "road_geometry": null
    },
    {
      "name": "168th Street",
      "category": [
        "railway.stop"
      ],
      "lat": 40.8400388,
      "lon": -73.9397738,
      "osm_id": 6698009158,
      "osm_type": "node",
      "address": null,
      "road_geometry": null
    },
    {
      "name": "168th Street",
      "category": [
        "railway.station"
      ],
      "lat": 40.8405084,
      "lon": -73.9402259,
      "osm_id": 7613354757,
      "osm_type": "node",
      "address": null,
      "road_geometry": null
    }
  ]
}