{
  "image": "dataset/images/116.png",
  "center_lat": 18.930135135135135,
  "center_lon": 72.82619050728721,
  "bbox": [
    72.825,
    18.929009009009008,
    72.8273810145744,
    18.93126126126126
  ],
  "unique_categories": [
    "railway.subway_entrance",
    "amenity.restaurant",
    "amenity.cafe",
    "amenity.studio",
    "amenity.fast_food",
    "amenity.bank"
  ],
  "poi_count_per_category": {
    "railway.subway_entrance": 1,
    "amenity.restaurant": 2,
    "amenity.cafe": 3,
    "amenity.studio": 1,
    "amenity.fast_food": 1,
    "amenity.bank": 1
  },
  "poi_count": 9,
  "pois": [
    {
      "name": "210 C",
      "category": [
        "amenity.cafe"
      ],
      "lat": 18.9304651,
      "lon": 72.8264743,
      "osm_id": 1332567346,
      "osm_type": "node",
      "address": null,
      "road_geometry": null
    },
    {
      "name": "Samrat",
      "category": [
        "amenity.restaurant"
      ],
      "lat": 18.9304448,
      "lon": 72.8265816,
      "osm_id": 1332567646,
      "osm_type": "node",
      "address": null,
      "road_geometry": null
    },
    {
      "name": "Relish",
      "category": [
        "amenity.restaurant"
      ],
      "lat": 18.93036,
      "lon": 72.8265145,
      "osm_id": 1332568045,
      "osm_type": "node",
      "address": null,
      "road_geometry": null
    },
    {
      "name": "Tea Villa",
      "category": [
        "amenity.cafe"
      ],
      "lat": 18.9306581,
      "lon": 72.8258945,
      "osm_id": 5776168799,
      "osm_type": "node",
      "address": null,
      "road_geometry": null
    },
    {
      "name": "Raju Rolls",
      "category": [
        "amenity.fast_food"
      ],
      "lat": 18.9291169,
      "lon": 72.826709,
      "osm_id": 10538700178,
      "osm_type": "node",
      "address": null,
      "road_geometry": null
    },
    {
      "name": "Axis Bank",
      "category": [
        "amenity.bank"
      ],
      "lat": 18.9301607,
      "lon": 72.8270943,
      "osm_id": 11142934544,
      "osm_type": "node",
      "address": null,
      "road_geometry": null
    },
    {
      "name": "Starbucks",
      "category": [
        "amenity.cafe"
      ],
      "lat": 18.9300623,
      "lon": 72.8261892,
      "osm_id": 11142981415,
      "osm_type": "node",
      "address": null,
      "road_geometry": null
    },
    {
      "name": "All India Radio Broadcasting House",
      "category": [
        "amenity.studio"
      ],
      "lat": 18.9290152,
      "lon": 72.8262262,
      "osm_id": 13471766115,
      "osm_type": "node",
      "address": null,
      "road_geometry": null
    },
    {
      "name": "Churchgate Metro A2",
      "category": [
        "railway.subway_entrance"
      ],
      "lat": 18.9297433,
      "lon": 72.8252867,
      "osm_id": 13471766151,
      "osm_type": "node",
      "address": null,
      "road_geometry": null
    }
  ]
}