{
  "image": "dataset/images/1234.png",
  "center_lat": 40.848423423423476,
  "center_lon": -73.99553393582265,
  "bbox": [
    -73.99702262388176,
    40.84729729729735,
    -73.99404524776352,
    40.84954954954961
  ],
  "unique_categories": [
    "shop.chocolate",
    "shop.cosmetics",
    "shop.hairdresser_supply",
    "shop.beauty",
    "amenity.place_of_worship",
    "shop.jewelry",
    "shop.hairdresser",
    "shop.tailor",
    "amenity.pharmacy"
  ],
  "poi_count_per_category": {
    "shop.chocolate": 1,
    "shop.cosmetics": 1,
    "shop.hairdresser_supply": 1,
    "shop.beauty": 1,
    "amenity.place_of_worship": 1,
    "shop.jewelry": 1,
    "shop.hairdresser": 1,
    "shop.tailor": 2,
    "amenity.pharmacy": 2
  },
  "poi_count": 11,
  "pois": [
    {
      "name": "Saint Michael's Catholic Church",
      "category": [
        "amenity.place_of_worship"
      ],
      "lat": 40.8478778,
      "lon": -73.9959722,
      "osm_id": 357743037,
      "osm_type": "node",
      "address": null,
      "road_geometry": null
    },
    {
      "name": "Jubilee",
      "category": [
        "shop.chocolate"
      ],
      "lat": 40.8488142,
      "lon": -73.9970053,
      "osm_id": 6171872970,
      "osm_type": "node",
      "address": null,
      "road_geometry": null
    },
    {
      "name": "Bling Bling",
      "category": [
        "shop.jewelry"
      ],
      "lat": 40.8489139,
      "lon": -73.9969223,
      "osm_id": 6171872971,
      "osm_type": "node",
      "address": null,
      "road_geometry": null
    },
    {
      "name": "Gold Medal",
      "category": [
        "shop.tailor"
      ],
      "lat": 40.8489856,
      "lon": -73.9968854,
      "osm_id": 6171872972,
      "osm_type": "node",
      "address": null,
      "road_geometry": null
    },
    {
      "name": "Midas",
      "category": [
        "shop.cosmetics"
      ],
      "lat": 40.8490434,
      "lon": -73.996838,
      "osm_id": 6171872973,
      "osm_type": "node",
      "address": null,
      "road_geometry": null
    },
    {
      "name": "Suki",
      "category": [
        "shop.hairdresser"
      ],
      "lat": 40.8491192,
      "lon": -73.9967642,
      "osm_id": 6171872974,
      "osm_type": "node",
      "address": null,
      "road_geometry": null
    },
    {
      "name": "Anthony's Pharmacy",
      "category": [
        "amenity.pharmacy"
      ],
      "lat": 40.8495437,
      "lon": -73.997004,
      "osm_id": 6171872977,
      "osm_type": "node",
      "address": null,
      "road_geometry": null
    },
    {
      "name": "Shil La",
      "category": [
        "shop.hairdresser_supply"
      ],
      "lat": 40.8493055,
      "lon": -73.9966575,
      "osm_id": 6171872981,
      "osm_type": "node",
      "address": null,
      "road_geometry": null
    },
    {
      "name": "Fel Smusal",
      "category": [
        "shop.beauty"
      ],
      "lat": 40.8493573,
      "lon": -73.9966404,
      "osm_id": 6171872982,
      "osm_type": "node",
      "address": null,
      "road_geometry": null
    },
    {
      "name": "Eagle",
      "category": [
        "shop.tailor"
      ],
      "lat": 40.8494092,
      "lon": -73.9965956,
      "osm_id": 6171872983,
      "osm_type": "node",
      "address": null,
      "road_geometry": null
    },
    {
      "name": "Palisades Park Medicine",
      "category": [
        "amenity.pharmacy"
      ],
      "lat": 40.8494161,
      "lon": -73.9965086,
      "osm_id": 6171872984,
      "osm_type": "node",
      "address": null,
      "road_geometry": null
    }
  ]
}