{
  "image": "dataset/images/1254.png",
  "center_lat": 40.848423423423476,
  "center_lon": -73.93598641345788,
  "bbox": [
    -73.937475101517,
    40.84729729729735,
    -73.93449772539876,
    40.84954954954961
  ],
  "unique_categories": [
    "amenity.bicycle_rental",
    "shop.mobile_phone",
    "highway.bus_stop",
    "shop.convenience",
    "leisure.fitness_centre",
    "amenity.doctors",
    "amenity.bank",
    "amenity.restaurant",
    "amenity.dentist",
    "amenity.place_of_worship",
    "amenity.pharmacy"
  ],
  "poi_count_per_category": {
    "amenity.bicycle_rental": 1,
    "shop.mobile_phone": 1,
    "highway.bus_stop": 5,
    "shop.convenience": 1,
    "leisure.fitness_centre": 1,
    "amenity.doctors": 1,
    "amenity.bank": 2,
    "amenity.restaurant": 1,
    "amenity.dentist": 1,
    "amenity.place_of_worship": 2,
    "amenity.pharmacy": 1
  },
  "poi_count": 17,
  "pois": [
    {
      "name": "Temple of the Covenant",
      "category": [
        "amenity.place_of_worship"
      ],
      "lat": 40.8486111,
      "lon": -73.935,
      "osm_id": 357624597,
      "osm_type": "node",
      "address": null,
      "road_geometry": null
    },
    {
      "name": "Iglesia Bautista Hispana",
      "category": [
        "amenity.place_of_worship"
      ],
      "lat": 40.8478229,
      "lon": -73.9366737,
      "osm_id": 357649800,
      "osm_type": "node",
      "address": "Wadsworth Avenue",
      "road_geometry": null
    },
    {
      "name": "San Pedro Pharmacy",
      "category": [
        "amenity.pharmacy"
      ],
      "lat": 40.8482027,
      "lon": -73.9347678,
      "osm_id": 2797466255,
      "osm_type": "node",
      "address": "Saint Nicholas Avenue",
      "road_geometry": null
    },
    {
      "name": "Au Jus",
      "category": [
        "amenity.restaurant"
      ],
      "lat": 40.8492955,
      "lon": -73.9364209,
      "osm_id": 2797524092,
      "osm_type": "node",
      "address": "Broadway",
      "road_geometry": null
    },
    {
      "name": "Boost Mobile",
      "category": [
        "shop.mobile_phone"
      ],
      "lat": 40.8493518,
      "lon": -73.9363561,
      "osm_id": 2797524094,
      "osm_type": "node",
      "address": "Broadway",
      "road_geometry": null
    },
    {
      "name": "West 179th Street & Saint Nicholas Avenue",
      "category": [
        "highway.bus_stop"
      ],
      "lat": 40.8482195,
      "lon": -73.9350656,
      "osm_id": 5431126701,
      "osm_type": "node",
      "address": null,
      "road_geometry": null
    },
    {
      "name": "New Heights Oral Surgery",
      "category": [
        "amenity.dentist"
      ],
      "lat": 40.8493815,
      "lon": -73.9357674,
      "osm_id": 5798586020,
      "osm_type": "node",
      "address": "West 180th Street",
      "road_geometry": null
    },
    {
      "name": "Wadsworth Avenue & West 180th Street",
      "category": [
        "highway.bus_stop"
      ],
      "lat": 40.8492708,
      "lon": -73.9354777,
      "osm_id": 5798630379,
      "osm_type": "node",
      "address": null,
      "road_geometry": null
    },
    {
      "name": "Broadway & West 179th Street",
      "category": [
        "highway.bus_stop"
      ],
      "lat": 40.8487988,
      "lon": -73.9370012,
      "osm_id": 5798630381,
      "osm_type": "node",
      "address": null,
      "road_geometry": null
    },
    {
      "name": "Broadway & West 178th Street",
      "category": [
        "highway.bus_stop"
      ],
      "lat": 40.8485413,
      "lon": -73.9373446,
      "osm_id": 5798630388,
      "osm_type": "node",
      "address": null,
      "road_geometry": null
    },
    {
      "name": "West 179th Street & Broadway",
      "category": [
        "highway.bus_stop"
      ],
      "lat": 40.8489319,
      "lon": -73.9367474,
      "osm_id": 5798632107,
      "osm_type": "node",
      "address": null,
      "road_geometry": null
    },
    {
      "name": "Blink Fitness",
      "category": [
        "leisure.fitness_centre"
      ],
      "lat": 40.8485592,
      "lon": -73.9371551,
      "osm_id": 6244876786,
      "osm_type": "node",
      "address": "Broadway",
      "road_geometry": null
    },
    {
      "name": "Chop Cheese Deli",
      "category": [
        "shop.convenience"
      ],
      "lat": 40.8493192,
      "lon": -73.9363867,
      "osm_id": 11484284535,
      "osm_type": "node",
      "address": "Broadway",
      "road_geometry": null
    },
    {
      "name": "Wellness Center",
      "category": [
        "amenity.doctors"
      ],
      "lat": 40.8489888,
      "lon": -73.936728,
      "osm_id": 12925573367,
      "osm_type": "node",
      "address": null,
      "road_geometry": null
    },
    {
      "name": "PNC Bank",
      "category": [
        "amenity.bank"
      ],
      "lat": 40.8488134,
      "lon": -73.9369413,
      "osm_id": 12925573375,
      "osm_type": "node",
      "address": null,
      "road_geometry": null
    },
    {
      "name": "Citi Bike - Wadsworth Ave & W 179 St",
      "category": [
        "amenity.bicycle_rental"
      ],
      "lat": 40.8484856,
      "lon": -73.9361025,
      "osm_id": 12925573379,
      "osm_type": "node",
      "address": null,
      "road_geometry": null
    },
    {
      "name": "Citibank",
      "category": [
        "amenity.bank"
      ],
      "lat": 40.8484348,
      "lon": -73.9373361,
      "osm_id": 12925573391,
      "osm_type": "node",
      "address": null,
      "road_geometry": null
    }
  ]
}