{
  "image": "dataset/images/151.png",
  "center_lat": 18.941396396396392,
  "center_lon": 72.82619058756052,
  "bbox": [
    72.825,
    18.940270270270265,
    72.82738117512103,
    18.942522522522516
  ],
  "unique_categories": [
    "amenity.place_of_worship",
    "amenity.parking",
    "shop.car"
  ],
  "poi_count_per_category": {
    "amenity.place_of_worship": 1,
    "amenity.parking": 2,
    "shop.car": 1
  },
  "poi_count": 4,
  "pois": [
    {
      "name": "Premier",
      "category": [
        "amenity.parking"
      ],
      "lat": 18.942228,
      "lon": 72.8272935,
      "osm_id": 245654537,
      "osm_type": "node",
      "address": null,
      "road_geometry": null
    },
    {
      "name": "Liberty",
      "category": [
        "amenity.parking"
      ],
      "lat": 18.9424,
      "lon": 72.8269,
      "osm_id": 245654550,
      "osm_type": "node",
      "address": null,
      "road_geometry": null
    },
    {
      "name": "Syed Qadar Shah Vali",
      "category": [
        "amenity.place_of_worship"
      ],
      "lat": 18.9420804,
      "lon": 72.8272524,
      "osm_id": 1127817574,
      "osm_type": "node",
      "address": null,
      "road_geometry": null
    },
    {
      "name": "Tata Motors",
      "category": [
        "shop.car"
      ],
      "lat": 18.9416002,
      "lon": 72.8266306,
      "osm_id": 11456384978,
      "osm_type": "node",
      "address": null,
      "road_geometry": null
    }
  ]
}