{
  "image": "dataset/images/166.png",
  "center_lat": 18.945900900900895,
  "center_lon": 72.82857185905725,
  "bbox": [
    72.8273812393715,
    18.944774774774768,
    72.829762478743,
    18.94702702702702
  ],
  "unique_categories": [
    "amenity.post_office",
    "tourism.hotel",
    "highway.bus_stop",
    "shop.optician"
  ],
  "poi_count_per_category": {
    "amenity.post_office": 1,
    "tourism.hotel": 1,
    "highway.bus_stop": 2,
    "shop.optician": 1
  },
  "poi_count": 5,
  "pois": [
    {
      "name": "Sharada",
      "category": [
        "tourism.hotel"
      ],
      "lat": 18.9461969,
      "lon": 72.8274147,
      "osm_id": 245654709,
      "osm_type": "node",
      "address": null,
      "road_geometry": null
    },
    {
      "name": "Kalbadevi Post Office 400002",
      "category": [
        "amenity.post_office"
      ],
      "lat": 18.9450359,
      "lon": 72.8284002,
      "osm_id": 605221733,
      "osm_type": "node",
      "address": null,
      "road_geometry": null
    },
    {
      "name": "Kalbadevi",
      "category": [
        "highway.bus_stop"
      ],
      "lat": 18.9457299,
      "lon": 72.8291979,
      "osm_id": 9788462288,
      "osm_type": "node",
      "address": null,
      "road_geometry": null
    },
    {
      "name": "Kalbadevi",
      "category": [
        "highway.bus_stop"
      ],
      "lat": 18.9463438,
      "lon": 72.8289512,
      "osm_id": 9788462289,
      "osm_type": "node",
      "address": null,
      "road_geometry": null
    },
    {
      "name": "Ocean Eyewear Pvt Ltd. / Supreme Optics",
      "category": [
        "shop.optician"
      ],
      "lat": 18.9467143,
      "lon": 72.828779,
      "osm_id": 9879398060,
      "osm_type": "node",
      "address": "Kalbadevi Road",
      "road_geometry": null
    }
  ]
}