{
  "image": "dataset/images/249.png",
  "center_lat": 37.49637837837838,
  "center_lon": 127.03193552471392,
  "bbox": [
    127.0305161640405,
    37.49525225225226,
    127.03335488538734,
    37.49750450450451
  ],
  "unique_categories": [
    "amenity.college",
    "amenity.restaurant",
    "highway.bus_stop",
    "amenity.library",
    "amenity.cafe",
    "amenity.theatre",
    "amenity.post_office",
    "shop.grocery",
    "amenity.townhall"
  ],
  "poi_count_per_category": {
    "amenity.college": 1,
    "amenity.restaurant": 14,
    "highway.bus_stop": 1,
    "amenity.library": 1,
    "amenity.cafe": 1,
    "amenity.theatre": 2,
    "amenity.post_office": 1,
    "shop.grocery": 1,
    "amenity.townhall": 1
  },
  "poi_count": 23,
  "pois": [
    {
      "name": "\uc5ed\uc0bc\ub3c4\uc11c\uad00",
      "category": [
        "amenity.library"
      ],
      "lat": 37.4954748,
      "lon": 127.0331795,
      "osm_id": 368652537,
      "osm_type": "node",
      "address": null,
      "road_geometry": null
    },
    {
      "name": "\uc11c\uc6b8\uc5ed\uc0bc\uc6b0\uc131\uc6b0\ud3b8\ucde8\uae09\uad6d",
      "category": [
        "amenity.post_office"
      ],
      "lat": 37.4954802,
      "lon": 127.0307131,
      "osm_id": 368876095,
      "osm_type": "node",
      "address": "\ud14c\ud5e4\ub780\ub85c4\uae38",
      "road_geometry": null
    },
    {
      "name": "\uc5ed\uc0bc1\ub3d9 \uc8fc\ubbfc\uc13c\ud130",
      "category": [
        "amenity.townhall"
      ],
      "lat": 37.495394,
      "lon": 127.033108,
      "osm_id": 368898817,
      "osm_type": "node",
      "address": "\uc5ed\uc0bc\ub85c7\uae38",
      "road_geometry": null
    },
    {
      "name": "\uae08\ubaa8\ub798 (\uccad\uad6d\uc7a5\ube44\ube54\ubc25)",
      "category": [
        "amenity.restaurant"
      ],
      "lat": 37.49611,
      "lon": 127.0316825,
      "osm_id": 5735900221,
      "osm_type": "node",
      "address": null,
      "road_geometry": null
    },
    {
      "name": "Modern Chix",
      "category": [
        "amenity.restaurant"
      ],
      "lat": 37.4955214,
      "lon": 127.0316451,
      "osm_id": 7207587185,
      "osm_type": "node",
      "address": null,
      "road_geometry": null
    },
    {
      "name": "sundae soups blood sausage",
      "category": [
        "amenity.restaurant"
      ],
      "lat": 37.49526,
      "lon": 127.0314021,
      "osm_id": 7207608487,
      "osm_type": "node",
      "address": null,
      "road_geometry": null
    },
    {
      "name": "Modern Chicken",
      "category": [
        "amenity.restaurant"
      ],
      "lat": 37.495564,
      "lon": 127.031606,
      "osm_id": 7207608986,
      "osm_type": "node",
      "address": null,
      "road_geometry": null
    },
    {
      "name": "Ungteori Saenggogi Bbq AUCE",
      "category": [
        "amenity.restaurant"
      ],
      "lat": 37.4962923,
      "lon": 127.0305572,
      "osm_id": 7213805085,
      "osm_type": "node",
      "address": null,
      "road_geometry": null
    },
    {
      "name": "Ungteori saenggori,AUCE bbq",
      "category": [
        "amenity.restaurant"
      ],
      "lat": 37.4962879,
      "lon": 127.0305838,
      "osm_id": 7217586385,
      "osm_type": "node",
      "address": null,
      "road_geometry": null
    },
    {
      "name": "Jangseoneun Nal, Bossam, Gangnam",
      "category": [
        "amenity.restaurant"
      ],
      "lat": 37.4954084,
      "lon": 127.0313944,
      "osm_id": 7221968785,
      "osm_type": "node",
      "address": null,
      "road_geometry": null
    },
    {
      "name": "Jangseoneun nal,Bossam",
      "category": [
        "amenity.restaurant"
      ],
      "lat": 37.4954009,
      "lon": 127.0314201,
      "osm_id": 7222067085,
      "osm_type": "node",
      "address": null,
      "road_geometry": null
    },
    {
      "name": "\uc218\uc6d0\uacfc\ud559\ub300\ud559\uad50",
      "category": [
        "amenity.college"
      ],
      "lat": 37.496103,
      "lon": 127.0332313,
      "osm_id": 7895730386,
      "osm_type": "node",
      "address": null,
      "road_geometry": null
    },
    {
      "name": "\ud54f\ub098\uc778\ucf54\ub9ac\uc544",
      "category": [
        "shop.grocery"
      ],
      "lat": 37.4966089,
      "lon": 127.0310799,
      "osm_id": 9889570664,
      "osm_type": "node",
      "address": "\ud14c\ud5e4\ub780\ub85c6\uae38",
      "road_geometry": null
    },
    {
      "name": "LA \ub77c\ud2f4 \ubc14(LA Latin bar)",
      "category": [
        "amenity.restaurant"
      ],
      "lat": 37.4954403,
      "lon": 127.0312963,
      "osm_id": 12074266867,
      "osm_type": "node",
      "address": "\uac15\ub0a8\ub300\ub85c78\uae38",
      "road_geometry": null
    },
    {
      "name": "\ud321\ubba4\uc81c \ubca0\uc774\ucee4\ub9ac \uac15\ub0a8\ubcf8\uc810",
      "category": [
        "amenity.cafe"
      ],
      "lat": 37.4963534,
      "lon": 127.0320282,
      "osm_id": 12074365630,
      "osm_type": "node",
      "address": "\ud14c\ud5e4\ub780\ub85c8\uae38",
      "road_geometry": null
    },
    {
      "name": "\uc624\ubaa9\uc9d1 \uc5ed\uc0bc\uc810",
      "category": [
        "amenity.restaurant"
      ],
      "lat": 37.496998,
      "lon": 127.0309531,
      "osm_id": 12074558752,
      "osm_type": "node",
      "address": "\uac15\ub0a8\ub300\ub85c84\uae38",
      "road_geometry": null
    },
    {
      "name": "\uc911\uacbd\ub9c8\ub77c\ud0d5",
      "category": [
        "amenity.restaurant"
      ],
      "lat": 37.4953896,
      "lon": 127.0312438,
      "osm_id": 12074578173,
      "osm_type": "node",
      "address": null,
      "road_geometry": null
    },
    {
      "name": "\uba85\ub3d9\uce7c\uad6d\uc218",
      "category": [
        "amenity.restaurant"
      ],
      "lat": 37.4970537,
      "lon": 127.0311258,
      "osm_id": 12074578174,
      "osm_type": "node",
      "address": null,
      "road_geometry": null
    },
    {
      "name": "\ub77c\uc2a4\ubc14",
      "category": [
        "amenity.restaurant"
      ],
      "lat": 37.4971764,
      "lon": 127.0315407,
      "osm_id": 12074598571,
      "osm_type": "node",
      "address": "\uac15\ub0a8\ub300\ub85c84\uae38",
      "road_geometry": null
    },
    {
      "name": "\uc5ed\uc0bc1\ub3d9\uc8fc\ubbfc\uc13c\ud130",
      "category": [
        "highway.bus_stop"
      ],
      "lat": 37.4965631,
      "lon": 127.0323073,
      "osm_id": 12232162052,
      "osm_type": "node",
      "address": null,
      "road_geometry": null
    },
    {
      "name": "\uac15\ub0a8\ubd88\ubc31",
      "category": [
        "amenity.restaurant"
      ],
      "lat": 37.495443,
      "lon": 127.0314701,
      "osm_id": 13509513930,
      "osm_type": "node",
      "address": "\uac15\ub0a8\ub300\ub85c78\uae38",
      "road_geometry": null
    },
    {
      "name": "\ub450\ub0a8\uc7ac\uc544\ud2b8\ud640",
      "category": [
        "amenity.theatre"
      ],
      "lat": 37.4955597,
      "lon": 127.0311024,
      "osm_id": 13690021681,
      "osm_type": "node",
      "address": "\ud14c\ud5e4\ub780\ub85c4\uae38",
      "road_geometry": null
    },
    {
      "name": "\uac15\ub0a8\uc528\uc5b4\ud130",
      "category": [
        "amenity.theatre"
      ],
      "lat": 37.4953072,
      "lon": 127.0332769,
      "osm_id": 13690021695,
      "osm_type": "node",
      "address": "\uc5ed\uc0bc\ub85c7\uae38",
      "road_geometry": null
    }
  ]
}