{
  "image": "dataset/images/256.png",
  "center_lat": 37.50088288288289,
  "center_lon": 127.02909723146347,
  "bbox": [
    127.02767778517078,
    37.49975675675677,
    127.03051667775617,
    37.50200900900902
  ],
  "unique_categories": [
    "amenity.school",
    "amenity.restaurant",
    "amenity.cafe",
    "amenity.bar"
  ],
  "poi_count_per_category": {
    "amenity.school": 1,
    "amenity.restaurant": 23,
    "amenity.cafe": 2,
    "amenity.bar": 2
  },
  "poi_count": 28,
  "pois": [
    {
      "name": "The Booth 2",
      "category": [
        "amenity.bar"
      ],
      "lat": 37.5004987,
      "lon": 127.0277735,
      "osm_id": 4250475281,
      "osm_type": "node",
      "address": null,
      "road_geometry": null
    },
    {
      "name": "\uad6d\uae30\uc6d0",
      "category": [
        "amenity.school"
      ],
      "lat": 37.5019759,
      "lon": 127.0302111,
      "osm_id": 4352439393,
      "osm_type": "node",
      "address": null,
      "road_geometry": null
    },
    {
      "name": "\ube0c\ub77c\uc6b4\ud640\ub9ad",
      "category": [
        "amenity.cafe"
      ],
      "lat": 37.5010184,
      "lon": 127.0288833,
      "osm_id": 7160228385,
      "osm_type": "node",
      "address": "\uac15\ub0a8\ub300\ub85c98\uae38",
      "road_geometry": null
    },
    {
      "name": "\ube0c\ub77c\uc6b4\ud640\ub9ad",
      "category": [
        "amenity.cafe"
      ],
      "lat": 37.5010383,
      "lon": 127.0286588,
      "osm_id": 7160263485,
      "osm_type": "node",
      "address": "\uac15\ub0a8\ub300\ub85c98\uae38",
      "road_geometry": null
    },
    {
      "name": "seorae BBQ pork",
      "category": [
        "amenity.restaurant"
      ],
      "lat": 37.5001002,
      "lon": 127.0284171,
      "osm_id": 7206067685,
      "osm_type": "node",
      "address": null,
      "road_geometry": null
    },
    {
      "name": "Porridge",
      "category": [
        "amenity.restaurant"
      ],
      "lat": 37.4998012,
      "lon": 127.0292081,
      "osm_id": 7206082885,
      "osm_type": "node",
      "address": null,
      "road_geometry": null
    },
    {
      "name": "porridge",
      "category": [
        "amenity.restaurant"
      ],
      "lat": 37.4997835,
      "lon": 127.0291838,
      "osm_id": 7206082886,
      "osm_type": "node",
      "address": null,
      "road_geometry": null
    },
    {
      "name": "yoogane",
      "category": [
        "amenity.restaurant"
      ],
      "lat": 37.5000501,
      "lon": 127.0276816,
      "osm_id": 7206084285,
      "osm_type": "node",
      "address": null,
      "road_geometry": null
    },
    {
      "name": "AUCE beef bbq",
      "category": [
        "amenity.restaurant"
      ],
      "lat": 37.4998687,
      "lon": 127.0284892,
      "osm_id": 7206144985,
      "osm_type": "node",
      "address": null,
      "road_geometry": null
    },
    {
      "name": "Ugly Stove, pasta",
      "category": [
        "amenity.restaurant"
      ],
      "lat": 37.5008348,
      "lon": 127.0282956,
      "osm_id": 7207625385,
      "osm_type": "node",
      "address": null,
      "road_geometry": null
    },
    {
      "name": "Ugly Stove pasta",
      "category": [
        "amenity.restaurant"
      ],
      "lat": 37.5008164,
      "lon": 127.0282662,
      "osm_id": 7211117987,
      "osm_type": "node",
      "address": null,
      "road_geometry": null
    },
    {
      "name": "Tam Tam Viet noodle",
      "category": [
        "amenity.restaurant"
      ],
      "lat": 37.5004003,
      "lon": 127.0279865,
      "osm_id": 7211126385,
      "osm_type": "node",
      "address": "\uac15\ub0a8\ub300\ub85c98\uae38",
      "road_geometry": null
    },
    {
      "name": "\uc62c\ub9ac\uc5b8\uc98882 \uac15\ub0a8\uc810",
      "category": [
        "amenity.restaurant"
      ],
      "lat": 37.5008806,
      "lon": 127.028679,
      "osm_id": 11518426203,
      "osm_type": "node",
      "address": "\uac15\ub0a8\ub300\ub85c98\uae38",
      "road_geometry": null
    },
    {
      "name": "\uace0\uc218\ub2ed\uac08\ube44",
      "category": [
        "amenity.restaurant"
      ],
      "lat": 37.4998174,
      "lon": 127.0281463,
      "osm_id": 12073326408,
      "osm_type": "node",
      "address": "\uac15\ub0a8\ub300\ub85c96\uae38",
      "road_geometry": null
    },
    {
      "name": "\uc544\uc2e4\ub77c",
      "category": [
        "amenity.restaurant"
      ],
      "lat": 37.5008401,
      "lon": 127.0281853,
      "osm_id": 12074307273,
      "osm_type": "node",
      "address": "\uac15\ub0a8\ub300\ub85c98\uae38",
      "road_geometry": null
    },
    {
      "name": "187\ud638",
      "category": [
        "amenity.restaurant"
      ],
      "lat": 37.5001192,
      "lon": 127.0280777,
      "osm_id": 12074314882,
      "osm_type": "node",
      "address": "\uac15\ub0a8\ub300\ub85c98\uae38",
      "road_geometry": null
    },
    {
      "name": "\uc2e0\ubd80\uc790\uc2dd\ub2f9",
      "category": [
        "amenity.restaurant"
      ],
      "lat": 37.4998573,
      "lon": 127.0277347,
      "osm_id": 12074465845,
      "osm_type": "node",
      "address": "\uac15\ub0a8\ub300\ub85c96\uae38",
      "road_geometry": null
    },
    {
      "name": "\ube44\ub514\ubc84\uac70 \uac15\ub0a8",
      "category": [
        "amenity.restaurant"
      ],
      "lat": 37.4997666,
      "lon": 127.0291803,
      "osm_id": 12074582321,
      "osm_type": "node",
      "address": "\uac15\ub0a8\ub300\ub85c94\uae38",
      "road_geometry": null
    },
    {
      "name": "\uc9c1\ud654\uc804\ubb38\uc810 \ubbf8\uc2a4\ud130\uc655\uc655",
      "category": [
        "amenity.restaurant"
      ],
      "lat": 37.500118,
      "lon": 127.0283792,
      "osm_id": 12074582638,
      "osm_type": "node",
      "address": null,
      "road_geometry": null
    },
    {
      "name": "\uc744\uc9c0\ub2e4\ub77d \uac15\ub0a8",
      "category": [
        "amenity.restaurant"
      ],
      "lat": 37.4999733,
      "lon": 127.0287762,
      "osm_id": 12074582639,
      "osm_type": "node",
      "address": null,
      "road_geometry": null
    },
    {
      "name": "\uc54c\ubd80\uc790",
      "category": [
        "amenity.restaurant"
      ],
      "lat": 37.5006968,
      "lon": 127.0278803,
      "osm_id": 12074582642,
      "osm_type": "node",
      "address": null,
      "road_geometry": null
    },
    {
      "name": "\ucd98\ucc9c\uc22f\ubd88\ub2ed\uac08\ube44",
      "category": [
        "amenity.restaurant"
      ],
      "lat": 37.5001073,
      "lon": 127.0280645,
      "osm_id": 12074597823,
      "osm_type": "node",
      "address": "\uac15\ub0a8\ub300\ub85c96\uae38",
      "road_geometry": null
    },
    {
      "name": "(\uc8fc)\uc6d0\uc870\ubd80\uc548\uc9d1\uac15\ub0a8\uc810",
      "category": [
        "amenity.restaurant"
      ],
      "lat": 37.5001611,
      "lon": 127.0285852,
      "osm_id": 12074604341,
      "osm_type": "node",
      "address": "\uac15\ub0a8\ub300\ub85c96\uae38",
      "road_geometry": null
    },
    {
      "name": "\ub4c0\ub840\uc220",
      "category": [
        "amenity.restaurant"
      ],
      "lat": 37.499961,
      "lon": 127.0281136,
      "osm_id": 12074609598,
      "osm_type": "node",
      "address": "\uac15\ub0a8\ub300\ub85c96\uae38",
      "road_geometry": null
    },
    {
      "name": "88\ub178\uac00\ub9ac \uac15\ub0a8",
      "category": [
        "amenity.restaurant"
      ],
      "lat": 37.4998453,
      "lon": 127.0284715,
      "osm_id": 12074733257,
      "osm_type": "node",
      "address": "\uac15\ub0a8\ub300\ub85c96\uae38",
      "road_geometry": null
    },
    {
      "name": "\uba58\ub178\uc544\uc9c0 \uac15\ub0a8\ubcf8\uc810",
      "category": [
        "amenity.restaurant"
      ],
      "lat": 37.4998728,
      "lon": 127.0296244,
      "osm_id": 12074784710,
      "osm_type": "node",
      "address": "\uac15\ub0a8\ub300\ub85c94\uae38",
      "road_geometry": null
    },
    {
      "name": "\ud558\uc774\ud37c",
      "category": [
        "amenity.restaurant"
      ],
      "lat": 37.5000935,
      "lon": 127.0282572,
      "osm_id": 12074790687,
      "osm_type": "node",
      "address": "\uac15\ub0a8\ub300\ub85c96\uae38",
      "road_geometry": null
    },
    {
      "name": "ZooSinDang Gangnam Cocktail Bar",
      "category": [
        "amenity.bar"
      ],
      "lat": 37.4999066,
      "lon": 127.0277638,
      "osm_id": 12468525401,
      "osm_type": "node",
      "address": null,
      "road_geometry": null
    }
  ]
}