{
  "image": "dataset/images/267.png",
  "center_lat": -23.568873873873873,
  "center_lon": -46.65148509410031,
  "bbox": [
    -46.65271372190937,
    -23.57,
    -46.650256466291246,
    -23.56774774774775
  ],
  "unique_categories": [
    "amenity.parking",
    "shop.confectionery",
    "amenity.cafe",
    "shop.newsagent",
    "shop.optician",
    "shop.hairdresser"
  ],
  "poi_count_per_category": {
    "amenity.parking": 1,
    "shop.confectionery": 1,
    "amenity.cafe": 1,
    "shop.newsagent": 1,
    "shop.optician": 1,
    "shop.hairdresser": 1
  },
  "poi_count": 6,
  "pois": [
    {
      "name": "Alfajores Itati",
      "category": [
        "shop.confectionery"
      ],
      "lat": -23.5699902,
      "lon": -46.6516763,
      "osm_id": 1059531008,
      "osm_type": "node",
      "address": "Alameda Fern\u00e3o Cardim",
      "road_geometry": null
    },
    {
      "name": "Teca",
      "category": [
        "shop.hairdresser"
      ],
      "lat": -23.5698577,
      "lon": -46.6521874,
      "osm_id": 1059531015,
      "osm_type": "node",
      "address": "Alameda Fern\u00e3o Cardim",
      "road_geometry": null
    },
    {
      "name": "Alamedas",
      "category": [
        "shop.newsagent"
      ],
      "lat": -23.5693624,
      "lon": -46.6508622,
      "osm_id": 2740809231,
      "osm_type": "node",
      "address": "Alameda Ja\u00fa",
      "road_geometry": null
    },
    {
      "name": "Toque de Caf\u00e9",
      "category": [
        "amenity.cafe"
      ],
      "lat": -23.5691411,
      "lon": -46.6506248,
      "osm_id": 4683209991,
      "osm_type": "node",
      "address": "Avenida Brigadeiro Lu\u00eds Ant\u00f4nio",
      "road_geometry": null
    },
    {
      "name": "Progress Park",
      "category": [
        "amenity.parking"
      ],
      "lat": -23.5690403,
      "lon": -46.6504579,
      "osm_id": 4683297789,
      "osm_type": "node",
      "address": "Avenida Brigadeiro Lu\u00eds Ant\u00f4nio",
      "road_geometry": null
    },
    {
      "name": "\u00d3tica da Villa",
      "category": [
        "shop.optician"
      ],
      "lat": -23.5690952,
      "lon": -46.6505699,
      "osm_id": 11341891457,
      "osm_type": "node",
      "address": "Avenida Brigadeiro Lu\u00eds Ant\u00f4nio",
      "road_geometry": null
    }
  ]
}