{
  "image": "dataset/images/273.png",
  "center_lat": -23.56662162162162,
  "center_lon": -46.65885696629849,
  "bbox": [
    -46.66008557303879,
    -23.56774774774775,
    -46.65762835955819,
    -23.565495495495497
  ],
  "unique_categories": [
    "highway.bus_stop",
    "amenity.bank",
    "amenity.cafe",
    "tourism.museum"
  ],
  "poi_count_per_category": {
    "highway.bus_stop": 2,
    "amenity.bank": 1,
    "amenity.cafe": 1,
    "tourism.museum": 1
  },
  "poi_count": 5,
  "pois": [
    {
      "name": "Parada Jos\u00e9 Maria Lisboa",
      "category": [
        "highway.bus_stop"
      ],
      "lat": -23.5673908,
      "lon": -46.6593413,
      "osm_id": 4062167669,
      "osm_type": "node",
      "address": "Avenida Nove de Julho",
      "road_geometry": null
    },
    {
      "name": "Parada Jos\u00e9 Maria Lisboa",
      "category": [
        "highway.bus_stop"
      ],
      "lat": -23.5667463,
      "lon": -46.6587241,
      "osm_id": 4062167670,
      "osm_type": "node",
      "address": "Avenida Nove de Julho",
      "road_geometry": null
    },
    {
      "name": "Museu Xingu",
      "category": [
        "tourism.museum"
      ],
      "lat": -23.5664017,
      "lon": -46.6592644,
      "osm_id": 11394310889,
      "osm_type": "node",
      "address": null,
      "road_geometry": null
    },
    {
      "name": "C6",
      "category": [
        "amenity.bank"
      ],
      "lat": -23.5668732,
      "lon": -46.6585552,
      "osm_id": 12132476845,
      "osm_type": "node",
      "address": null,
      "road_geometry": null
    },
    {
      "name": "Alameda",
      "category": [
        "amenity.cafe"
      ],
      "lat": -23.5667784,
      "lon": -46.6591443,
      "osm_id": 12132528520,
      "osm_type": "node",
      "address": null,
      "road_geometry": null
    }
  ]
}