{
  "image": "dataset/images/289.png",
  "center_lat": -23.56211711711712,
  "center_lon": -46.66377143538935,
  "bbox": [
    -46.665,
    -23.563243243243246,
    -46.66254287077871,
    -23.560990990990994
  ],
  "unique_categories": [
    "amenity.bicycle_rental",
    "shop.convenience",
    "amenity.taxi",
    "highway.bus_stop",
    "amenity.restaurant",
    "amenity.language_school",
    "shop.newsagent",
    "shop.mall"
  ],
  "poi_count_per_category": {
    "amenity.bicycle_rental": 1,
    "shop.convenience": 1,
    "amenity.taxi": 2,
    "highway.bus_stop": 2,
    "amenity.restaurant": 2,
    "amenity.language_school": 1,
    "shop.newsagent": 1,
    "shop.mall": 1
  },
  "poi_count": 11,
  "pois": [
    {
      "name": "Galeria Am\u00e9rica",
      "category": [
        "shop.mall"
      ],
      "lat": -23.5612929,
      "lon": -46.6634283,
      "osm_id": 4995170425,
      "osm_type": "node",
      "address": "Rua Augusta",
      "road_geometry": null
    },
    {
      "name": "Ponto de T\u00e1xi Franca",
      "category": [
        "amenity.taxi"
      ],
      "lat": -23.5625992,
      "lon": -46.6627371,
      "osm_id": 5635274739,
      "osm_type": "node",
      "address": "Alameda Franca",
      "road_geometry": null
    },
    {
      "name": "Banca Robres",
      "category": [
        "shop.newsagent"
      ],
      "lat": -23.5626602,
      "lon": -46.6626672,
      "osm_id": 5635274740,
      "osm_type": "node",
      "address": "Alameda Franca",
      "road_geometry": null
    },
    {
      "name": "Poke Me Up Jardins",
      "category": [
        "amenity.restaurant"
      ],
      "lat": -23.562244,
      "lon": -46.6631388,
      "osm_id": 5635274743,
      "osm_type": "node",
      "address": "Alameda Franca",
      "road_geometry": null
    },
    {
      "name": "Ponto de T\u00e1xi Alameda Franca",
      "category": [
        "amenity.taxi"
      ],
      "lat": -23.5616979,
      "lon": -46.6637551,
      "osm_id": 5635274779,
      "osm_type": "node",
      "address": "Alameda Franca",
      "road_geometry": null
    },
    {
      "name": "Rua Augusta, 2212",
      "category": [
        "highway.bus_stop"
      ],
      "lat": -23.5611774,
      "lon": -46.6635214,
      "osm_id": 5635696752,
      "osm_type": "node",
      "address": "Rua Augusta",
      "road_geometry": null
    },
    {
      "name": "Oxxo",
      "category": [
        "shop.convenience"
      ],
      "lat": -23.5616656,
      "lon": -46.6640552,
      "osm_id": 5636228956,
      "osm_type": "node",
      "address": "Rua Augusta",
      "road_geometry": null
    },
    {
      "name": "Rua Augusta, 2293",
      "category": [
        "highway.bus_stop"
      ],
      "lat": -23.5619425,
      "lon": -46.6641196,
      "osm_id": 5648011292,
      "osm_type": "node",
      "address": "Rua Augusta",
      "road_geometry": null
    },
    {
      "name": "Lanchonete Da Cidade",
      "category": [
        "amenity.restaurant"
      ],
      "lat": -23.5628827,
      "lon": -46.6646724,
      "osm_id": 5648011827,
      "osm_type": "node",
      "address": "Alameda Tiet\u00ea",
      "road_geometry": null
    },
    {
      "name": "Augusta",
      "category": [
        "amenity.bicycle_rental"
      ],
      "lat": -23.5628359,
      "lon": -46.6649116,
      "osm_id": 11135381341,
      "osm_type": "node",
      "address": null,
      "road_geometry": null
    },
    {
      "name": "CNA",
      "category": [
        "amenity.language_school"
      ],
      "lat": -23.5610512,
      "lon": -46.6631665,
      "osm_id": 11885035177,
      "osm_type": "node",
      "address": null,
      "road_geometry": null
    }
  ]
}