{
  "image": "dataset/images/292.png",
  "center_lat": -23.56211711711712,
  "center_lon": -46.65640004772548,
  "bbox": [
    -46.657628612336126,
    -23.563243243243246,
    -46.655171483114835,
    -23.560990990990994
  ],
  "unique_categories": [
    "tourism.artwork",
    "amenity.restaurant",
    "amenity.taxi",
    "amenity.parking",
    "highway.bus_stop",
    "shop.electronics",
    "amenity.cafe",
    "shop.chocolate",
    "amenity.bar",
    "amenity.fast_food",
    "shop.newsagent",
    "shop.optician",
    "amenity.bank",
    "amenity.police"
  ],
  "poi_count_per_category": {
    "tourism.artwork": 4,
    "amenity.restaurant": 3,
    "amenity.taxi": 1,
    "amenity.parking": 1,
    "highway.bus_stop": 1,
    "shop.electronics": 1,
    "amenity.cafe": 3,
    "shop.chocolate": 1,
    "amenity.bar": 1,
    "amenity.fast_food": 1,
    "shop.newsagent": 3,
    "shop.optician": 1,
    "amenity.bank": 3,
    "amenity.police": 1
  },
  "poi_count": 25,
  "pois": [
    {
      "name": "Fauno",
      "category": [
        "tourism.artwork"
      ],
      "lat": -23.5621635,
      "lon": -46.6569597,
      "osm_id": 2081876309,
      "osm_type": "node",
      "address": null,
      "road_geometry": null
    },
    {
      "name": "Joaquim Eugenio de Lima",
      "category": [
        "tourism.artwork"
      ],
      "lat": -23.5618685,
      "lon": -46.6567724,
      "osm_id": 2081876311,
      "osm_type": "node",
      "address": null,
      "road_geometry": null
    },
    {
      "name": "Starbucks",
      "category": [
        "amenity.cafe"
      ],
      "lat": -23.562291,
      "lon": -46.6557866,
      "osm_id": 2576273169,
      "osm_type": "node",
      "address": "Avenida Paulista",
      "road_geometry": null
    },
    {
      "name": "Bradesco",
      "category": [
        "amenity.bank"
      ],
      "lat": -23.5627548,
      "lon": -46.6552616,
      "osm_id": 3621336517,
      "osm_type": "node",
      "address": "Avenida Paulista",
      "road_geometry": null
    },
    {
      "name": "Banco do Brasil",
      "category": [
        "amenity.bank"
      ],
      "lat": -23.5620516,
      "lon": -46.655403,
      "osm_id": 3621336519,
      "osm_type": "node",
      "address": "Avenida Paulista",
      "road_geometry": null
    },
    {
      "name": "Banca Trianon I",
      "category": [
        "shop.newsagent"
      ],
      "lat": -23.5611379,
      "lon": -46.6569919,
      "osm_id": 4128424722,
      "osm_type": "node",
      "address": "Avenida Paulista",
      "road_geometry": null
    },
    {
      "name": "Banca M & Z",
      "category": [
        "shop.newsagent"
      ],
      "lat": -23.5611996,
      "lon": -46.6564955,
      "osm_id": 4128426249,
      "osm_type": "node",
      "address": "Avenida Paulista",
      "road_geometry": null
    },
    {
      "name": "Banca Trianon II",
      "category": [
        "shop.newsagent"
      ],
      "lat": -23.5619728,
      "lon": -46.6560579,
      "osm_id": 4128426896,
      "osm_type": "node",
      "address": "Avenida Paulista",
      "road_geometry": null
    },
    {
      "name": "Chocolates Brasil Cacau",
      "category": [
        "shop.chocolate"
      ],
      "lat": -23.5623318,
      "lon": -46.6557311,
      "osm_id": 4128501339,
      "osm_type": "node",
      "address": "Avenida Paulista",
      "road_geometry": null
    },
    {
      "name": "Bar e Lanchonete Petite",
      "category": [
        "amenity.fast_food"
      ],
      "lat": -23.5624185,
      "lon": -46.6556542,
      "osm_id": 4128501814,
      "osm_type": "node",
      "address": "Avenida Paulista",
      "road_geometry": null
    },
    {
      "name": "\u00d3tica Pr\u00f3-vis\u00e3o",
      "category": [
        "shop.optician"
      ],
      "lat": -23.5624807,
      "lon": -46.6555739,
      "osm_id": 4128501815,
      "osm_type": "node",
      "address": "Avenida Paulista",
      "road_geometry": null
    },
    {
      "name": "Est\u00e1tua de Anhanguera",
      "category": [
        "tourism.artwork"
      ],
      "lat": -23.5617858,
      "lon": -46.6562454,
      "osm_id": 4272498210,
      "osm_type": "node",
      "address": null,
      "road_geometry": null
    },
    {
      "name": "Charme da Paulista",
      "category": [
        "amenity.bar"
      ],
      "lat": -23.5622306,
      "lon": -46.6558687,
      "osm_id": 4535431189,
      "osm_type": "node",
      "address": "Avenida Paulista",
      "road_geometry": null
    },
    {
      "name": "Banco Sofisa",
      "category": [
        "amenity.bank"
      ],
      "lat": -23.5631532,
      "lon": -46.656295,
      "osm_id": 4940939104,
      "osm_type": "node",
      "address": "Alameda Santos",
      "road_geometry": null
    },
    {
      "name": "Car Park",
      "category": [
        "amenity.parking"
      ],
      "lat": -23.562622,
      "lon": -46.656318,
      "osm_id": 4940939109,
      "osm_type": "node",
      "address": "Alameda Casa Branca",
      "road_geometry": null
    },
    {
      "name": "Benjamin",
      "category": [
        "amenity.restaurant"
      ],
      "lat": -23.5624981,
      "lon": -46.6555514,
      "osm_id": 4940939114,
      "osm_type": "node",
      "address": "Avenida Paulista",
      "road_geometry": null
    },
    {
      "name": "BubbleKill",
      "category": [
        "amenity.cafe"
      ],
      "lat": -23.5624509,
      "lon": -46.6556124,
      "osm_id": 4940939115,
      "osm_type": "node",
      "address": "Avenida Paulista",
      "road_geometry": null
    },
    {
      "name": "MASP Suplicy",
      "category": [
        "amenity.cafe"
      ],
      "lat": -23.5618,
      "lon": -46.6558,
      "osm_id": 5266167426,
      "osm_type": "node",
      "address": null,
      "road_geometry": null
    },
    {
      "name": "Ponto de T\u00e1xi Casa Branca",
      "category": [
        "amenity.taxi"
      ],
      "lat": -23.5632296,
      "lon": -46.656502,
      "osm_id": 5622547039,
      "osm_type": "node",
      "address": "Alameda Santos",
      "road_geometry": null
    },
    {
      "name": "Avenida Paulista, 1578",
      "category": [
        "highway.bus_stop"
      ],
      "lat": -23.5616836,
      "lon": -46.6565685,
      "osm_id": 5629326001,
      "osm_type": "node",
      "address": "Avenida Paulista",
      "road_geometry": null
    },
    {
      "name": "Aretuza",
      "category": [
        "tourism.artwork"
      ],
      "lat": -23.5621318,
      "lon": -46.6572552,
      "osm_id": 9223973118,
      "osm_type": "node",
      "address": null,
      "road_geometry": null
    },
    {
      "name": "Booz Restaurante",
      "category": [
        "amenity.restaurant"
      ],
      "lat": -23.5629149,
      "lon": -46.6565761,
      "osm_id": 11292341301,
      "osm_type": "node",
      "address": "Alameda Santos",
      "road_geometry": null
    },
    {
      "name": "KriptoBR",
      "category": [
        "shop.electronics"
      ],
      "lat": -23.5610596,
      "lon": -46.6563944,
      "osm_id": 11588995542,
      "osm_type": "node",
      "address": "Avenida Paulista",
      "road_geometry": null
    },
    {
      "name": "Base Comunit\u00e1ria de Seguran\u00e7a",
      "category": [
        "amenity.police"
      ],
      "lat": -23.5618442,
      "lon": -46.6563185,
      "osm_id": 12622165203,
      "osm_type": "node",
      "address": "Avenida Paulista",
      "road_geometry": null
    },
    {
      "name": "A Baianeira MASP",
      "category": [
        "amenity.restaurant"
      ],
      "lat": -23.56186,
      "lon": -46.6554609,
      "osm_id": 13427169499,
      "osm_type": "node",
      "address": null,
      "road_geometry": null
    }
  ]
}