{
  "image": "dataset/images/293.png",
  "center_lat": -23.56211711711712,
  "center_lon": -46.653942918504185,
  "bbox": [
    -46.655171483114835,
    -23.563243243243246,
    -46.65271435389354,
    -23.560990990990994
  ],
  "unique_categories": [
    "amenity.pub",
    "railway.subway_entrance",
    "amenity.taxi",
    "highway.bus_stop",
    "amenity.parking",
    "railway.stop",
    "amenity.courthouse",
    "amenity.studio",
    "shop.newsagent",
    "amenity.bank",
    "shop.shoes"
  ],
  "poi_count_per_category": {
    "amenity.pub": 1,
    "railway.subway_entrance": 2,
    "amenity.taxi": 1,
    "highway.bus_stop": 2,
    "amenity.parking": 1,
    "railway.stop": 1,
    "amenity.courthouse": 1,
    "amenity.studio": 1,
    "shop.newsagent": 2,
    "amenity.bank": 4,
    "shop.shoes": 2
  },
  "poi_count": 18,
  "pois": [
    {
      "name": "Trianon-Masp",
      "category": [
        "railway.stop"
      ],
      "lat": -23.5632422,
      "lon": -46.6541854,
      "osm_id": 605663490,
      "osm_type": "node",
      "address": null,
      "road_geometry": null
    },
    {
      "name": "Choperia Op\u00e7\u00e3o",
      "category": [
        "amenity.pub"
      ],
      "lat": -23.5615009,
      "lon": -46.6550971,
      "osm_id": 1722488734,
      "osm_type": "node",
      "address": "Rua Carlos Comenale",
      "road_geometry": null
    },
    {
      "name": "Ita\u00fa Personalite",
      "category": [
        "amenity.bank"
      ],
      "lat": -23.5631698,
      "lon": -46.6540023,
      "osm_id": 3232289422,
      "osm_type": "node",
      "address": "Avenida Paulista",
      "road_geometry": null
    },
    {
      "name": "Banco Santander",
      "category": [
        "amenity.bank"
      ],
      "lat": -23.562578,
      "lon": -46.6547644,
      "osm_id": 3621336516,
      "osm_type": "node",
      "address": "Avenida Paulista",
      "road_geometry": null
    },
    {
      "name": "Bradesco",
      "category": [
        "amenity.bank"
      ],
      "lat": -23.5622367,
      "lon": -46.6550988,
      "osm_id": 3621336518,
      "osm_type": "node",
      "address": "Avenida Paulista",
      "road_geometry": null
    },
    {
      "name": "Metro Trianon Masp",
      "category": [
        "railway.subway_entrance"
      ],
      "lat": -23.5632144,
      "lon": -46.6541252,
      "osm_id": 4128591474,
      "osm_type": "node",
      "address": "Avenida Paulista",
      "road_geometry": null
    },
    {
      "name": "Banca III Mil\u00eanio",
      "category": [
        "shop.newsagent"
      ],
      "lat": -23.5629354,
      "lon": -46.6549211,
      "osm_id": 4128627115,
      "osm_type": "node",
      "address": "Avenida Paulista",
      "road_geometry": null
    },
    {
      "name": "Banca Trianon Masp",
      "category": [
        "shop.newsagent"
      ],
      "lat": -23.5631491,
      "lon": -46.6541834,
      "osm_id": 4128627121,
      "osm_type": "node",
      "address": "Avenida Paulista",
      "road_geometry": null
    },
    {
      "name": "Metro Trianon Masp",
      "category": [
        "railway.subway_entrance"
      ],
      "lat": -23.5629177,
      "lon": -46.6544743,
      "osm_id": 4128724905,
      "osm_type": "node",
      "address": "Avenida Paulista",
      "road_geometry": null
    },
    {
      "name": "Bradesco",
      "category": [
        "amenity.bank"
      ],
      "lat": -23.5620417,
      "lon": -46.6546103,
      "osm_id": 4940478529,
      "osm_type": "node",
      "address": "Rua Itapeva",
      "road_geometry": null
    },
    {
      "name": "Juizado Especial Federal",
      "category": [
        "amenity.courthouse"
      ],
      "lat": -23.56317,
      "lon": -46.6547939,
      "osm_id": 4940940121,
      "osm_type": "node",
      "address": "Avenida Paulista",
      "road_geometry": null
    },
    {
      "name": "Estapar",
      "category": [
        "amenity.parking"
      ],
      "lat": -23.56213,
      "lon": -46.6543846,
      "osm_id": 4944958600,
      "osm_type": "node",
      "address": "Rua Itapeva",
      "road_geometry": null
    },
    {
      "name": "CNN Brasil",
      "category": [
        "amenity.studio"
      ],
      "lat": -23.5626894,
      "lon": -46.6544667,
      "osm_id": 6587487403,
      "osm_type": "node",
      "address": "Avenida Paulista",
      "road_geometry": null
    },
    {
      "name": "Ponto de T\u00e1xi 24 Horas",
      "category": [
        "amenity.taxi"
      ],
      "lat": -23.5611691,
      "lon": -46.6538186,
      "osm_id": 7824046635,
      "osm_type": "node",
      "address": "Rua Itapeva",
      "road_geometry": null
    },
    {
      "name": "Viad. Bernardino Tranchesi",
      "category": [
        "highway.bus_stop"
      ],
      "lat": -23.561063,
      "lon": -46.6546067,
      "osm_id": 8001685525,
      "osm_type": "node",
      "address": null,
      "road_geometry": null
    },
    {
      "name": "Avenida Paulista, 1374",
      "category": [
        "highway.bus_stop"
      ],
      "lat": -23.562931,
      "lon": -46.654428,
      "osm_id": 8043075512,
      "osm_type": "node",
      "address": null,
      "road_geometry": null
    },
    {
      "name": "Arezzo",
      "category": [
        "shop.shoes"
      ],
      "lat": -23.5631783,
      "lon": -46.6527618,
      "osm_id": 12913123289,
      "osm_type": "node",
      "address": null,
      "road_geometry": null
    },
    {
      "name": "Kings",
      "category": [
        "shop.shoes"
      ],
      "lat": -23.5632392,
      "lon": -46.6527174,
      "osm_id": 12913123298,
      "osm_type": "node",
      "address": null,
      "road_geometry": null
    }
  ]
}