{
  "image": "dataset/images/314.png",
  "center_lat": -23.557612612612616,
  "center_lon": -46.6465721626279,
  "bbox": [
    -46.64780068511937,
    -23.558738738738743,
    -46.645343640136424,
    -23.55648648648649
  ],
  "unique_categories": [
    "highway.bus_stop",
    "amenity.bar",
    "shop.convenience",
    "amenity.restaurant"
  ],
  "poi_count_per_category": {
    "highway.bus_stop": 1,
    "amenity.bar": 1,
    "shop.convenience": 1,
    "amenity.restaurant": 5
  },
  "poi_count": 8,
  "pois": [
    {
      "name": "Pizzaria Ruberto's",
      "category": [
        "amenity.restaurant"
      ],
      "lat": -23.557468,
      "lon": -46.647419,
      "osm_id": 2419408204,
      "osm_type": "node",
      "address": "Rua Doutor Lu\u00eds Barreto",
      "road_geometry": null
    },
    {
      "name": "MiniMercado Extra",
      "category": [
        "shop.convenience"
      ],
      "lat": -23.5575585,
      "lon": -46.6456233,
      "osm_id": 3722289716,
      "osm_type": "node",
      "address": null,
      "road_geometry": null
    },
    {
      "name": "Cantina C...Que Sabe!",
      "category": [
        "amenity.restaurant"
      ],
      "lat": -23.5571061,
      "lon": -46.645685,
      "osm_id": 3722289717,
      "osm_type": "node",
      "address": "Rua Rui Barbosa",
      "road_geometry": null
    },
    {
      "name": "Lazarella",
      "category": [
        "amenity.restaurant"
      ],
      "lat": -23.5582883,
      "lon": -46.6463456,
      "osm_id": 3722298688,
      "osm_type": "node",
      "address": "Rua Treze de Maio",
      "road_geometry": null
    },
    {
      "name": "Cantina L'italiano",
      "category": [
        "amenity.restaurant"
      ],
      "lat": -23.5568553,
      "lon": -46.6467266,
      "osm_id": 3722298690,
      "osm_type": "node",
      "address": "Rua Treze de Maio",
      "road_geometry": null
    },
    {
      "name": "Central Panela\u00e7o",
      "category": [
        "amenity.bar"
      ],
      "lat": -23.5579204,
      "lon": -46.6466053,
      "osm_id": 5980471071,
      "osm_type": "node",
      "address": "Rua Conselheiro Carr\u00e3o",
      "road_geometry": null
    },
    {
      "name": "Rua Rui Barbosa, 322",
      "category": [
        "highway.bus_stop"
      ],
      "lat": -23.5583036,
      "lon": -46.6454256,
      "osm_id": 8223106683,
      "osm_type": "node",
      "address": null,
      "road_geometry": null
    },
    {
      "name": "Lanchones olimpia",
      "category": [
        "amenity.restaurant"
      ],
      "lat": -23.557675,
      "lon": -46.6455951,
      "osm_id": 13320081502,
      "osm_type": "node",
      "address": null,
      "road_geometry": null
    }
  ]
}