{
  "image": "dataset/images/341.png",
  "center_lat": 1.3013783783783786,
  "center_lon": 103.84189624251498,
  "bbox": [
    103.84076982634731,
    1.3002522522522524,
    103.84302265868264,
    1.3025045045045047
  ],
  "unique_categories": [
    "shop.tailor",
    "shop.convenience",
    "shop.beauty",
    "amenity.restaurant",
    "highway.bus_stop",
    "shop.gift",
    "shop.confectionery",
    "amenity.kindergarten",
    "amenity.nightclub",
    "amenity.bar",
    "shop.hairdresser",
    "tourism.hotel",
    "shop.clothes",
    "shop.erotic"
  ],
  "poi_count_per_category": {
    "shop.tailor": 1,
    "shop.convenience": 2,
    "shop.beauty": 2,
    "amenity.restaurant": 5,
    "highway.bus_stop": 2,
    "shop.gift": 1,
    "shop.confectionery": 1,
    "amenity.kindergarten": 1,
    "amenity.nightclub": 1,
    "amenity.bar": 1,
    "shop.hairdresser": 1,
    "tourism.hotel": 4,
    "shop.clothes": 1,
    "shop.erotic": 1
  },
  "poi_count": 24,
  "pois": [
    {
      "name": "Orchard Plaza",
      "category": [
        "highway.bus_stop"
      ],
      "lat": 1.3006857,
      "lon": 103.8409687,
      "osm_id": 410468392,
      "osm_type": "node",
      "address": null,
      "road_geometry": null
    },
    {
      "name": "Concorde Hotel Singapore",
      "category": [
        "highway.bus_stop"
      ],
      "lat": 1.3004608,
      "lon": 103.8418596,
      "osm_id": 410468393,
      "osm_type": "node",
      "address": null,
      "road_geometry": null
    },
    {
      "name": "Hotel Supreme",
      "category": [
        "tourism.hotel"
      ],
      "lat": 1.3013394,
      "lon": 103.8424247,
      "osm_id": 4302905830,
      "osm_type": "node",
      "address": "Kramat Road",
      "road_geometry": null
    },
    {
      "name": "Concorde Hotel Singapore",
      "category": [
        "tourism.hotel"
      ],
      "lat": 1.3006144,
      "lon": 103.8422281,
      "osm_id": 4302905942,
      "osm_type": "node",
      "address": "Orchard Road",
      "road_geometry": null
    },
    {
      "name": "Holiday Inn (Orchard City Centre)",
      "category": [
        "tourism.hotel"
      ],
      "lat": 1.3022791,
      "lon": 103.8411016,
      "osm_id": 4302905958,
      "osm_type": "node",
      "address": "Cavenagh Road",
      "road_geometry": null
    },
    {
      "name": "Chancellor@Orchard",
      "category": [
        "tourism.hotel"
      ],
      "lat": 1.3012281,
      "lon": 103.8423669,
      "osm_id": 4317625889,
      "osm_type": "node",
      "address": "Cavenagh Road",
      "road_geometry": null
    },
    {
      "name": "7-Eleven",
      "category": [
        "shop.convenience"
      ],
      "lat": 1.3008611,
      "lon": 103.8408921,
      "osm_id": 4747611641,
      "osm_type": "node",
      "address": null,
      "road_geometry": null
    },
    {
      "name": "0521 Hair Salon",
      "category": [
        "shop.hairdresser"
      ],
      "lat": 1.300546,
      "lon": 103.8419193,
      "osm_id": 9855659037,
      "osm_type": "node",
      "address": null,
      "road_geometry": null
    },
    {
      "name": "Three Jays Enterprises",
      "category": [
        "shop.clothes"
      ],
      "lat": 1.3004261,
      "lon": 103.8423381,
      "osm_id": 9855659038,
      "osm_type": "node",
      "address": null,
      "road_geometry": null
    },
    {
      "name": "Kim Dae Mun Korean Food",
      "category": [
        "amenity.restaurant"
      ],
      "lat": 1.3004036,
      "lon": 103.8424126,
      "osm_id": 9855659039,
      "osm_type": "node",
      "address": "Orchard Road",
      "road_geometry": null
    },
    {
      "name": "MindChamps",
      "category": [
        "amenity.kindergarten"
      ],
      "lat": 1.3004914,
      "lon": 103.84208,
      "osm_id": 9855659040,
      "osm_type": "node",
      "address": null,
      "road_geometry": null
    },
    {
      "name": "House of Condom",
      "category": [
        "shop.erotic"
      ],
      "lat": 1.3012191,
      "lon": 103.8412677,
      "osm_id": 10015221481,
      "osm_type": "node",
      "address": null,
      "road_geometry": null
    },
    {
      "name": "Beautique",
      "category": [
        "shop.beauty"
      ],
      "lat": 1.3007882,
      "lon": 103.841004,
      "osm_id": 10015221482,
      "osm_type": "node",
      "address": null,
      "road_geometry": null
    },
    {
      "name": "The Singapore Mint",
      "category": [
        "shop.gift"
      ],
      "lat": 1.3008817,
      "lon": 103.8408843,
      "osm_id": 10015221483,
      "osm_type": "node",
      "address": null,
      "road_geometry": null
    },
    {
      "name": "Ehkay Corner Tailors",
      "category": [
        "shop.tailor"
      ],
      "lat": 1.3009048,
      "lon": 103.8408756,
      "osm_id": 10015221484,
      "osm_type": "node",
      "address": null,
      "road_geometry": null
    },
    {
      "name": "Bangkit Kiosk",
      "category": [
        "shop.convenience"
      ],
      "lat": 1.3009709,
      "lon": 103.8408905,
      "osm_id": 10015221485,
      "osm_type": "node",
      "address": null,
      "road_geometry": null
    },
    {
      "name": "Drip",
      "category": [
        "amenity.nightclub"
      ],
      "lat": 1.3008579,
      "lon": 103.8429361,
      "osm_id": 10829435166,
      "osm_type": "node",
      "address": null,
      "road_geometry": null
    },
    {
      "name": "Muslim Delights @Orchard",
      "category": [
        "shop.confectionery"
      ],
      "lat": 1.300375,
      "lon": 103.8425146,
      "osm_id": 12179539350,
      "osm_type": "node",
      "address": "Orchard Road",
      "road_geometry": null
    },
    {
      "name": "Liz Aesthetics",
      "category": [
        "shop.beauty"
      ],
      "lat": 1.3016754,
      "lon": 103.8411266,
      "osm_id": 12231175232,
      "osm_type": "node",
      "address": null,
      "road_geometry": null
    },
    {
      "name": "SIDES",
      "category": [
        "amenity.bar"
      ],
      "lat": 1.3007874,
      "lon": 103.8419834,
      "osm_id": 12883888832,
      "osm_type": "node",
      "address": null,
      "road_geometry": null
    },
    {
      "name": "Ramen Soshiji \u3089\u30fc\u3081\u3093 \u305d\u3057\u3058",
      "category": [
        "amenity.restaurant"
      ],
      "lat": 1.3013582,
      "lon": 103.8412305,
      "osm_id": 13602776109,
      "osm_type": "node",
      "address": "Orchard Plaza",
      "road_geometry": null
    },
    {
      "name": "Morinaga Ramen Izakaya \u3082\u308a\u306a\u304c\u62c9\u9eba\u5c45\u9152\u5c4b",
      "category": [
        "amenity.restaurant"
      ],
      "lat": 1.3014405,
      "lon": 103.8412135,
      "osm_id": 13602776110,
      "osm_type": "node",
      "address": "Orchard Plaza",
      "road_geometry": null
    },
    {
      "name": "Tha Siam Thai Kitchen",
      "category": [
        "amenity.restaurant"
      ],
      "lat": 1.3014723,
      "lon": 103.84118,
      "osm_id": 13602776111,
      "osm_type": "node",
      "address": "Orchard Plaza",
      "road_geometry": null
    },
    {
      "name": "Orchard Bak Chor Mee",
      "category": [
        "amenity.restaurant"
      ],
      "lat": 1.3014732,
      "lon": 103.8411165,
      "osm_id": 13602776112,
      "osm_type": "node",
      "address": "Orchard Plaza",
      "road_geometry": null
    }
  ]
}