{
  "image": "dataset/images/383.png",
  "center_lat": 22.276126126126126,
  "center_lon": 114.17095246030247,
  "bbox": [
    114.16973552026886,
    22.275,
    114.17216940033607,
    22.27725225225225
  ],
  "unique_categories": [
    "shop.books",
    "shop.yes",
    "amenity.restaurant",
    "shop.houseware",
    "shop.curtain",
    "amenity.cafe",
    "shop.tobacco",
    "shop.hairdresser_supply",
    "amenity.toilets",
    "shop.supermarket",
    "shop.hairdresser",
    "shop.optician",
    "shop.florist",
    "shop.boutique",
    "amenity.ice_cream",
    "shop.music",
    "shop.convenience",
    "shop.doityourself",
    "highway.bus_stop",
    "shop.frame",
    "shop.interior_decoration",
    "amenity.fast_food",
    "shop.clothes",
    "shop.health_food",
    "amenity.pub",
    "shop.variety_store",
    "shop.pet",
    "shop.chemist",
    "shop.furniture",
    "shop.beauty",
    "tourism.guest_house",
    "amenity.pharmacy",
    "shop.bakery",
    "shop.hardware",
    "railway.tram_stop",
    "shop.bed",
    "amenity.bar",
    "amenity.bank",
    "shop.shoes",
    "shop.jewelry"
  ],
  "poi_count_per_category": {
    "shop.books": 1,
    "shop.yes": 1,
    "amenity.restaurant": 67,
    "shop.houseware": 1,
    "shop.curtain": 2,
    "amenity.cafe": 7,
    "shop.tobacco": 1,
    "shop.hairdresser_supply": 1,
    "amenity.toilets": 1,
    "shop.supermarket": 2,
    "shop.hairdresser": 4,
    "shop.optician": 2,
    "shop.florist": 1,
    "shop.boutique": 1,
    "amenity.ice_cream": 1,
    "shop.music": 1,
    "shop.convenience": 2,
    "shop.doityourself": 1,
    "highway.bus_stop": 11,
    "shop.frame": 2,
    "shop.interior_decoration": 2,
    "amenity.fast_food": 3,
    "shop.clothes": 4,
    "shop.health_food": 1,
    "amenity.pub": 2,
    "shop.variety_store": 1,
    "shop.pet": 2,
    "shop.chemist": 2,
    "shop.furniture": 5,
    "shop.beauty": 1,
    "tourism.guest_house": 1,
    "amenity.pharmacy": 2,
    "shop.bakery": 3,
    "shop.hardware": 3,
    "railway.tram_stop": 4,
    "shop.bed": 2,
    "amenity.bar": 1,
    "amenity.bank": 1,
    "shop.shoes": 1,
    "shop.jewelry": 4
  },
  "poi_count": 154,
  "pois": [
    {
      "name": "\u5ec8\u9580\u8857\u516c\u5ec1 Amoy Street Public Toilet",
      "category": [
        "amenity.toilets"
      ],
      "lat": 22.2752885,
      "lon": 114.1719283,
      "osm_id": 1278086132,
      "osm_type": "node",
      "address": null,
      "road_geometry": null
    },
    {
      "name": "7-Eleven",
      "category": [
        "shop.convenience"
      ],
      "lat": 22.2771621,
      "lon": 114.1704562,
      "osm_id": 1298359467,
      "osm_type": "node",
      "address": "\u838a\u58eb\u6566\u9053 Johnston Road",
      "road_geometry": null
    },
    {
      "name": "7-Eleven",
      "category": [
        "shop.convenience"
      ],
      "lat": 22.2760552,
      "lon": 114.1703361,
      "osm_id": 1298359471,
      "osm_type": "node",
      "address": "\u7687\u540e\u5927\u9053\u6771 Queen's Road East",
      "road_geometry": null
    },
    {
      "name": "La Cr\u00eaperie Wan Chai",
      "category": [
        "amenity.restaurant"
      ],
      "lat": 22.2763007,
      "lon": 114.1700489,
      "osm_id": 2089466239,
      "osm_type": "node",
      "address": "\u7687\u540e\u5927\u9053\u6771 Queen's Road East",
      "road_geometry": null
    },
    {
      "name": "La Maison",
      "category": [
        "amenity.restaurant"
      ],
      "lat": 22.2754124,
      "lon": 114.1716249,
      "osm_id": 2247760956,
      "osm_type": "node",
      "address": "Swatow Street",
      "road_geometry": null
    },
    {
      "name": "\u5206\u57df\u8857 Fenwick Street",
      "category": [
        "railway.tram_stop"
      ],
      "lat": 22.2772484,
      "lon": 114.1700535,
      "osm_id": 2498627220,
      "osm_type": "node",
      "address": null,
      "road_geometry": null
    },
    {
      "name": "\u6a5f\u5229\u81e3\u8857 Gresson Street",
      "category": [
        "railway.tram_stop"
      ],
      "lat": 22.2771326,
      "lon": 114.170194,
      "osm_id": 2498627254,
      "osm_type": "node",
      "address": null,
      "road_geometry": null
    },
    {
      "name": "\u76e7\u62bc\u9053 Luard Road",
      "category": [
        "railway.tram_stop"
      ],
      "lat": 22.2764398,
      "lon": 114.1719788,
      "osm_id": 2498627259,
      "osm_type": "node",
      "address": null,
      "road_geometry": null
    },
    {
      "name": "\u6c55\u982d\u8857 Swatow Street",
      "category": [
        "railway.tram_stop"
      ],
      "lat": 22.276429,
      "lon": 114.1720986,
      "osm_id": 2498627289,
      "osm_type": "node",
      "address": null,
      "road_geometry": null
    },
    {
      "name": "\u60e0\u5eb7 Wellcome",
      "category": [
        "shop.supermarket"
      ],
      "lat": 22.2771084,
      "lon": 114.1700411,
      "osm_id": 2706145340,
      "osm_type": "node",
      "address": null,
      "road_geometry": null
    },
    {
      "name": "\u5fc5\u52dd\u5ba2 Pizza Hut",
      "category": [
        "amenity.restaurant"
      ],
      "lat": 22.276323,
      "lon": 114.1720088,
      "osm_id": 3665638750,
      "osm_type": "node",
      "address": "\u838a\u58eb\u6566\u9053 Johnston Road",
      "road_geometry": null
    },
    {
      "name": "\u9ea5\u7576\u52de McDonald's",
      "category": [
        "amenity.fast_food"
      ],
      "lat": 22.276331,
      "lon": 114.1720505,
      "osm_id": 3665650017,
      "osm_type": "node",
      "address": null,
      "road_geometry": null
    },
    {
      "name": "\u5609\u8ed2\u7a97\u7c3e Ka Hin Curtain",
      "category": [
        "shop.curtain"
      ],
      "lat": 22.2751219,
      "lon": 114.1714254,
      "osm_id": 3667212409,
      "osm_type": "node",
      "address": "\u7687\u540e\u5927\u9053\u6771 Queen's Road East",
      "road_geometry": null
    },
    {
      "name": "\u68b3\u5316\u5009 Sofamark",
      "category": [
        "shop.furniture"
      ],
      "lat": 22.2757638,
      "lon": 114.1703596,
      "osm_id": 4168594589,
      "osm_type": "node",
      "address": "\u7687\u540e\u5927\u9053\u6771 Queen's Road East",
      "road_geometry": null
    },
    {
      "name": "Cupping Room Wan Chai",
      "category": [
        "amenity.cafe"
      ],
      "lat": 22.2762903,
      "lon": 114.1720044,
      "osm_id": 4213892491,
      "osm_type": "node",
      "address": null,
      "road_geometry": null
    },
    {
      "name": "Vincenzo Capuano",
      "category": [
        "amenity.restaurant"
      ],
      "lat": 22.2751776,
      "lon": 114.1719941,
      "osm_id": 4258588885,
      "osm_type": "node",
      "address": null,
      "road_geometry": null
    },
    {
      "name": "Com Banh Mi",
      "category": [
        "amenity.restaurant"
      ],
      "lat": 22.2761451,
      "lon": 114.1715703,
      "osm_id": 4264714615,
      "osm_type": "node",
      "address": "\u5927\u738b\u6771\u8857 Tai Wong Street East",
      "road_geometry": null
    },
    {
      "name": "The Bottle & Steak",
      "category": [
        "amenity.restaurant"
      ],
      "lat": 22.2759699,
      "lon": 114.1720365,
      "osm_id": 4267920189,
      "osm_type": "node",
      "address": "\u5ec8\u9580\u8857 Amoy Street",
      "road_geometry": null
    },
    {
      "name": "\u806f\u767c\u8857 Lun Fat Street",
      "category": [
        "highway.bus_stop"
      ],
      "lat": 22.2760014,
      "lon": 114.1701332,
      "osm_id": 4359039659,
      "osm_type": "node",
      "address": null,
      "road_geometry": null
    },
    {
      "name": "\u5ec8\u9580\u8857 Amoy Street",
      "category": [
        "highway.bus_stop"
      ],
      "lat": 22.2753459,
      "lon": 114.1713885,
      "osm_id": 4361279409,
      "osm_type": "node",
      "address": null,
      "road_geometry": null
    },
    {
      "name": "\u806f\u767c\u8857 Lun Fat Street",
      "category": [
        "highway.bus_stop"
      ],
      "lat": 22.2761559,
      "lon": 114.1701376,
      "osm_id": 4361279416,
      "osm_type": "node",
      "address": null,
      "road_geometry": null
    },
    {
      "name": "SOBAN",
      "category": [
        "amenity.fast_food"
      ],
      "lat": 22.2766258,
      "lon": 114.1713222,
      "osm_id": 4416692389,
      "osm_type": "node",
      "address": "\u838a\u58eb\u6566\u9053 Johnston Road",
      "road_geometry": null
    },
    {
      "name": "Kam Tak Mansion",
      "category": [
        "tourism.guest_house"
      ],
      "lat": 22.276571,
      "lon": 114.1698085,
      "osm_id": 4578698989,
      "osm_type": "node",
      "address": "\u7687\u540e\u5927\u9053\u6771 Queen's Road East",
      "road_geometry": null
    },
    {
      "name": "Chilli Paste",
      "category": [
        "amenity.restaurant"
      ],
      "lat": 22.276131,
      "lon": 114.1721127,
      "osm_id": 4695223798,
      "osm_type": "node",
      "address": "\u5ec8\u9580\u8857 Amoy Street",
      "road_geometry": null
    },
    {
      "name": "\u5104\u7965\u9632\u6c34\u6750\u6599 Yick Cheung Waterproof Materials",
      "category": [
        "shop.doityourself"
      ],
      "lat": 22.2759642,
      "lon": 114.1714587,
      "osm_id": 4777248321,
      "osm_type": "node",
      "address": "\u5927\u738b\u6771\u8857 Tai Wong Street East",
      "road_geometry": null
    },
    {
      "name": "Ginger Bakery",
      "category": [
        "amenity.cafe"
      ],
      "lat": 22.2766755,
      "lon": 114.171222,
      "osm_id": 4822643548,
      "osm_type": "node",
      "address": "\u838a\u58eb\u6566\u9053 Johnston Road",
      "road_geometry": null
    },
    {
      "name": "\u65b0\u6cf0\u6771\u5357\u4e9e\u9910\u5ef3 Sun Thai Restaurant",
      "category": [
        "amenity.restaurant"
      ],
      "lat": 22.2760641,
      "lon": 114.1713676,
      "osm_id": 4842666132,
      "osm_type": "node",
      "address": null,
      "road_geometry": null
    },
    {
      "name": "Zero One",
      "category": [
        "amenity.restaurant"
      ],
      "lat": 22.2761975,
      "lon": 114.1697875,
      "osm_id": 4856256127,
      "osm_type": "node",
      "address": "\u7687\u540e\u5927\u9053\u6771 Queen's Road East",
      "road_geometry": null
    },
    {
      "name": "13 Thirteen",
      "category": [
        "amenity.restaurant"
      ],
      "lat": 22.276222,
      "lon": 114.1697482,
      "osm_id": 4856256128,
      "osm_type": "node",
      "address": "\u7687\u540e\u5927\u9053\u6771 Queen's Road East",
      "road_geometry": null
    },
    {
      "name": "\u6c38\u6046\u50a2\u4fec\u7a97\u7c3e Wing Hang Furniture Curtain",
      "category": [
        "shop.furniture"
      ],
      "lat": 22.2760167,
      "lon": 114.1700391,
      "osm_id": 4856256136,
      "osm_type": "node",
      "address": "\u7687\u540e\u5927\u9053\u6771 Queen's Road East",
      "road_geometry": null
    },
    {
      "name": "Hunter Douglas",
      "category": [
        "shop.interior_decoration"
      ],
      "lat": 22.2759391,
      "lon": 114.1701388,
      "osm_id": 4856256137,
      "osm_type": "node",
      "address": "\u7687\u540e\u5927\u9053\u6771 Queen's Road East",
      "road_geometry": null
    },
    {
      "name": "\u96c5\u5178\u5c45 Home Classics",
      "category": [
        "shop.furniture"
      ],
      "lat": 22.2759167,
      "lon": 114.1701663,
      "osm_id": 4856256138,
      "osm_type": "node",
      "address": "\u7687\u540e\u5927\u9053\u6771 Queen's Road East",
      "road_geometry": null
    },
    {
      "name": "\u5275\u6a5f Creation Interior Decor",
      "category": [
        "shop.interior_decoration"
      ],
      "lat": 22.2758614,
      "lon": 114.1702355,
      "osm_id": 4856256139,
      "osm_type": "node",
      "address": "\u7687\u540e\u5927\u9053\u6771 Queen's Road East",
      "road_geometry": null
    },
    {
      "name": "Natures Village",
      "category": [
        "shop.health_food"
      ],
      "lat": 22.275831,
      "lon": 114.1702741,
      "osm_id": 4856256140,
      "osm_type": "node",
      "address": "\u7687\u540e\u5927\u9053\u6771 Queen's Road East",
      "road_geometry": null
    },
    {
      "name": "\u5143\u6717\u5408\u9686\u6f6e\u5dde\u7c89\u9eb5",
      "category": [
        "amenity.restaurant"
      ],
      "lat": 22.2757076,
      "lon": 114.1704325,
      "osm_id": 4856256146,
      "osm_type": "node",
      "address": "\u7687\u540e\u5927\u9053\u6771 Queen's Road East",
      "road_geometry": null
    },
    {
      "name": "\u85dd\u9ad8\u756b\u67b6 Arco Fine Arts Framing",
      "category": [
        "shop.frame"
      ],
      "lat": 22.2756763,
      "lon": 114.1704918,
      "osm_id": 4856256147,
      "osm_type": "node",
      "address": "\u7687\u540e\u5927\u9053\u6771 Queen's Road East",
      "road_geometry": null
    },
    {
      "name": "\u91d1\u798f\u9910\u5ef3 Kam Fook Restaurant",
      "category": [
        "amenity.restaurant"
      ],
      "lat": 22.2753544,
      "lon": 114.1709839,
      "osm_id": 4856256152,
      "osm_type": "node",
      "address": "\u7687\u540e\u5927\u9053\u6771 Queen's Road East",
      "road_geometry": null
    },
    {
      "name": "\u76c8\u5bcc\u7a97\u7c3e\u8a2d\u8a08 Ying Fu Curtain Design",
      "category": [
        "shop.curtain"
      ],
      "lat": 22.2753316,
      "lon": 114.1710267,
      "osm_id": 4856256153,
      "osm_type": "node",
      "address": "\u7687\u540e\u5927\u9053\u6771 Queen's Road East",
      "road_geometry": null
    },
    {
      "name": "\u9127\u8a18 Deng G",
      "category": [
        "amenity.restaurant"
      ],
      "lat": 22.2751373,
      "lon": 114.1713675,
      "osm_id": 4856256157,
      "osm_type": "node",
      "address": "\u7687\u540e\u5927\u9053\u6771 Queen's Road East",
      "road_geometry": null
    },
    {
      "name": "\u5947\u83ef\u9905\u5bb6 Kee Wah Bakery",
      "category": [
        "shop.bakery"
      ],
      "lat": 22.2751714,
      "lon": 114.1718007,
      "osm_id": 4856256158,
      "osm_type": "node",
      "address": "\u7687\u540e\u5927\u9053\u6771 Queen's Road East",
      "road_geometry": null
    },
    {
      "name": "Alice Pizza",
      "category": [
        "amenity.restaurant"
      ],
      "lat": 22.2764038,
      "lon": 114.1698646,
      "osm_id": 4856336725,
      "osm_type": "node",
      "address": "\u7687\u540e\u5927\u9053\u6771 Queen's Road East",
      "road_geometry": null
    },
    {
      "name": "Zoom",
      "category": [
        "shop.hairdresser"
      ],
      "lat": 22.2763559,
      "lon": 114.1699374,
      "osm_id": 4856336726,
      "osm_type": "node",
      "address": "\u7687\u540e\u5927\u9053\u6771 Queen's Road East",
      "road_geometry": null
    },
    {
      "name": "Queen",
      "category": [
        "shop.clothes"
      ],
      "lat": 22.2761371,
      "lon": 114.1702415,
      "osm_id": 4856336731,
      "osm_type": "node",
      "address": "\u7687\u540e\u5927\u9053\u6771 Queen's Road East",
      "road_geometry": null
    },
    {
      "name": "GreenPrice",
      "category": [
        "shop.chemist"
      ],
      "lat": 22.276034,
      "lon": 114.170364,
      "osm_id": 4856347172,
      "osm_type": "node",
      "address": "\u7687\u540e\u5927\u9053\u6771 Queen's Road East",
      "road_geometry": null
    },
    {
      "name": "Ellis",
      "category": [
        "shop.jewelry"
      ],
      "lat": 22.2760026,
      "lon": 114.1704074,
      "osm_id": 4856347173,
      "osm_type": "node",
      "address": "\u7687\u540e\u5927\u9053\u6771 Queen's Road East",
      "road_geometry": null
    },
    {
      "name": "\u666f\u5fb7\u884c\u74f7\u696d King Tak Hong Porcelain",
      "category": [
        "shop.houseware"
      ],
      "lat": 22.2759564,
      "lon": 114.1704702,
      "osm_id": 4856347176,
      "osm_type": "node",
      "address": "\u7687\u540e\u5927\u9053\u6771 Queen's Road East",
      "road_geometry": null
    },
    {
      "name": "\u7121\u9650\u62c9\u9eb5",
      "category": [
        "amenity.restaurant"
      ],
      "lat": 22.2759053,
      "lon": 114.1705326,
      "osm_id": 4856347177,
      "osm_type": "node",
      "address": "\u7687\u540e\u5927\u9053\u6771 Queen's Road East",
      "road_geometry": null
    },
    {
      "name": "\u5bf6\u8913 Aise",
      "category": [
        "shop.bed"
      ],
      "lat": 22.2757565,
      "lon": 114.1707493,
      "osm_id": 4856347183,
      "osm_type": "node",
      "address": "\u7687\u540e\u5927\u9053\u6771 Queen's Road East",
      "road_geometry": null
    },
    {
      "name": "Sealy Gallery",
      "category": [
        "shop.bed"
      ],
      "lat": 22.2757139,
      "lon": 114.1708219,
      "osm_id": 4856347184,
      "osm_type": "node",
      "address": "\u7687\u540e\u5927\u9053\u6771 Queen's Road East",
      "road_geometry": null
    },
    {
      "name": "\u5929\u5bf6\u7fe1\u7fe0 Tin Bo Jadeite Jewelry",
      "category": [
        "shop.jewelry"
      ],
      "lat": 22.2756509,
      "lon": 114.1709255,
      "osm_id": 4856347189,
      "osm_type": "node",
      "address": "\u7687\u540e\u5927\u9053\u6771 Queen's Road East",
      "road_geometry": null
    },
    {
      "name": "Cegag's",
      "category": [
        "shop.boutique"
      ],
      "lat": 22.2756394,
      "lon": 114.1709459,
      "osm_id": 4856347190,
      "osm_type": "node",
      "address": "\u7687\u540e\u5927\u9053\u6771 Queen's Road East",
      "road_geometry": null
    },
    {
      "name": "Arm Shop",
      "category": [
        "shop.hairdresser_supply"
      ],
      "lat": 22.2756268,
      "lon": 114.1709683,
      "osm_id": 4856347191,
      "osm_type": "node",
      "address": "\u7687\u540e\u5927\u9053\u6771 Queen's Road East",
      "road_geometry": null
    },
    {
      "name": "Charment",
      "category": [
        "shop.clothes"
      ],
      "lat": 22.2755006,
      "lon": 114.1712255,
      "osm_id": 4856362596,
      "osm_type": "node",
      "address": "\u7687\u540e\u5927\u9053\u6771 Queen's Road East",
      "road_geometry": null
    },
    {
      "name": "\u86cb\u5377\u6a02\u5712 The Roll",
      "category": [
        "shop.bakery"
      ],
      "lat": 22.27539,
      "lon": 114.1714,
      "osm_id": 4856362598,
      "osm_type": "node",
      "address": "\u7687\u540e\u5927\u9053\u6771 Queen's Road East",
      "road_geometry": null
    },
    {
      "name": "Betty Jewellery",
      "category": [
        "shop.jewelry"
      ],
      "lat": 22.275238,
      "lon": 114.1716619,
      "osm_id": 4856362605,
      "osm_type": "node",
      "address": "\u7687\u540e\u5927\u9053\u6771 Queen's Road East",
      "road_geometry": null
    },
    {
      "name": "759 Store",
      "category": [
        "shop.supermarket"
      ],
      "lat": 22.2768372,
      "lon": 114.1705491,
      "osm_id": 4856508500,
      "osm_type": "node",
      "address": "\u838a\u58eb\u6566\u9053 Johnston Road",
      "road_geometry": null
    },
    {
      "name": "\u4ea4\u901a\u9280\u884c Bank of Communications",
      "category": [
        "amenity.bank"
      ],
      "lat": 22.2767991,
      "lon": 114.1706138,
      "osm_id": 4856508501,
      "osm_type": "node",
      "address": "\u838a\u58eb\u6566\u9053 Johnston Road",
      "road_geometry": null
    },
    {
      "name": "Karning Dispensary",
      "category": [
        "amenity.pharmacy"
      ],
      "lat": 22.2766596,
      "lon": 114.1707763,
      "osm_id": 4856508506,
      "osm_type": "node",
      "address": "\u838a\u58eb\u6566\u9053 Johnston Road",
      "road_geometry": null
    },
    {
      "name": "Tommy Bahama",
      "category": [
        "shop.clothes"
      ],
      "lat": 22.2763836,
      "lon": 114.1712285,
      "osm_id": 4856508508,
      "osm_type": "node",
      "address": "\u838a\u58eb\u6566\u9053 Johnston Road",
      "road_geometry": null
    },
    {
      "name": "\u79cb\u7530\u51b0\u5ba4 Akita Cafe",
      "category": [
        "amenity.cafe"
      ],
      "lat": 22.2763336,
      "lon": 114.172136,
      "osm_id": 4856508513,
      "osm_type": "node",
      "address": "\u838a\u58eb\u6566\u9053 Johnston Road",
      "road_geometry": null
    },
    {
      "name": "Amour Salon",
      "category": [
        "shop.hairdresser"
      ],
      "lat": 22.2772052,
      "lon": 114.1704054,
      "osm_id": 4857802419,
      "osm_type": "node",
      "address": "\u5206\u57df\u8857 Fenwick Street",
      "road_geometry": null
    },
    {
      "name": "\u611b\u7684\u5bf5\u7269\u5e97 Honey Pet Shop",
      "category": [
        "shop.pet"
      ],
      "lat": 22.2771322,
      "lon": 114.1705065,
      "osm_id": 4857802425,
      "osm_type": "node",
      "address": "\u838a\u58eb\u6566\u9053 Johnston Road",
      "road_geometry": null
    },
    {
      "name": "\u56db\u723a\u8eca\u4ed4\u9eb5\u5c08\u9580\u5e97",
      "category": [
        "amenity.restaurant"
      ],
      "lat": 22.2771061,
      "lon": 114.1705504,
      "osm_id": 4857802426,
      "osm_type": "node",
      "address": "\u838a\u58eb\u6566\u9053 Johnston Road",
      "road_geometry": null
    },
    {
      "name": "Wing Wrong Optical Co",
      "category": [
        "shop.optician"
      ],
      "lat": 22.2769162,
      "lon": 114.1708552,
      "osm_id": 4857802428,
      "osm_type": "node",
      "address": "\u838a\u58eb\u6566\u9053 Johnston Road",
      "road_geometry": null
    },
    {
      "name": "The Coffee Academics",
      "category": [
        "amenity.cafe"
      ],
      "lat": 22.2768737,
      "lon": 114.1709197,
      "osm_id": 4857802429,
      "osm_type": "node",
      "address": "\u838a\u58eb\u6566\u9053 Johnston Road",
      "road_geometry": null
    },
    {
      "name": "Super Sample",
      "category": [
        "shop.clothes"
      ],
      "lat": 22.2767408,
      "lon": 114.1710875,
      "osm_id": 4857802430,
      "osm_type": "node",
      "address": "\u838a\u58eb\u6566\u9053 Johnston Road",
      "road_geometry": null
    },
    {
      "name": "Head",
      "category": [
        "shop.shoes"
      ],
      "lat": 22.2766928,
      "lon": 114.1711934,
      "osm_id": 4857802432,
      "osm_type": "node",
      "address": "\u838a\u58eb\u6566\u9053 Johnston Road",
      "road_geometry": null
    },
    {
      "name": "Yui Ying Framing Gallery",
      "category": [
        "shop.frame"
      ],
      "lat": 22.2766295,
      "lon": 114.171297,
      "osm_id": 4857802433,
      "osm_type": "node",
      "address": "\u838a\u58eb\u6566\u9053 Johnston Road",
      "road_geometry": null
    },
    {
      "name": "Marino",
      "category": [
        "shop.yes"
      ],
      "lat": 22.2766384,
      "lon": 114.1713478,
      "osm_id": 4857802434,
      "osm_type": "node",
      "address": "\u76e7\u62bc\u9053 Luard Road",
      "road_geometry": null
    },
    {
      "name": "\u6ce2\u58eb\u9813\u9910\u5ef3 Boston Restaurant",
      "category": [
        "amenity.restaurant"
      ],
      "lat": 22.276738,
      "lon": 114.1713919,
      "osm_id": 4857812688,
      "osm_type": "node",
      "address": "\u76e7\u62bc\u9053 Luard Road",
      "road_geometry": null
    },
    {
      "name": "\u806f\u767c\u8857 Lun Fat Street",
      "category": [
        "highway.bus_stop"
      ],
      "lat": 22.2761355,
      "lon": 114.1701636,
      "osm_id": 5306340655,
      "osm_type": "node",
      "address": null,
      "road_geometry": null
    },
    {
      "name": "\u806f\u767c\u8857 Lun Fat Street",
      "category": [
        "highway.bus_stop"
      ],
      "lat": 22.2759962,
      "lon": 114.1701399,
      "osm_id": 5306340656,
      "osm_type": "node",
      "address": null,
      "road_geometry": null
    },
    {
      "name": "\u5ec8\u9580\u8857 Amoy Street",
      "category": [
        "highway.bus_stop"
      ],
      "lat": 22.2752602,
      "lon": 114.1715402,
      "osm_id": 5306340658,
      "osm_type": "node",
      "address": null,
      "road_geometry": null
    },
    {
      "name": "\u5ec8\u9580\u8857 Amoy Street",
      "category": [
        "highway.bus_stop"
      ],
      "lat": 22.2752943,
      "lon": 114.1714799,
      "osm_id": 5306340659,
      "osm_type": "node",
      "address": null,
      "road_geometry": null
    },
    {
      "name": "Sophia Loren Pizzeria",
      "category": [
        "amenity.restaurant"
      ],
      "lat": 22.2763073,
      "lon": 114.1713915,
      "osm_id": 5470880723,
      "osm_type": "node",
      "address": null,
      "road_geometry": null
    },
    {
      "name": "Cosmos Books Ltd.",
      "category": [
        "shop.books"
      ],
      "lat": 22.2768353,
      "lon": 114.1705935,
      "osm_id": 5477123324,
      "osm_type": "node",
      "address": "\u838a\u58eb\u6566\u9053 Johnston Road",
      "road_geometry": null
    },
    {
      "name": "Passione",
      "category": [
        "amenity.cafe"
      ],
      "lat": 22.2755466,
      "lon": 114.1721336,
      "osm_id": 5477124021,
      "osm_type": "node",
      "address": "\u5229\u6771\u8857\u5730\u5eab\u5546\u5834 Lee Tung Avenue Underground Mall",
      "road_geometry": null
    },
    {
      "name": "PINTXOS by b\u00e0rbar",
      "category": [
        "amenity.restaurant"
      ],
      "lat": 22.27591,
      "lon": 114.170837,
      "osm_id": 5718651722,
      "osm_type": "node",
      "address": "\u8239\u8857 Ship Street",
      "road_geometry": null
    },
    {
      "name": "Ham & Sherry",
      "category": [
        "amenity.restaurant"
      ],
      "lat": 22.2764086,
      "lon": 114.1711491,
      "osm_id": 5718652324,
      "osm_type": "node",
      "address": "\u8239\u8857 Ship Street",
      "road_geometry": null
    },
    {
      "name": "\u559c\u746a\u62c9\u96c5\u9910\u9928 Himalaya Restaurant",
      "category": [
        "amenity.restaurant"
      ],
      "lat": 22.2761593,
      "lon": 114.1715787,
      "osm_id": 6007544187,
      "osm_type": "node",
      "address": "\u5927\u738b\u6771\u8857 Tai Wong Street East",
      "road_geometry": null
    },
    {
      "name": "\u4e00\u864e\u62c9\u9eb5 Ichitora",
      "category": [
        "amenity.restaurant"
      ],
      "lat": 22.2758059,
      "lon": 114.1719685,
      "osm_id": 6130457919,
      "osm_type": "node",
      "address": "\u5ec8\u9580\u8857 Amoy Street",
      "road_geometry": null
    },
    {
      "name": "\u7687\u540e\u5927\u9053\u6771186\u865f 186 Queen's Road East",
      "category": [
        "highway.bus_stop"
      ],
      "lat": 22.2752471,
      "lon": 114.1715635,
      "osm_id": 6276290785,
      "osm_type": "node",
      "address": null,
      "road_geometry": null
    },
    {
      "name": "\u7687\u540e\u5927\u9053\u6771186\u865f 186 Queen's Road East",
      "category": [
        "highway.bus_stop"
      ],
      "lat": 22.2753876,
      "lon": 114.1713146,
      "osm_id": 6276290885,
      "osm_type": "node",
      "address": null,
      "road_geometry": null
    },
    {
      "name": "\u5447",
      "category": [
        "amenity.restaurant"
      ],
      "lat": 22.2763457,
      "lon": 114.1711667,
      "osm_id": 6282378085,
      "osm_type": "node",
      "address": "\u838a\u58eb\u6566\u9053 Johnston Road",
      "road_geometry": null
    },
    {
      "name": "\u4fee\u9813\u7403\u5834 Southorn Playground",
      "category": [
        "highway.bus_stop"
      ],
      "lat": 22.2765291,
      "lon": 114.1720814,
      "osm_id": 6290943085,
      "osm_type": "node",
      "address": null,
      "road_geometry": null
    },
    {
      "name": "\u5747\u8a18\u96c0\u9ce5 Kwan Kee Birds & Small Animals",
      "category": [
        "shop.pet"
      ],
      "lat": 22.275865,
      "lon": 114.171242,
      "osm_id": 6378290618,
      "osm_type": "node",
      "address": "\u5927\u738b\u6771\u8857 Tai Wong Street East",
      "road_geometry": null
    },
    {
      "name": "\u65b0\u4e5d\u8a18 Sun Kau Kee",
      "category": [
        "amenity.restaurant"
      ],
      "lat": 22.275835,
      "lon": 114.171222,
      "osm_id": 6378290619,
      "osm_type": "node",
      "address": "\u5927\u738b\u6771\u8857 Tai Wong Street East",
      "road_geometry": null
    },
    {
      "name": "GULU Greek Yogurt",
      "category": [
        "amenity.ice_cream"
      ],
      "lat": 22.2756732,
      "lon": 114.1712745,
      "osm_id": 6378290625,
      "osm_type": "node",
      "address": "\u5927\u738b\u6771\u8857 Tai Wong Street East",
      "road_geometry": null
    },
    {
      "name": "\u6676\u77f3\u7121\u96d9 Not Only Crystal",
      "category": [
        "shop.jewelry"
      ],
      "lat": 22.2756163,
      "lon": 114.1709873,
      "osm_id": 6384720061,
      "osm_type": "node",
      "address": "\u7687\u540e\u5927\u9053\u6771 Queen's Road East",
      "road_geometry": null
    },
    {
      "name": "The Harbour Cigar Divan",
      "category": [
        "shop.tobacco"
      ],
      "lat": 22.275984,
      "lon": 114.170865,
      "osm_id": 6385817622,
      "osm_type": "node",
      "address": "\u8239\u8857 Ship Street",
      "road_geometry": null
    },
    {
      "name": "Decor8 Modern Furniture",
      "category": [
        "shop.furniture"
      ],
      "lat": 22.2772022,
      "lon": 114.1707987,
      "osm_id": 6437814092,
      "osm_type": "node",
      "address": "\u8b5a\u81e3\u9053 Thomson Road",
      "road_geometry": null
    },
    {
      "name": "\u58fa Potion House",
      "category": [
        "amenity.cafe"
      ],
      "lat": 22.2760007,
      "lon": 114.1714809,
      "osm_id": 6537887415,
      "osm_type": "node",
      "address": "\u5927\u738b\u6771\u8857 Tai Wong Street East",
      "road_geometry": null
    },
    {
      "name": "Five Guys",
      "category": [
        "amenity.fast_food"
      ],
      "lat": 22.2763404,
      "lon": 114.1711958,
      "osm_id": 6748884785,
      "osm_type": "node",
      "address": "\u838a\u58eb\u6566\u9053 Johnston Road",
      "road_geometry": null
    },
    {
      "name": "\u795e\u864e\u9eb5\u5546\u5e97",
      "category": [
        "amenity.restaurant"
      ],
      "lat": 22.2757998,
      "lon": 114.1713571,
      "osm_id": 6788818049,
      "osm_type": "node",
      "address": "\u5927\u738b\u6771\u8857 Tai Wong Street East",
      "road_geometry": null
    },
    {
      "name": "Amoy",
      "category": [
        "amenity.pub"
      ],
      "lat": 22.2753925,
      "lon": 114.1717512,
      "osm_id": 6788818050,
      "osm_type": "node",
      "address": null,
      "road_geometry": null
    },
    {
      "name": "\u6cf0\u597d\u98df Thai Flavour",
      "category": [
        "amenity.restaurant"
      ],
      "lat": 22.2754135,
      "lon": 114.1717622,
      "osm_id": 6788818052,
      "osm_type": "node",
      "address": null,
      "road_geometry": null
    },
    {
      "name": "\u798f\u81b3\u4fbf\u7576",
      "category": [
        "amenity.restaurant"
      ],
      "lat": 22.2753714,
      "lon": 114.1717399,
      "osm_id": 6788818054,
      "osm_type": "node",
      "address": null,
      "road_geometry": null
    },
    {
      "name": "\u5353\u9ba8 Taku Sushi",
      "category": [
        "amenity.restaurant"
      ],
      "lat": 22.27535,
      "lon": 114.1717287,
      "osm_id": 6788818055,
      "osm_type": "node",
      "address": null,
      "road_geometry": null
    },
    {
      "name": "\u597d\u6771\u897f Goodies",
      "category": [
        "amenity.restaurant"
      ],
      "lat": 22.2753775,
      "lon": 114.1709355,
      "osm_id": 6788818056,
      "osm_type": "node",
      "address": "\u7687\u540e\u5927\u9053\u6771 Queen's Road East",
      "road_geometry": null
    },
    {
      "name": "Little Napoli",
      "category": [
        "amenity.restaurant"
      ],
      "lat": 22.2757449,
      "lon": 114.1713223,
      "osm_id": 6788818057,
      "osm_type": "node",
      "address": null,
      "road_geometry": null
    },
    {
      "name": "\u674e\u5149\u8a18\u4e94\u91d1\u884c Li Kwong Kee Metal",
      "category": [
        "shop.hardware"
      ],
      "lat": 22.2757641,
      "lon": 114.1713342,
      "osm_id": 6788818058,
      "osm_type": "node",
      "address": null,
      "road_geometry": null
    },
    {
      "name": "Bakehouse",
      "category": [
        "amenity.restaurant"
      ],
      "lat": 22.275874,
      "lon": 114.1714046,
      "osm_id": 6788818059,
      "osm_type": "node",
      "address": "\u5927\u738b\u6771\u8857 Tai Wong Street East",
      "road_geometry": null
    },
    {
      "name": "\u570b\u969b\u5496\u55b1\u9928 International Curry House",
      "category": [
        "amenity.restaurant"
      ],
      "lat": 22.2761133,
      "lon": 114.1715504,
      "osm_id": 6789718731,
      "osm_type": "node",
      "address": null,
      "road_geometry": null
    },
    {
      "name": "\u5927\u6176\u71d2\u5473\u98ef\u5e97",
      "category": [
        "amenity.restaurant"
      ],
      "lat": 22.2772403,
      "lon": 114.1714557,
      "osm_id": 6789718733,
      "osm_type": "node",
      "address": null,
      "road_geometry": null
    },
    {
      "name": "Asado",
      "category": [
        "amenity.restaurant"
      ],
      "lat": 22.2760595,
      "lon": 114.1715165,
      "osm_id": 6789718735,
      "osm_type": "node",
      "address": null,
      "road_geometry": null
    },
    {
      "name": "\u96de\u5473\u6fc3",
      "category": [
        "amenity.restaurant"
      ],
      "lat": 22.2761778,
      "lon": 114.1715891,
      "osm_id": 6789718738,
      "osm_type": "node",
      "address": "\u5927\u738b\u6771\u8857 Tai Wong Street East",
      "road_geometry": null
    },
    {
      "name": "\u9903\u6382\u624b\u5de5\u9903\u5b50\u5c08\u9580\u5e97 Nom Nom Dumpling",
      "category": [
        "amenity.restaurant"
      ],
      "lat": 22.2765748,
      "lon": 114.170913,
      "osm_id": 6792406537,
      "osm_type": "node",
      "address": null,
      "road_geometry": null
    },
    {
      "name": "Feather & Bone",
      "category": [
        "amenity.restaurant"
      ],
      "lat": 22.2769138,
      "lon": 114.1714154,
      "osm_id": 6792406539,
      "osm_type": "node",
      "address": null,
      "road_geometry": null
    },
    {
      "name": "DK1885",
      "category": [
        "amenity.restaurant"
      ],
      "lat": 22.2771257,
      "lon": 114.1712664,
      "osm_id": 6792406540,
      "osm_type": "node",
      "address": "\u8b5a\u81e3\u9053 Thomson Road",
      "road_geometry": null
    },
    {
      "name": "\u9999\u6e2f\u4ed4\u8336\u9910\u5ef3",
      "category": [
        "amenity.restaurant"
      ],
      "lat": 22.2771308,
      "lon": 114.1712065,
      "osm_id": 6792406541,
      "osm_type": "node",
      "address": "\u8b5a\u81e3\u9053 Thomson Road",
      "road_geometry": null
    },
    {
      "name": "Thaiwan",
      "category": [
        "amenity.bar"
      ],
      "lat": 22.2755876,
      "lon": 114.1718502,
      "osm_id": 6794764503,
      "osm_type": "node",
      "address": "\u5ec8\u9580\u8857 Amoy Street",
      "road_geometry": null
    },
    {
      "name": "\u995e\u53f0\u5f0f\u98df\u5802 Chan Taiwan Cuisine",
      "category": [
        "amenity.restaurant"
      ],
      "lat": 22.2760264,
      "lon": 114.1720626,
      "osm_id": 6794764510,
      "osm_type": "node",
      "address": "\u5ec8\u9580\u8857 Amoy Street",
      "road_geometry": null
    },
    {
      "name": "Flat Iron Steak",
      "category": [
        "amenity.restaurant"
      ],
      "lat": 22.2771806,
      "lon": 114.1699034,
      "osm_id": 6820139266,
      "osm_type": "node",
      "address": null,
      "road_geometry": null
    },
    {
      "name": "\u842c\u5be7 Mannings",
      "category": [
        "amenity.pharmacy",
        "shop.chemist"
      ],
      "lat": 22.2770627,
      "lon": 114.1701157,
      "osm_id": 6820139270,
      "osm_type": "node",
      "address": null,
      "road_geometry": null
    },
    {
      "name": "\u842c\u5229\u773c\u93e1",
      "category": [
        "shop.optician"
      ],
      "lat": 22.2770427,
      "lon": 114.1701485,
      "osm_id": 6820139275,
      "osm_type": "node",
      "address": null,
      "road_geometry": null
    },
    {
      "name": "\u91d1\u6689\u5efa\u6750",
      "category": [
        "shop.hardware"
      ],
      "lat": 22.2756689,
      "lon": 114.1715442,
      "osm_id": 6824578063,
      "osm_type": "node",
      "address": "\u6c55\u982d\u8857 Swatow Street",
      "road_geometry": null
    },
    {
      "name": "Poke Go",
      "category": [
        "amenity.restaurant"
      ],
      "lat": 22.2755484,
      "lon": 114.1714968,
      "osm_id": 6824578066,
      "osm_type": "node",
      "address": "\u6c55\u982d\u8857 Swatow Street",
      "road_geometry": null
    },
    {
      "name": "Holy Gaw",
      "category": [
        "amenity.restaurant"
      ],
      "lat": 22.2757562,
      "lon": 114.1716005,
      "osm_id": 6824578067,
      "osm_type": "node",
      "address": "\u6c55\u982d\u8857 Swatow Street",
      "road_geometry": null
    },
    {
      "name": "t.w.i.g.",
      "category": [
        "amenity.restaurant"
      ],
      "lat": 22.2754675,
      "lon": 114.171607,
      "osm_id": 6824578068,
      "osm_type": "node",
      "address": null,
      "road_geometry": null
    },
    {
      "name": "\u5eb7\u8aa0\u88dd\u4fee\u6c34\u96fb\u5de5\u7a0b",
      "category": [
        "shop.hardware"
      ],
      "lat": 22.2755482,
      "lon": 114.1716465,
      "osm_id": 6824578069,
      "osm_type": "node",
      "address": "\u6c55\u982d\u8857 Swatow Street",
      "road_geometry": null
    },
    {
      "name": "Mansons Lot",
      "category": [
        "amenity.restaurant"
      ],
      "lat": 22.2754789,
      "lon": 114.1714633,
      "osm_id": 6824578070,
      "osm_type": "node",
      "address": "\u6c55\u982d\u8857 Swatow Street",
      "road_geometry": null
    },
    {
      "name": "La Cremerie",
      "category": [
        "amenity.restaurant"
      ],
      "lat": 22.2754999,
      "lon": 114.1716224,
      "osm_id": 6824578071,
      "osm_type": "node",
      "address": null,
      "road_geometry": null
    },
    {
      "name": "Le Quinze Vins",
      "category": [
        "amenity.restaurant"
      ],
      "lat": 22.2756028,
      "lon": 114.1715241,
      "osm_id": 6824578072,
      "osm_type": "node",
      "address": "\u6c55\u982d\u8857 Swatow Street",
      "road_geometry": null
    },
    {
      "name": "\u5b9c\u5b89\u50a2\u4fec\u7a97\u7c3e E On Furniture",
      "category": [
        "shop.furniture"
      ],
      "lat": 22.2761497,
      "lon": 114.1698597,
      "osm_id": 6857211709,
      "osm_type": "node",
      "address": null,
      "road_geometry": null
    },
    {
      "name": "El Taquero",
      "category": [
        "amenity.pub"
      ],
      "lat": 22.2756108,
      "lon": 114.1705718,
      "osm_id": 6857211714,
      "osm_type": "node",
      "address": null,
      "road_geometry": null
    },
    {
      "name": "\u7b11\u5bb4\u5c45\u9152\u5c4b Sho-en Izakaya",
      "category": [
        "amenity.restaurant"
      ],
      "lat": 22.275211,
      "lon": 114.1719298,
      "osm_id": 6857211719,
      "osm_type": "node",
      "address": null,
      "road_geometry": null
    },
    {
      "name": "Luxus",
      "category": [
        "shop.beauty"
      ],
      "lat": 22.2755753,
      "lon": 114.1706361,
      "osm_id": 6857211720,
      "osm_type": "node",
      "address": null,
      "road_geometry": null
    },
    {
      "name": "\u7d05\u57ce Red City",
      "category": [
        "amenity.restaurant"
      ],
      "lat": 22.2769471,
      "lon": 114.1703086,
      "osm_id": 6956526851,
      "osm_type": "node",
      "address": null,
      "road_geometry": null
    },
    {
      "name": "\u806f\u767c\u8857 Lun Fat Street",
      "category": [
        "highway.bus_stop"
      ],
      "lat": 22.2759843,
      "lon": 114.1701551,
      "osm_id": 6956526870,
      "osm_type": "node",
      "address": null,
      "road_geometry": null
    },
    {
      "name": "\u4edf\u5473\u7f8e\u98df",
      "category": [
        "amenity.restaurant"
      ],
      "lat": 22.2763774,
      "lon": 114.1699049,
      "osm_id": 6956526871,
      "osm_type": "node",
      "address": "\u7687\u540e\u5927\u9053\u6771 Queen's Road East",
      "road_geometry": null
    },
    {
      "name": "Blue Hair",
      "category": [
        "shop.hairdresser"
      ],
      "lat": 22.2771205,
      "lon": 114.1713467,
      "osm_id": 7016155428,
      "osm_type": "node",
      "address": "\u8b5a\u81e3\u9053 Thomson Road",
      "road_geometry": null
    },
    {
      "name": "\u9999\u6e2f\u8d85\u7d1a\u9910\u5ef3",
      "category": [
        "amenity.restaurant"
      ],
      "lat": 22.277159,
      "lon": 114.1709133,
      "osm_id": 7016155429,
      "osm_type": "node",
      "address": "\u8b5a\u81e3\u9053 Thomson Road",
      "road_geometry": null
    },
    {
      "name": "\u68ee\u5c4b",
      "category": [
        "amenity.restaurant"
      ],
      "lat": 22.2771416,
      "lon": 114.1711213,
      "osm_id": 7016155432,
      "osm_type": "node",
      "address": null,
      "road_geometry": null
    },
    {
      "name": "\u83ef\u5357\u7c89\u9eb5\u8336\u9910\u5ef3",
      "category": [
        "amenity.restaurant"
      ],
      "lat": 22.2771628,
      "lon": 114.1708515,
      "osm_id": 7016155433,
      "osm_type": "node",
      "address": "\u8b5a\u81e3\u9053 Thomson Road",
      "road_geometry": null
    },
    {
      "name": "\u81ea\u5728\u8fb2\u5834",
      "category": [
        "amenity.restaurant"
      ],
      "lat": 22.2771524,
      "lon": 114.1710011,
      "osm_id": 7016155436,
      "osm_type": "node",
      "address": "\u8b5a\u81e3\u9053 Thomson Road",
      "road_geometry": null
    },
    {
      "name": "Motorino",
      "category": [
        "amenity.restaurant"
      ],
      "lat": 22.2759842,
      "lon": 114.1707369,
      "osm_id": 7053732328,
      "osm_type": "node",
      "address": "\u8239\u8857 Ship Street",
      "road_geometry": null
    },
    {
      "name": "\u7058\u4e94\u9109 Nadagogo",
      "category": [
        "amenity.restaurant"
      ],
      "lat": 22.2760532,
      "lon": 114.1709287,
      "osm_id": 7053732339,
      "osm_type": "node",
      "address": "\u8239\u8857 Ship Street",
      "road_geometry": null
    },
    {
      "name": "Associazione Chianti",
      "category": [
        "amenity.restaurant"
      ],
      "lat": 22.2760552,
      "lon": 114.1707795,
      "osm_id": 7053732356,
      "osm_type": "node",
      "address": "\u8239\u8857 Ship Street",
      "road_geometry": null
    },
    {
      "name": "BellissimO",
      "category": [
        "amenity.restaurant"
      ],
      "lat": 22.2757113,
      "lon": 114.1719193,
      "osm_id": 7127800608,
      "osm_type": "node",
      "address": "\u5ec8\u9580\u8857 Amoy Street",
      "road_geometry": null
    },
    {
      "name": "Tallore",
      "category": [
        "amenity.restaurant"
      ],
      "lat": 22.2756146,
      "lon": 114.1718636,
      "osm_id": 7127800609,
      "osm_type": "node",
      "address": null,
      "road_geometry": null
    },
    {
      "name": "Up Beat Music Studio",
      "category": [
        "shop.music"
      ],
      "lat": 22.2755096,
      "lon": 114.171811,
      "osm_id": 8038853983,
      "osm_type": "node",
      "address": "\u5ec8\u9580\u8857 Amoy Street",
      "road_geometry": null
    },
    {
      "name": "Co Ninety",
      "category": [
        "shop.variety_store"
      ],
      "lat": 22.2758629,
      "lon": 114.1698673,
      "osm_id": 8327125268,
      "osm_type": "node",
      "address": "\u79c0\u83ef\u574a Sau Wa Fong",
      "road_geometry": null
    },
    {
      "name": "Aurora Blooms",
      "category": [
        "shop.florist"
      ],
      "lat": 22.2757696,
      "lon": 114.1719491,
      "osm_id": 9245822204,
      "osm_type": "node",
      "address": "\u5ec8\u9580\u8857 Amoy Street",
      "road_geometry": null
    },
    {
      "name": "Levain",
      "category": [
        "shop.bakery"
      ],
      "lat": 22.2758459,
      "lon": 114.1707806,
      "osm_id": 10219947424,
      "osm_type": "node",
      "address": "\u7687\u540e\u5927\u9053\u6771 Queen's Road East",
      "road_geometry": null
    },
    {
      "name": "\u4e3c\u76db\u65e5\u672c\u6599\u7406",
      "category": [
        "amenity.restaurant"
      ],
      "lat": 22.2760777,
      "lon": 114.1720872,
      "osm_id": 11809537036,
      "osm_type": "node",
      "address": "\u5ec8\u9580\u8857 Amoy Street",
      "road_geometry": null
    },
    {
      "name": "Miu Wan Salon \u5999\u97fb\u9aee\u5eca",
      "category": [
        "shop.hairdresser"
      ],
      "lat": 22.2754962,
      "lon": 114.1712585,
      "osm_id": 12095029529,
      "osm_type": "node",
      "address": "\u7687\u540e\u5927\u9053\u6771 Queen's Road East",
      "road_geometry": null
    },
    {
      "name": "\u98df\u98ef Kin Kao",
      "category": [
        "amenity.restaurant"
      ],
      "lat": 22.2756748,
      "lon": 114.1711205,
      "osm_id": 12165336066,
      "osm_type": "node",
      "address": "\u5927\u738b\u6771\u8857 Tai Wong Street East",
      "road_geometry": null
    },
    {
      "name": "\u5ddd\u9928",
      "category": [
        "amenity.restaurant"
      ],
      "lat": 22.2757201,
      "lon": 114.17115,
      "osm_id": 12165336067,
      "osm_type": "node",
      "address": "\u5927\u738b\u6771\u8857 Tai Wong Street East",
      "road_geometry": null
    },
    {
      "name": "JOM",
      "category": [
        "amenity.restaurant"
      ],
      "lat": 22.275754,
      "lon": 114.1711716,
      "osm_id": 12165336068,
      "osm_type": "node",
      "address": "\u5927\u738b\u6771\u8857 Tai Wong Street East",
      "road_geometry": null
    },
    {
      "name": "\u51a0\u4e00\u71d2\u5473",
      "category": [
        "amenity.restaurant"
      ],
      "lat": 22.2769701,
      "lon": 114.1712054,
      "osm_id": 12358888798,
      "osm_type": "node",
      "address": null,
      "road_geometry": null
    },
    {
      "name": "Papa Deli",
      "category": [
        "amenity.cafe"
      ],
      "lat": 22.2765558,
      "lon": 114.1700253,
      "osm_id": 12358913862,
      "osm_type": "node",
      "address": null,
      "road_geometry": null
    },
    {
      "name": "\u7c73\u771f\u9bae Mi Zhen Xian",
      "category": [
        "amenity.restaurant"
      ],
      "lat": 22.2759225,
      "lon": 114.1720123,
      "osm_id": 12772070700,
      "osm_type": "node",
      "address": "\u5ec8\u9580\u8857 Amoy Street",
      "road_geometry": null
    },
    {
      "name": "\u5ee3\u9eb5\u5b50 Guang Mein Zi Noodle",
      "category": [
        "amenity.restaurant"
      ],
      "lat": 22.2756168,
      "lon": 114.1712416,
      "osm_id": 12772070702,
      "osm_type": "node",
      "address": null,
      "road_geometry": null
    },
    {
      "name": "Joa",
      "category": [
        "amenity.restaurant"
      ],
      "lat": 22.2762394,
      "lon": 114.1710273,
      "osm_id": 12772070703,
      "osm_type": "node",
      "address": "\u8239\u8857 Ship Street",
      "road_geometry": null
    }
  ]
}