{
  "image": "dataset/images/387.png",
  "center_lat": 22.276126126126126,
  "center_lon": 114.18068798057134,
  "bbox": [
    114.17947104053772,
    22.275,
    114.18190492060494,
    22.27725225225225
  ],
  "unique_categories": [
    "shop.furniture",
    "amenity.pub",
    "tourism.artwork",
    "shop.convenience",
    "amenity.restaurant",
    "highway.bus_stop",
    "shop.houseware",
    "amenity.cafe",
    "railway.tram_stop",
    "shop.lighting",
    "amenity.post_office",
    "tourism.hotel"
  ],
  "poi_count_per_category": {
    "shop.furniture": 1,
    "amenity.pub": 1,
    "tourism.artwork": 1,
    "shop.convenience": 1,
    "amenity.restaurant": 4,
    "highway.bus_stop": 18,
    "shop.houseware": 1,
    "amenity.cafe": 1,
    "railway.tram_stop": 1,
    "shop.lighting": 10,
    "amenity.post_office": 1,
    "tourism.hotel": 1
  },
  "poi_count": 41,
  "pois": [
    {
      "name": "\u5357\u6d0b\u9152\u5e97 South Pacific Hotel",
      "category": [
        "highway.bus_stop"
      ],
      "lat": 22.2772453,
      "lon": 114.1802481,
      "osm_id": 660415806,
      "osm_type": "node",
      "address": null,
      "road_geometry": null
    },
    {
      "name": "\u5357\u6d0b\u9152\u5e97 South Pacific Hotel",
      "category": [
        "highway.bus_stop"
      ],
      "lat": 22.2770372,
      "lon": 114.1803277,
      "osm_id": 660415807,
      "osm_type": "node",
      "address": null,
      "road_geometry": null
    },
    {
      "name": "\u7acb\u5fb7\u91cc Lap Tak Lane",
      "category": [
        "highway.bus_stop"
      ],
      "lat": 22.2760686,
      "lon": 114.1801925,
      "osm_id": 660415808,
      "osm_type": "node",
      "address": null,
      "road_geometry": null
    },
    {
      "name": "\u5357\u6d0b\u9152\u5e97 South Pacific Hotel",
      "category": [
        "highway.bus_stop"
      ],
      "lat": 22.276999,
      "lon": 114.18014,
      "osm_id": 660415809,
      "osm_type": "node",
      "address": null,
      "road_geometry": null
    },
    {
      "name": "Brunch Club and Supper",
      "category": [
        "amenity.restaurant"
      ],
      "lat": 22.2769652,
      "lon": 114.1815766,
      "osm_id": 1106906595,
      "osm_type": "node",
      "address": null,
      "road_geometry": null
    },
    {
      "name": "The Derby",
      "category": [
        "amenity.pub"
      ],
      "lat": 22.2759891,
      "lon": 114.1801061,
      "osm_id": 1106907865,
      "osm_type": "node",
      "address": "\u6469\u7406\u81e3\u5c71\u9053 Morrison Hill Road",
      "road_geometry": null
    },
    {
      "name": "\u8dd1\u99ac\u5730\u99ac\u5834 Happy Valley Racecourse",
      "category": [
        "highway.bus_stop"
      ],
      "lat": 22.2755815,
      "lon": 114.1804972,
      "osm_id": 2588633812,
      "osm_type": "node",
      "address": "Morrison Hill Road",
      "road_geometry": null
    },
    {
      "name": "\u6469\u7406\u81e3\u5c71\u9053 Morrison Hill Road",
      "category": [
        "railway.tram_stop"
      ],
      "lat": 22.2758504,
      "lon": 114.1805443,
      "osm_id": 3112114532,
      "osm_type": "node",
      "address": null,
      "road_geometry": null
    },
    {
      "name": "\u52ff\u5730\u81e3\u8857 Matheson Street",
      "category": [
        "highway.bus_stop"
      ],
      "lat": 22.2770209,
      "lon": 114.181879,
      "osm_id": 3304038688,
      "osm_type": "node",
      "address": null,
      "road_geometry": null
    },
    {
      "name": "\u8dd1\u99ac\u5730\u99ac\u5834 Happy Valley Racecourse",
      "category": [
        "highway.bus_stop"
      ],
      "lat": 22.2754334,
      "lon": 114.1805375,
      "osm_id": 4597266755,
      "osm_type": "node",
      "address": null,
      "road_geometry": null
    },
    {
      "name": "\u79ae\u9813\u9053 Leighton Road",
      "category": [
        "highway.bus_stop"
      ],
      "lat": 22.2761584,
      "lon": 114.1803795,
      "osm_id": 4597293832,
      "osm_type": "node",
      "address": null,
      "road_geometry": null
    },
    {
      "name": "Butterfly on Morrison",
      "category": [
        "tourism.hotel"
      ],
      "lat": 22.2767452,
      "lon": 114.1804982,
      "osm_id": 4855978207,
      "osm_type": "node",
      "address": "\u6469\u7406\u81e3\u5c71\u9053 Morrison Hill Road",
      "road_geometry": null
    },
    {
      "name": "\u7acb\u5fb7\u91cc Lap Tak Lane",
      "category": [
        "highway.bus_stop"
      ],
      "lat": 22.2760929,
      "lon": 114.1802033,
      "osm_id": 4856012855,
      "osm_type": "node",
      "address": null,
      "road_geometry": null
    },
    {
      "name": "\u6b77\u7a0b Zodiac",
      "category": [
        "shop.lighting"
      ],
      "lat": 22.2764256,
      "lon": 114.1802541,
      "osm_id": 4856012856,
      "osm_type": "node",
      "address": null,
      "road_geometry": null
    },
    {
      "name": "Euro Lux",
      "category": [
        "shop.lighting"
      ],
      "lat": 22.2765914,
      "lon": 114.1802278,
      "osm_id": 4856023874,
      "osm_type": "node",
      "address": "\u6469\u7406\u81e3\u5c71\u9053 Morrison Hill Road",
      "road_geometry": null
    },
    {
      "name": "\u5bf6\u65af\u7167\u660e\u8a2d\u8a08 Boss Lighting Design",
      "category": [
        "shop.lighting"
      ],
      "lat": 22.2766981,
      "lon": 114.180193,
      "osm_id": 4856023875,
      "osm_type": "node",
      "address": "\u6469\u7406\u81e3\u5c71\u9053 Morrison Hill Road",
      "road_geometry": null
    },
    {
      "name": "PLC Galleria",
      "category": [
        "shop.lighting"
      ],
      "lat": 22.2767514,
      "lon": 114.1801757,
      "osm_id": 4856023878,
      "osm_type": "node",
      "address": "\u6469\u7406\u81e3\u5c71\u9053 Morrison Hill Road",
      "road_geometry": null
    },
    {
      "name": "E Lighting",
      "category": [
        "shop.lighting"
      ],
      "lat": 22.2767937,
      "lon": 114.1801619,
      "osm_id": 4856023879,
      "osm_type": "node",
      "address": null,
      "road_geometry": null
    },
    {
      "name": "\u9999\u6e2f\u7ad9\u7167\u660e Hong Kong Lighting",
      "category": [
        "shop.lighting"
      ],
      "lat": 22.2768992,
      "lon": 114.1801245,
      "osm_id": 4856023880,
      "osm_type": "node",
      "address": "\u6469\u7406\u81e3\u5c71\u9053 Morrison Hill Road",
      "road_geometry": null
    },
    {
      "name": "\u90fd\u6703\u7167\u660e Metropolis",
      "category": [
        "shop.lighting"
      ],
      "lat": 22.27697,
      "lon": 114.1800989,
      "osm_id": 4856023881,
      "osm_type": "node",
      "address": "\u6469\u7406\u81e3\u5c71\u9053 Morrison Hill Road",
      "road_geometry": null
    },
    {
      "name": "\u6b77\u7a0b\u7167\u660e Zodiac Lighting ProLux Showroom",
      "category": [
        "shop.lighting"
      ],
      "lat": 22.2770135,
      "lon": 114.1800832,
      "osm_id": 4856023882,
      "osm_type": "node",
      "address": null,
      "road_geometry": null
    },
    {
      "name": "E Lighting",
      "category": [
        "shop.lighting"
      ],
      "lat": 22.2771997,
      "lon": 114.1800128,
      "osm_id": 4856023883,
      "osm_type": "node",
      "address": null,
      "road_geometry": null
    },
    {
      "name": "German Pool",
      "category": [
        "shop.houseware"
      ],
      "lat": 22.2772322,
      "lon": 114.1799942,
      "osm_id": 4856023884,
      "osm_type": "node",
      "address": "\u6469\u7406\u81e3\u5c71\u9053 Morrison Hill Road",
      "road_geometry": null
    },
    {
      "name": "Finest Home",
      "category": [
        "shop.furniture"
      ],
      "lat": 22.2766448,
      "lon": 114.1802104,
      "osm_id": 4858269613,
      "osm_type": "node",
      "address": "\u6469\u7406\u81e3\u5c71\u9053 Morrison Hill Road",
      "road_geometry": null
    },
    {
      "name": "M&G Lighting",
      "category": [
        "shop.lighting"
      ],
      "lat": 22.2768498,
      "lon": 114.1801424,
      "osm_id": 4858269614,
      "osm_type": "node",
      "address": null,
      "road_geometry": null
    },
    {
      "name": "\u65b0\u5609\u7f8e\u8336\u9910\u5ef3 SKM Restaurant",
      "category": [
        "amenity.restaurant"
      ],
      "lat": 22.2771672,
      "lon": 114.1800315,
      "osm_id": 4858269615,
      "osm_type": "node",
      "address": "\u6469\u7406\u81e3\u5c71\u9053 Morrison Hill Road",
      "road_geometry": null
    },
    {
      "name": "7-Eleven",
      "category": [
        "shop.convenience"
      ],
      "lat": 22.2770413,
      "lon": 114.1818072,
      "osm_id": 4860776556,
      "osm_type": "node",
      "address": "\u79ae\u9813\u9053 Leighton Road",
      "road_geometry": null
    },
    {
      "name": "Mother of Pizzas",
      "category": [
        "amenity.restaurant"
      ],
      "lat": 22.2769499,
      "lon": 114.1815844,
      "osm_id": 4860776557,
      "osm_type": "node",
      "address": "\u79ae\u9813\u9053 Leighton Road",
      "road_geometry": null
    },
    {
      "name": "\u87e0\u9f8d\u737b\u745e",
      "category": [
        "tourism.artwork"
      ],
      "lat": 22.2762679,
      "lon": 114.1804168,
      "osm_id": 5199536968,
      "osm_type": "node",
      "address": null,
      "road_geometry": null
    },
    {
      "name": "\u6469\u7406\u81e3\u5c71\u90f5\u653f\u5c40 Morrison Hill Post Office",
      "category": [
        "amenity.post_office"
      ],
      "lat": 22.2759132,
      "lon": 114.1795105,
      "osm_id": 5386799345,
      "osm_type": "node",
      "address": "\u611b\u7fa4\u9053 Oi Kwan Road",
      "road_geometry": null
    },
    {
      "name": "\u5805\u62ff\u9053\u897f Canal Road West",
      "category": [
        "highway.bus_stop"
      ],
      "lat": 22.2772426,
      "lon": 114.1809602,
      "osm_id": 7139929037,
      "osm_type": "node",
      "address": null,
      "road_geometry": null
    },
    {
      "name": "\u8dd1\u99ac\u5730\u99ac\u5834 Happy Valley Racecourse",
      "category": [
        "highway.bus_stop"
      ],
      "lat": 22.2758045,
      "lon": 114.1807204,
      "osm_id": 7968671312,
      "osm_type": "node",
      "address": null,
      "road_geometry": null
    },
    {
      "name": "\u5357\u6d0b\u9152\u5e97 South Pacific Hotel",
      "category": [
        "highway.bus_stop"
      ],
      "lat": 22.2768662,
      "lon": 114.180188,
      "osm_id": 7975658804,
      "osm_type": "node",
      "address": null,
      "road_geometry": null
    },
    {
      "name": "\u79ae\u9813\u9053 Leighton Road",
      "category": [
        "highway.bus_stop"
      ],
      "lat": 22.2760687,
      "lon": 114.1803241,
      "osm_id": 7975658805,
      "osm_type": "node",
      "address": null,
      "road_geometry": null
    },
    {
      "name": "\u5c71\u65ee\u65ef San Ka La",
      "category": [
        "amenity.restaurant"
      ],
      "lat": 22.2757426,
      "lon": 114.1798016,
      "osm_id": 10093516721,
      "osm_type": "node",
      "address": "\u6469\u7406\u81e3\u5c71\u9053 Morrison Hill Road",
      "road_geometry": null
    },
    {
      "name": "\u7b11\u6797\u5bfa Cloud nine specialty coffee",
      "category": [
        "amenity.cafe"
      ],
      "lat": 22.2770237,
      "lon": 114.1803841,
      "osm_id": 10117501500,
      "osm_type": "node",
      "address": "\u6469\u7406\u81e3\u5c71\u9053 Morrison Hill Road",
      "road_geometry": null
    },
    {
      "name": "\u7acb\u5fb7\u91cc Lap Tak Lane",
      "category": [
        "highway.bus_stop"
      ],
      "lat": 22.2762216,
      "lon": 114.1802509,
      "osm_id": 12249339190,
      "osm_type": "node",
      "address": null,
      "road_geometry": null
    },
    {
      "name": "\u5d07\u5fb7\u8857 Sung Tak Street",
      "category": [
        "highway.bus_stop"
      ],
      "lat": 22.2754517,
      "lon": 114.179861,
      "osm_id": 12373492747,
      "osm_type": "node",
      "address": null,
      "road_geometry": null
    },
    {
      "name": "\u5357\u6d0b\u9152\u5e97 South Pacific Hotel",
      "category": [
        "highway.bus_stop"
      ],
      "lat": 22.2768784,
      "lon": 114.1803746,
      "osm_id": 12500370995,
      "osm_type": "node",
      "address": null,
      "road_geometry": null
    },
    {
      "name": "\u8dd1\u99ac\u5730\u99ac\u5834 Happy Valley Racecourse",
      "category": [
        "highway.bus_stop"
      ],
      "lat": 22.2754476,
      "lon": 114.1805516,
      "osm_id": 12539328862,
      "osm_type": "node",
      "address": null,
      "road_geometry": null
    },
    {
      "name": "\u79ae\u9813\u9053 Leighton Road",
      "category": [
        "highway.bus_stop"
      ],
      "lat": 22.2761661,
      "lon": 114.1803853,
      "osm_id": 12956366822,
      "osm_type": "node",
      "address": null,
      "road_geometry": null
    }
  ]
}