{
  "image": "dataset/images/391.png",
  "center_lat": 22.278378378378378,
  "center_lon": 114.16365087888956,
  "bbox": [
    114.1624339192597,
    22.27725225225225,
    114.1648678385194,
    22.2795045045045
  ],
  "unique_categories": [
    "railway.subway_entrance",
    "amenity.money_transfer",
    "amenity.restaurant",
    "highway.bus_stop",
    "shop.gift",
    "shop.sports",
    "amenity.cafe",
    "shop.copyshop;shoes",
    "shop.cosmetics",
    "railway.tram_stop",
    "shop.department_store",
    "shop.supermarket",
    "amenity.clinic",
    "shop.clothes",
    "shop.shoes",
    "shop.jewelry"
  ],
  "poi_count_per_category": {
    "railway.subway_entrance": 3,
    "amenity.money_transfer": 1,
    "amenity.restaurant": 2,
    "highway.bus_stop": 17,
    "shop.gift": 1,
    "shop.sports": 1,
    "amenity.cafe": 3,
    "shop.copyshop;shoes": 1,
    "shop.cosmetics": 1,
    "railway.tram_stop": 3,
    "shop.department_store": 3,
    "shop.supermarket": 2,
    "amenity.clinic": 1,
    "shop.clothes": 1,
    "shop.shoes": 1,
    "shop.jewelry": 2
  },
  "poi_count": 43,
  "pois": [
    {
      "name": "\u91d1\u9418 - \u6e2f\u9421 C \u51fa\u53e3 Admiralty - MTR Exit C",
      "category": [
        "highway.bus_stop"
      ],
      "lat": 22.2789356,
      "lon": 114.1646285,
      "osm_id": 165997777,
      "osm_type": "node",
      "address": null,
      "road_geometry": null
    },
    {
      "name": "\u91d1\u9418\u7ad9 - \u6dfb\u99ac\u8857 Admiralty Station - Tamar Street",
      "category": [
        "highway.bus_stop"
      ],
      "lat": 22.2791779,
      "lon": 114.1639988,
      "osm_id": 508016452,
      "osm_type": "node",
      "address": null,
      "road_geometry": null
    },
    {
      "name": "\u91d1\u9418\u6e2f\u9435\u7ad9 Admiralty MTR Station",
      "category": [
        "railway.tram_stop"
      ],
      "lat": 22.278281,
      "lon": 114.164628,
      "osm_id": 601280766,
      "osm_type": "node",
      "address": null,
      "road_geometry": null
    },
    {
      "name": "\u91d1\u9418\u5eca Queensway Plaza",
      "category": [
        "railway.subway_entrance"
      ],
      "lat": 22.2785189,
      "lon": 114.1647676,
      "osm_id": 1234054220,
      "osm_type": "node",
      "address": null,
      "road_geometry": null
    },
    {
      "name": "\u91d1\u9418\u7ad9 - \u9ad8\u7b49\u6cd5\u9662 Admiralty Station - High Court",
      "category": [
        "highway.bus_stop"
      ],
      "lat": 22.278399,
      "lon": 114.163885,
      "osm_id": 1906352501,
      "osm_type": "node",
      "address": null,
      "road_geometry": null
    },
    {
      "name": "\u91d1\u9418 - \u91d1\u9418\u82b1\u5712 Admiralty - Admiralty Garden",
      "category": [
        "highway.bus_stop"
      ],
      "lat": 22.2787337,
      "lon": 114.1641884,
      "osm_id": 1906352511,
      "osm_type": "node",
      "address": null,
      "road_geometry": null
    },
    {
      "name": "\u91d1\u9418 - \u91d1\u9418\u5eca Admiralty - Queensway Plaza",
      "category": [
        "highway.bus_stop"
      ],
      "lat": 22.2784747,
      "lon": 114.1646458,
      "osm_id": 1906352515,
      "osm_type": "node",
      "address": null,
      "road_geometry": null
    },
    {
      "name": "\u661f\u5df4\u514b Starbucks",
      "category": [
        "amenity.cafe"
      ],
      "lat": 22.2775901,
      "lon": 114.164536,
      "osm_id": 1952090007,
      "osm_type": "node",
      "address": null,
      "road_geometry": null
    },
    {
      "name": "Lock Cha Tea House",
      "category": [
        "amenity.cafe"
      ],
      "lat": 22.2778937,
      "lon": 114.1626276,
      "osm_id": 2247794007,
      "osm_type": "node",
      "address": null,
      "road_geometry": null
    },
    {
      "name": "\u91d1\u9418\u7ad9 Admiralty Station",
      "category": [
        "highway.bus_stop"
      ],
      "lat": 22.2787065,
      "lon": 114.1642477,
      "osm_id": 2423106205,
      "osm_type": "node",
      "address": null,
      "road_geometry": null
    },
    {
      "name": "\u91d1\u9418 - \u91d1\u9418\u5eca Admiralty - Queensway Plaza",
      "category": [
        "highway.bus_stop"
      ],
      "lat": 22.2785054,
      "lon": 114.1645408,
      "osm_id": 2423106206,
      "osm_type": "node",
      "address": null,
      "road_geometry": null
    },
    {
      "name": "\u91d1\u9418 - \u91d1\u9418\u82b1\u5712 Admiralty - Admiralty Garden",
      "category": [
        "highway.bus_stop"
      ],
      "lat": 22.2786211,
      "lon": 114.1642111,
      "osm_id": 2423106207,
      "osm_type": "node",
      "address": null,
      "road_geometry": null
    },
    {
      "name": "\u91d1\u9418 - \u91d1\u9418\u82b1\u5712 Admiralty - Admiralty Garden",
      "category": [
        "highway.bus_stop"
      ],
      "lat": 22.278611,
      "lon": 114.1644015,
      "osm_id": 2423106208,
      "osm_type": "node",
      "address": null,
      "road_geometry": null
    },
    {
      "name": "\u91d1\u9418\u6e2f\u9435\u7ad9 Admiralty MTR Station",
      "category": [
        "railway.tram_stop"
      ],
      "lat": 22.2783988,
      "lon": 114.1643304,
      "osm_id": 2496629534,
      "osm_type": "node",
      "address": null,
      "road_geometry": null
    },
    {
      "name": "\u7d05\u68c9\u9053 Cotton Tree Drive",
      "category": [
        "railway.tram_stop"
      ],
      "lat": 22.2790329,
      "lon": 114.1631612,
      "osm_id": 2496629587,
      "osm_type": "node",
      "address": null,
      "road_geometry": null
    },
    {
      "name": "\u91d1\u9418\u7ad9 - \u9ad8\u7b49\u6cd5\u9662 Admiralty Station - High Court",
      "category": [
        "highway.bus_stop"
      ],
      "lat": 22.2783853,
      "lon": 114.1639133,
      "osm_id": 2496629595,
      "osm_type": "node",
      "address": null,
      "road_geometry": null
    },
    {
      "name": "\u5fb7\u7acb\u8857 Drake Street",
      "category": [
        "railway.subway_entrance"
      ],
      "lat": 22.2793539,
      "lon": 114.164107,
      "osm_id": 2556667487,
      "osm_type": "node",
      "address": null,
      "road_geometry": null
    },
    {
      "name": "\u91d1\u9418\u5eca Queensway Plaza",
      "category": [
        "railway.subway_entrance"
      ],
      "lat": 22.2790194,
      "lon": 114.1647669,
      "osm_id": 2556667489,
      "osm_type": "node",
      "address": null,
      "road_geometry": null
    },
    {
      "name": "\u91d1\u9418 - \u6e2f\u9421 C \u51fa\u53e3 Admiralty - MTR Exit C",
      "category": [
        "highway.bus_stop"
      ],
      "lat": 22.279057,
      "lon": 114.1644301,
      "osm_id": 3066136919,
      "osm_type": "node",
      "address": null,
      "road_geometry": null
    },
    {
      "name": "Hong Kong Records ;KURT GEIGER",
      "category": [
        "shop.copyshop;shoes"
      ],
      "lat": 22.277676,
      "lon": 114.1646033,
      "osm_id": 4168504789,
      "osm_type": "node",
      "address": null,
      "road_geometry": null
    },
    {
      "name": "GigaSports",
      "category": [
        "shop.sports"
      ],
      "lat": 22.2775983,
      "lon": 114.1647698,
      "osm_id": 4168504889,
      "osm_type": "node",
      "address": null,
      "road_geometry": null
    },
    {
      "name": "Lane Crawford",
      "category": [
        "shop.department_store"
      ],
      "lat": 22.2776042,
      "lon": 114.1647079,
      "osm_id": 4168508589,
      "osm_type": "node",
      "address": null,
      "road_geometry": null
    },
    {
      "name": "FRYWILLE ",
      "category": [
        "shop.jewelry"
      ],
      "lat": 22.2776631,
      "lon": 114.1647625,
      "osm_id": 4168510390,
      "osm_type": "node",
      "address": null,
      "road_geometry": null
    },
    {
      "name": "Emphasis Jewellery",
      "category": [
        "shop.jewelry"
      ],
      "lat": 22.2776634,
      "lon": 114.1647284,
      "osm_id": 4168510489,
      "osm_type": "node",
      "address": null,
      "road_geometry": null
    },
    {
      "name": "COSMOPARIS ",
      "category": [
        "shop.shoes"
      ],
      "lat": 22.2776643,
      "lon": 114.1646824,
      "osm_id": 4168510589,
      "osm_type": "node",
      "address": null,
      "road_geometry": null
    },
    {
      "name": "Harvey Nichols ",
      "category": [
        "shop.department_store"
      ],
      "lat": 22.2776062,
      "lon": 114.1646217,
      "osm_id": 4168510689,
      "osm_type": "node",
      "address": null,
      "road_geometry": null
    },
    {
      "name": "Jo Malone",
      "category": [
        "shop.gift"
      ],
      "lat": 22.2776624,
      "lon": 114.1646302,
      "osm_id": 4168510790,
      "osm_type": "node",
      "address": null,
      "road_geometry": null
    },
    {
      "name": "great & food hall",
      "category": [
        "shop.supermarket"
      ],
      "lat": 22.2774588,
      "lon": 114.1646181,
      "osm_id": 4168511490,
      "osm_type": "node",
      "address": null,
      "road_geometry": null
    },
    {
      "name": "Burberry",
      "category": [
        "shop.clothes"
      ],
      "lat": 22.27782,
      "lon": 114.1645864,
      "osm_id": 4168512689,
      "osm_type": "node",
      "address": null,
      "road_geometry": null
    },
    {
      "name": "The Body Shop",
      "category": [
        "shop.cosmetics"
      ],
      "lat": 22.2792404,
      "lon": 114.1645121,
      "osm_id": 4172507990,
      "osm_type": "node",
      "address": null,
      "road_geometry": null
    },
    {
      "name": "simplylife",
      "category": [
        "amenity.restaurant"
      ],
      "lat": 22.2787174,
      "lon": 114.1645645,
      "osm_id": 4172508089,
      "osm_type": "node",
      "address": null,
      "road_geometry": null
    },
    {
      "name": "\u661f\u5df4\u514b Starbucks",
      "category": [
        "amenity.cafe"
      ],
      "lat": 22.2775169,
      "lon": 114.1645574,
      "osm_id": 4828730521,
      "osm_type": "node",
      "address": null,
      "road_geometry": null
    },
    {
      "name": "Ruth's Chris Steak House",
      "category": [
        "amenity.restaurant"
      ],
      "lat": 22.2794215,
      "lon": 114.1632573,
      "osm_id": 4857785000,
      "osm_type": "node",
      "address": "\u7d05\u68c9\u8def Cotton Tree Drive",
      "road_geometry": null
    },
    {
      "name": "Quality Healthcare",
      "category": [
        "amenity.clinic"
      ],
      "lat": 22.2794407,
      "lon": 114.1647372,
      "osm_id": 6344706185,
      "osm_type": "node",
      "address": null,
      "road_geometry": null
    },
    {
      "name": "\u6dfb\u99ac\u8857\u529b\u5bf6\u4e2d\u5fc3 Tamar Street Lippo Centre",
      "category": [
        "highway.bus_stop"
      ],
      "lat": 22.2791812,
      "lon": 114.1640014,
      "osm_id": 8141829979,
      "osm_type": "node",
      "address": null,
      "road_geometry": null
    },
    {
      "name": "\u91d1\u9418\u7ad9 - \u6dfb\u99ac\u8857 Admiralty Station - Tamar Street",
      "category": [
        "highway.bus_stop"
      ],
      "lat": 22.2790445,
      "lon": 114.1638944,
      "osm_id": 9959325012,
      "osm_type": "node",
      "address": null,
      "road_geometry": null
    },
    {
      "name": "\u91d1\u9418\u7ad9 - \u6dfb\u99ac\u8857 Admiralty Station - Tamar Street",
      "category": [
        "highway.bus_stop"
      ],
      "lat": 22.2791318,
      "lon": 114.1639627,
      "osm_id": 9961203505,
      "osm_type": "node",
      "address": null,
      "road_geometry": null
    },
    {
      "name": "\u82f1\u5f0f\u8d85\u5e02 UK Store by hktvmall",
      "category": [
        "shop.supermarket"
      ],
      "lat": 22.279198,
      "lon": 114.164463,
      "osm_id": 11655897474,
      "osm_type": "node",
      "address": null,
      "road_geometry": null
    },
    {
      "name": "\u91d1\u9418\u7ad9 - \u9ad8\u7b49\u6cd5\u9662 Admiralty Station - High Court",
      "category": [
        "highway.bus_stop"
      ],
      "lat": 22.278421,
      "lon": 114.1638399,
      "osm_id": 11760735037,
      "osm_type": "node",
      "address": null,
      "road_geometry": null
    },
    {
      "name": "\u91d1\u9418 - \u6e2f\u9421 C \u51fa\u53e3 Admiralty - MTR Exit C",
      "category": [
        "highway.bus_stop"
      ],
      "lat": 22.2789997,
      "lon": 114.1645237,
      "osm_id": 11898071855,
      "osm_type": "node",
      "address": null,
      "road_geometry": null
    },
    {
      "name": "\u9ad8\u7b49\u6cd5\u9662 High Court",
      "category": [
        "highway.bus_stop"
      ],
      "lat": 22.2784036,
      "lon": 114.1638756,
      "osm_id": 12696505471,
      "osm_type": "node",
      "address": null,
      "road_geometry": null
    },
    {
      "name": "Muji",
      "category": [
        "shop.department_store"
      ],
      "lat": 22.2776652,
      "lon": 114.1643876,
      "osm_id": 12730257002,
      "osm_type": "node",
      "address": "\u91d1\u9418\u9053 Queensway",
      "road_geometry": null
    },
    {
      "name": "Crypto HK",
      "category": [
        "amenity.money_transfer"
      ],
      "lat": 22.2792561,
      "lon": 114.163855,
      "osm_id": 13103190755,
      "osm_type": "node",
      "address": "\u590f\u6164\u9053 Harcourt Road",
      "road_geometry": null
    }
  ]
}