{
  "image": "dataset/images/396.png",
  "center_lat": 22.278378378378378,
  "center_lon": 114.17582047518806,
  "bbox": [
    114.1746035155582,
    22.27725225225225,
    114.1770374348179,
    22.2795045045045
  ],
  "unique_categories": [
    "amenity.marketplace",
    "shop.musical_instrument",
    "shop.yes",
    "amenity.restaurant",
    "shop.houseware",
    "amenity.cafe",
    "amenity.fuel",
    "shop.kitchen",
    "tourism.hostel",
    "amenity.atm",
    "shop.convenience",
    "shop.doityourself",
    "highway.bus_stop",
    "shop.sports",
    "shop.interior_decoration",
    "amenity.fast_food",
    "shop.clothes",
    "amenity.bureau_de_change",
    "amenity.money_transfer",
    "shop.chemist",
    "tourism.attraction",
    "amenity.food_court",
    "shop.tiles",
    "amenity.pharmacy",
    "amenity.library",
    "shop.bakery",
    "shop.electronics",
    "railway.tram_stop",
    "leisure.sports_centre",
    "shop.car",
    "amenity.bank",
    "shop.shoes",
    "shop.jewelry"
  ],
  "poi_count_per_category": {
    "amenity.marketplace": 1,
    "shop.musical_instrument": 1,
    "shop.yes": 9,
    "amenity.restaurant": 18,
    "shop.houseware": 2,
    "amenity.cafe": 2,
    "amenity.fuel": 1,
    "shop.kitchen": 1,
    "tourism.hostel": 1,
    "amenity.atm": 2,
    "shop.convenience": 8,
    "shop.doityourself": 9,
    "highway.bus_stop": 19,
    "shop.sports": 1,
    "shop.interior_decoration": 1,
    "amenity.fast_food": 1,
    "shop.clothes": 2,
    "amenity.bureau_de_change": 1,
    "amenity.money_transfer": 1,
    "shop.chemist": 2,
    "tourism.attraction": 1,
    "amenity.food_court": 1,
    "shop.tiles": 2,
    "amenity.pharmacy": 3,
    "amenity.library": 1,
    "shop.bakery": 1,
    "shop.electronics": 2,
    "railway.tram_stop": 1,
    "leisure.sports_centre": 1,
    "shop.car": 2,
    "amenity.bank": 4,
    "shop.shoes": 1,
    "shop.jewelry": 1
  },
  "poi_count": 102,
  "pois": [
    {
      "name": "Caltex",
      "category": [
        "amenity.fuel"
      ],
      "lat": 22.2777811,
      "lon": 114.1764027,
      "osm_id": 1002550715,
      "osm_type": "node",
      "address": "\u8ed2\u5c3c\u8a69\u9053 Hennessy Road",
      "road_geometry": null
    },
    {
      "name": "\u5c48\u81e3\u6c0f Watsons",
      "category": [
        "amenity.pharmacy",
        "shop.chemist"
      ],
      "lat": 22.27797,
      "lon": 114.174895,
      "osm_id": 1298704570,
      "osm_type": "node",
      "address": "\u8ed2\u5c3c\u8a69\u9053 Hennessy Road",
      "road_geometry": null
    },
    {
      "name": "7-Eleven",
      "category": [
        "shop.convenience"
      ],
      "lat": 22.2780833,
      "lon": 114.1761409,
      "osm_id": 1298704576,
      "osm_type": "node",
      "address": "\u8ed2\u5c3c\u8a69\u9053 Hennessy Road",
      "road_geometry": null
    },
    {
      "name": "\u82f1\u7687\u73e0\u5bf6 Emperor Jewellery",
      "category": [
        "shop.jewelry"
      ],
      "lat": 22.27773,
      "lon": 114.17689,
      "osm_id": 1298704628,
      "osm_type": "node",
      "address": null,
      "road_geometry": null
    },
    {
      "name": "\u4e2d\u570b\u5de5\u5546\u9280\u884c\uff08\u4e9e\u6d32\uff09 ICBC (Asia)",
      "category": [
        "amenity.bank"
      ],
      "lat": 22.2776067,
      "lon": 114.1746212,
      "osm_id": 1298704770,
      "osm_type": "node",
      "address": null,
      "road_geometry": null
    },
    {
      "name": "\u5275\u8208\u9280\u884c Chong Hing Bank",
      "category": [
        "amenity.bank"
      ],
      "lat": 22.27814,
      "lon": 114.17664,
      "osm_id": 1298704858,
      "osm_type": "node",
      "address": "\u53f2\u91d7\u57df\u9053 Stewart Road",
      "road_geometry": null
    },
    {
      "name": "\u6771\u4e9e\u9280\u884c BEA",
      "category": [
        "amenity.bank"
      ],
      "lat": 22.278111,
      "lon": 114.17638,
      "osm_id": 1298704881,
      "osm_type": "node",
      "address": null,
      "road_geometry": null
    },
    {
      "name": "7-Eleven",
      "category": [
        "shop.convenience"
      ],
      "lat": 22.2775519,
      "lon": 114.1749213,
      "osm_id": 1298704940,
      "osm_type": "node",
      "address": null,
      "road_geometry": null
    },
    {
      "name": "\u5df4\u8def\u58eb\u8857 Burrows Street",
      "category": [
        "railway.tram_stop"
      ],
      "lat": 22.2773347,
      "lon": 114.1759892,
      "osm_id": 2498627211,
      "osm_type": "node",
      "address": null,
      "road_geometry": null
    },
    {
      "name": "\u8ed2\u5c3c\u8a69\u9053\u5b98\u7acb\u5c0f\u5b78 Hennessy Road Government Primary School",
      "category": [
        "highway.bus_stop"
      ],
      "lat": 22.2777298,
      "lon": 114.17544,
      "osm_id": 2585382686,
      "osm_type": "node",
      "address": null,
      "road_geometry": null
    },
    {
      "name": "\u8ed2\u5c3c\u8a69\u9053\u5b98\u7acb\u5c0f\u5b78 Hennessy Road Government Primary School",
      "category": [
        "highway.bus_stop"
      ],
      "lat": 22.2777331,
      "lon": 114.17547,
      "osm_id": 2585382687,
      "osm_type": "node",
      "address": null,
      "road_geometry": null
    },
    {
      "name": "\u8ed2\u5c3c\u8a69\u9053\u5b98\u7acb\u5c0f\u5b78 Hennessy Road Government Primary School",
      "category": [
        "highway.bus_stop"
      ],
      "lat": 22.2777375,
      "lon": 114.17551,
      "osm_id": 2585382688,
      "osm_type": "node",
      "address": null,
      "road_geometry": null
    },
    {
      "name": "\u8ed2\u5c3c\u8a69\u9053\u5b98\u7acb\u5c0f\u5b78 Hennessy Road Government Primary School",
      "category": [
        "highway.bus_stop"
      ],
      "lat": 22.27778,
      "lon": 114.175897,
      "osm_id": 2585382689,
      "osm_type": "node",
      "address": null,
      "road_geometry": null
    },
    {
      "name": "\u8b5a\u81e3\u9053 Thomson Road",
      "category": [
        "highway.bus_stop"
      ],
      "lat": 22.27737,
      "lon": 114.174897,
      "osm_id": 2585382694,
      "osm_type": "node",
      "address": null,
      "road_geometry": null
    },
    {
      "name": "\u99f1\u514b\u9053\u9ad4\u80b2\u9928 Lockhart Road Sports Centre",
      "category": [
        "leisure.sports_centre"
      ],
      "lat": 22.278103,
      "lon": 114.1753118,
      "osm_id": 2935760910,
      "osm_type": "node",
      "address": null,
      "road_geometry": null
    },
    {
      "name": "\u518d\u8208\u71d2\u81d8\u98ef\u5e97 Joy Hing's Roasted Meat",
      "category": [
        "amenity.restaurant"
      ],
      "lat": 22.27825,
      "lon": 114.176653,
      "osm_id": 2956797614,
      "osm_type": "node",
      "address": "Stewart Road",
      "road_geometry": null
    },
    {
      "name": "\u5927\u53fb\u8d8a\u5357\u725b\u8089\u7c89\u9910\u5ef3 Dalat Vietnamese Restaurant",
      "category": [
        "amenity.restaurant"
      ],
      "lat": 22.27839,
      "lon": 114.17691,
      "osm_id": 2995395292,
      "osm_type": "node",
      "address": "\u99f1\u514b\u9053 Lockhart Road",
      "road_geometry": null
    },
    {
      "name": "\u53f2\u91d7\u57df\u9053 Stewart Road",
      "category": [
        "highway.bus_stop"
      ],
      "lat": 22.2780179,
      "lon": 114.176011,
      "osm_id": 2995476873,
      "osm_type": "node",
      "address": null,
      "road_geometry": null
    },
    {
      "name": "\u53f2\u91d7\u57df\u9053 Stewart Road",
      "category": [
        "highway.bus_stop"
      ],
      "lat": 22.2780373,
      "lon": 114.1761951,
      "osm_id": 2995476874,
      "osm_type": "node",
      "address": null,
      "road_geometry": null
    },
    {
      "name": "\u53f2\u91d7\u57df\u9053 Stewart Road",
      "category": [
        "highway.bus_stop"
      ],
      "lat": 22.2780389,
      "lon": 114.1762102,
      "osm_id": 2995476875,
      "osm_type": "node",
      "address": null,
      "road_geometry": null
    },
    {
      "name": "\u53f2\u91d7\u57df\u9053 Stewart Road",
      "category": [
        "highway.bus_stop"
      ],
      "lat": 22.2779869,
      "lon": 114.1757164,
      "osm_id": 2995521936,
      "osm_type": "node",
      "address": null,
      "road_geometry": null
    },
    {
      "name": "\u53f2\u91d7\u57df\u9053 Stewart Road",
      "category": [
        "highway.bus_stop"
      ],
      "lat": 22.2780027,
      "lon": 114.1758659,
      "osm_id": 2995613083,
      "osm_type": "node",
      "address": null,
      "road_geometry": null
    },
    {
      "name": "\u53f2\u91d7\u57df\u9053 Stewart Road",
      "category": [
        "highway.bus_stop"
      ],
      "lat": 22.2780314,
      "lon": 114.1761391,
      "osm_id": 2995643672,
      "osm_type": "node",
      "address": null,
      "road_geometry": null
    },
    {
      "name": "759\u963f\u4fe1\u5c4b 759 Store",
      "category": [
        "shop.convenience"
      ],
      "lat": 22.2775989,
      "lon": 114.1760947,
      "osm_id": 3664257766,
      "osm_type": "node",
      "address": null,
      "road_geometry": null
    },
    {
      "name": "\u5229\u666f\u9152\u5bb6 Lei King Restaurant",
      "category": [
        "amenity.restaurant"
      ],
      "lat": 22.278332,
      "lon": 114.176631,
      "osm_id": 3667168074,
      "osm_type": "node",
      "address": "\u53f2\u91d7\u57df\u9053 Stewart Road",
      "road_geometry": null
    },
    {
      "name": "\u592a\u5e73\u6d0b\u5496\u5561 Pacific Coffee",
      "category": [
        "amenity.cafe"
      ],
      "lat": 22.27913,
      "lon": 114.17653,
      "osm_id": 3667225600,
      "osm_type": "node",
      "address": "Gloucester Road",
      "road_geometry": null
    },
    {
      "name": "\u901a\u5229\u7434\u884c Tom Lee",
      "category": [
        "shop.musical_instrument"
      ],
      "lat": 22.279338,
      "lon": 114.17681,
      "osm_id": 3667229058,
      "osm_type": "node",
      "address": null,
      "road_geometry": null
    },
    {
      "name": "\u842c\u5be7 Mannings",
      "category": [
        "amenity.pharmacy",
        "shop.chemist"
      ],
      "lat": 22.278177,
      "lon": 114.17694,
      "osm_id": 3667313883,
      "osm_type": "node",
      "address": null,
      "road_geometry": null
    },
    {
      "name": "\u5c0f\u746a\u54e5\u7c73\u7dda",
      "category": [
        "amenity.restaurant"
      ],
      "lat": 22.277435,
      "lon": 114.17582,
      "osm_id": 3668102161,
      "osm_type": "node",
      "address": null,
      "road_geometry": null
    },
    {
      "name": "\u592a\u5e73\u6d0b\u5496\u5561 Pacific Coffee",
      "category": [
        "amenity.cafe"
      ],
      "lat": 22.2776498,
      "lon": 114.1768386,
      "osm_id": 3668128137,
      "osm_type": "node",
      "address": null,
      "road_geometry": null
    },
    {
      "name": "Pro Kitchen",
      "category": [
        "shop.kitchen"
      ],
      "lat": 22.2792165,
      "lon": 114.176539,
      "osm_id": 3672905496,
      "osm_type": "node",
      "address": null,
      "road_geometry": null
    },
    {
      "name": "\u6e2f\u8c50\u4eba\u6c11\u5e63\u627e\u63db Kong Fung RMB Exchange",
      "category": [
        "amenity.bureau_de_change"
      ],
      "lat": 22.2773409,
      "lon": 114.1749272,
      "osm_id": 4079478403,
      "osm_type": "node",
      "address": null,
      "road_geometry": null
    },
    {
      "name": "7-Eleven",
      "category": [
        "shop.convenience"
      ],
      "lat": 22.2775723,
      "lon": 114.1766435,
      "osm_id": 4079478411,
      "osm_type": "node",
      "address": "\u838a\u58eb\u6566\u9053 Johnston Road",
      "road_geometry": null
    },
    {
      "name": "\u9f8d\u9ede\u5fc3 Lung Dim Sum",
      "category": [
        "amenity.restaurant"
      ],
      "lat": 22.277638,
      "lon": 114.17508,
      "osm_id": 4156250891,
      "osm_type": "node",
      "address": null,
      "road_geometry": null
    },
    {
      "name": "\u6052\u751f\u9280\u884c Hang Seng Bank",
      "category": [
        "amenity.bank"
      ],
      "lat": 22.2793756,
      "lon": 114.1765321,
      "osm_id": 4169336991,
      "osm_type": "node",
      "address": "\u53f2\u91d7\u57df\u9053 Stewart Road",
      "road_geometry": null
    },
    {
      "name": "\u7518\u724c\u71d2\u9d5d Kam's Roast Goose",
      "category": [
        "amenity.restaurant"
      ],
      "lat": 22.27766,
      "lon": 114.1753,
      "osm_id": 4169404589,
      "osm_type": "node",
      "address": "\u8ed2\u5c3c\u8a69\u9053 Hennessy Road",
      "road_geometry": null
    },
    {
      "name": "\u99f1\u514b\u9053\u516c\u5171\u5716\u66f8\u9928 Lockhart Road Public Library",
      "category": [
        "amenity.library"
      ],
      "lat": 22.2781548,
      "lon": 114.1753132,
      "osm_id": 4172457590,
      "osm_type": "node",
      "address": null,
      "road_geometry": null
    },
    {
      "name": "\u6771\u65b9\u5c0f\u7947\u5712 Tung Fong Siu Kee Yuen",
      "category": [
        "amenity.restaurant"
      ],
      "lat": 22.2780742,
      "lon": 114.1760602,
      "osm_id": 4330876797,
      "osm_type": "node",
      "address": "\u8ed2\u5c3c\u8a69\u9053 Hennessy Road",
      "road_geometry": null
    },
    {
      "name": "\u5353\u8ed2\u65c5\u820d Check Inn HK",
      "category": [
        "tourism.hostel"
      ],
      "lat": 22.2781795,
      "lon": 114.176984,
      "osm_id": 4382005293,
      "osm_type": "node",
      "address": "\u8ed2\u5c3c\u8a69\u9053 Hennessy Road",
      "road_geometry": null
    },
    {
      "name": "\u7661\u81a0\u96de Crazy Chicken",
      "category": [
        "amenity.restaurant"
      ],
      "lat": 22.2777488,
      "lon": 114.1759814,
      "osm_id": 4405869196,
      "osm_type": "node",
      "address": "\u8ed2\u5c3c\u8a69\u9053 Hennessy Road",
      "road_geometry": null
    },
    {
      "name": "The Optimist",
      "category": [
        "amenity.restaurant"
      ],
      "lat": 22.2780587,
      "lon": 114.1759209,
      "osm_id": 4688982304,
      "osm_type": "node",
      "address": "\u8ed2\u5c3c\u8a69\u9053 Hennessy Road",
      "road_geometry": null
    },
    {
      "name": "Panash",
      "category": [
        "shop.bakery"
      ],
      "lat": 22.278124,
      "lon": 114.176511,
      "osm_id": 4706672898,
      "osm_type": "node",
      "address": null,
      "road_geometry": null
    },
    {
      "name": "\u9192 SENG2",
      "category": [
        "amenity.restaurant"
      ],
      "lat": 22.27813,
      "lon": 114.17657,
      "osm_id": 4708451093,
      "osm_type": "node",
      "address": "\u8ed2\u5c3c\u8a69\u9053 Hennessy Road",
      "road_geometry": null
    },
    {
      "name": "\u6771\u4e9e\u9280\u884c BEA",
      "category": [
        "amenity.atm"
      ],
      "lat": 22.278116,
      "lon": 114.176455,
      "osm_id": 4715313090,
      "osm_type": "node",
      "address": null,
      "road_geometry": null
    },
    {
      "name": "Water Galaxy",
      "category": [
        "shop.yes"
      ],
      "lat": 22.2781278,
      "lon": 114.1748491,
      "osm_id": 4849823407,
      "osm_type": "node",
      "address": "\u83f2\u6797\u660e\u9053 Fleming Road",
      "road_geometry": null
    },
    {
      "name": "bc",
      "category": [
        "shop.yes"
      ],
      "lat": 22.2782067,
      "lon": 114.1748317,
      "osm_id": 4849823408,
      "osm_type": "node",
      "address": "\u83f2\u6797\u660e\u9053 Fleming Road",
      "road_geometry": null
    },
    {
      "name": "Cool Cut",
      "category": [
        "shop.yes"
      ],
      "lat": 22.2779636,
      "lon": 114.174994,
      "osm_id": 4849893850,
      "osm_type": "node",
      "address": "\u8ed2\u5c3c\u8a69\u9053 Hennessy Road",
      "road_geometry": null
    },
    {
      "name": "Mazda",
      "category": [
        "shop.car"
      ],
      "lat": 22.2794569,
      "lon": 114.1769838,
      "osm_id": 4849905749,
      "osm_type": "node",
      "address": "\u544a\u58eb\u6253\u9053 Gloucester Road",
      "road_geometry": null
    },
    {
      "name": "Western Union",
      "category": [
        "amenity.money_transfer"
      ],
      "lat": 22.2788033,
      "lon": 114.1768825,
      "osm_id": 4849905750,
      "osm_type": "node",
      "address": "\u53f2\u91d7\u57df\u9053 Stewart Road",
      "road_geometry": null
    },
    {
      "name": "Kitchen Place",
      "category": [
        "amenity.restaurant"
      ],
      "lat": 22.2787232,
      "lon": 114.1768883,
      "osm_id": 4849905751,
      "osm_type": "node",
      "address": "\u53f2\u91d7\u57df\u9053 Stewart Road",
      "road_geometry": null
    },
    {
      "name": "Wonderfloor",
      "category": [
        "shop.doityourself"
      ],
      "lat": 22.278694,
      "lon": 114.1768848,
      "osm_id": 4849905752,
      "osm_type": "node",
      "address": "\u53f2\u91d7\u57df\u9053 Stewart Road",
      "road_geometry": null
    },
    {
      "name": "Shokoi",
      "category": [
        "shop.yes"
      ],
      "lat": 22.2776737,
      "lon": 114.1754241,
      "osm_id": 4849905753,
      "osm_type": "node",
      "address": "\u8ed2\u5c3c\u8a69\u9053 Hennessy Road",
      "road_geometry": null
    },
    {
      "name": "Adidas",
      "category": [
        "shop.shoes"
      ],
      "lat": 22.2774061,
      "lon": 114.1763923,
      "osm_id": 4856188742,
      "osm_type": "node",
      "address": "\u838a\u58eb\u6566\u9053 Johnston Road",
      "road_geometry": null
    },
    {
      "name": "Lily",
      "category": [
        "shop.clothes"
      ],
      "lat": 22.2774327,
      "lon": 114.1764076,
      "osm_id": 4856203118,
      "osm_type": "node",
      "address": "\u838a\u58eb\u6566\u9053 Johnston Road",
      "road_geometry": null
    },
    {
      "name": "Emma Patty",
      "category": [
        "shop.clothes"
      ],
      "lat": 22.2777456,
      "lon": 114.175932,
      "osm_id": 4856278450,
      "osm_type": "node",
      "address": "\u8ed2\u5c3c\u8a69\u9053 Hennessy Road",
      "road_geometry": null
    },
    {
      "name": "\u65e5\u672c\u57ce JHC",
      "category": [
        "shop.houseware"
      ],
      "lat": 22.2775889,
      "lon": 114.1749171,
      "osm_id": 4856278451,
      "osm_type": "node",
      "address": "\u8ed2\u5c3c\u8a69\u9053 Hennessy Road",
      "road_geometry": null
    },
    {
      "name": "Maserati",
      "category": [
        "shop.car"
      ],
      "lat": 22.2793684,
      "lon": 114.1763784,
      "osm_id": 4858340230,
      "osm_type": "node",
      "address": "\u544a\u58eb\u6253\u9053 Gloucester Road",
      "road_geometry": null
    },
    {
      "name": "Sunrise Shower",
      "category": [
        "shop.houseware"
      ],
      "lat": 22.2782479,
      "lon": 114.1749726,
      "osm_id": 4858521751,
      "osm_type": "node",
      "address": "\u99f1\u514b\u9053 Lockhart Road",
      "road_geometry": null
    },
    {
      "name": "\u5927\u5229\u96fb\u5668\u884c Tai Lee Elecrtical Co",
      "category": [
        "shop.electronics"
      ],
      "lat": 22.2782721,
      "lon": 114.1751493,
      "osm_id": 4858521752,
      "osm_type": "node",
      "address": "\u99f1\u514b\u9053 Lockhart Road",
      "road_geometry": null
    },
    {
      "name": "Toco Shower",
      "category": [
        "shop.doityourself"
      ],
      "lat": 22.2784071,
      "lon": 114.1765406,
      "osm_id": 4858521753,
      "osm_type": "node",
      "address": "\u99f1\u514b\u9053 Lockhart Road",
      "road_geometry": null
    },
    {
      "name": "Inax",
      "category": [
        "shop.doityourself"
      ],
      "lat": 22.2784082,
      "lon": 114.1764102,
      "osm_id": 4858521754,
      "osm_type": "node",
      "address": "\u99f1\u514b\u9053 Lockhart Road",
      "road_geometry": null
    },
    {
      "name": "Lok Ko Flooring",
      "category": [
        "shop.doityourself"
      ],
      "lat": 22.2784093,
      "lon": 114.176371,
      "osm_id": 4858521755,
      "osm_type": "node",
      "address": null,
      "road_geometry": null
    },
    {
      "name": "Morden Home Decoration Supplies",
      "category": [
        "shop.interior_decoration"
      ],
      "lat": 22.2784082,
      "lon": 114.1763129,
      "osm_id": 4858521756,
      "osm_type": "node",
      "address": "\u99f1\u514b\u9053 Lockhart Road",
      "road_geometry": null
    },
    {
      "name": "\u82f1\u570b\u85e5\u623f Ying Kwok Dispensary",
      "category": [
        "amenity.pharmacy"
      ],
      "lat": 22.27847,
      "lon": 114.1769,
      "osm_id": 4858521757,
      "osm_type": "node",
      "address": "\u99f1\u514b\u9053 Lockhart Road",
      "road_geometry": null
    },
    {
      "name": "Green Floor",
      "category": [
        "shop.doityourself"
      ],
      "lat": 22.2784974,
      "lon": 114.1769258,
      "osm_id": 4858521758,
      "osm_type": "node",
      "address": null,
      "road_geometry": null
    },
    {
      "name": "\u6a19\u7dfb\u74f7\u78da Beauty Tiles",
      "category": [
        "shop.tiles"
      ],
      "lat": 22.2785338,
      "lon": 114.1751021,
      "osm_id": 4858594364,
      "osm_type": "node",
      "address": "\u99f1\u514b\u9053 Lockhart Road",
      "road_geometry": null
    },
    {
      "name": "Pacific Collection",
      "category": [
        "shop.doityourself"
      ],
      "lat": 22.2785811,
      "lon": 114.175675,
      "osm_id": 4858594365,
      "osm_type": "node",
      "address": "\u99f1\u514b\u9053 Lockhart Road",
      "road_geometry": null
    },
    {
      "name": "Hing Fat Ceramics",
      "category": [
        "shop.doityourself"
      ],
      "lat": 22.2786263,
      "lon": 114.1758628,
      "osm_id": 4858600761,
      "osm_type": "node",
      "address": "\u99f1\u514b\u9053 Lockhart Road",
      "road_geometry": null
    },
    {
      "name": "\u9054\u660e(\u6d3b\u6c0f) Tat Ming (Woods)",
      "category": [
        "shop.doityourself"
      ],
      "lat": 22.2786306,
      "lon": 114.176075,
      "osm_id": 4858600762,
      "osm_type": "node",
      "address": "\u99f1\u514b\u9053 Lockhart Road",
      "road_geometry": null
    },
    {
      "name": "\u65cb\u8a18\u96fb\u5668\u884c",
      "category": [
        "shop.electronics"
      ],
      "lat": 22.2786351,
      "lon": 114.1761158,
      "osm_id": 4858600763,
      "osm_type": "node",
      "address": "\u99f1\u514b\u9053 Lockhart Road",
      "road_geometry": null
    },
    {
      "name": "\u6642\u5c1a\u6d74\u5ba4\u7cbe\u54c1 Classic Bathroom Accessories",
      "category": [
        "shop.doityourself"
      ],
      "lat": 22.2786369,
      "lon": 114.1761624,
      "osm_id": 4858600764,
      "osm_type": "node",
      "address": "\u99f1\u514b\u9053 Lockhart Road",
      "road_geometry": null
    },
    {
      "name": "\u5609\u4fe1\u5efa\u7bc9\u6750\u6599",
      "category": [
        "shop.yes"
      ],
      "lat": 22.2786423,
      "lon": 114.1762091,
      "osm_id": 4858600765,
      "osm_type": "node",
      "address": "\u99f1\u514b\u9053 Lockhart Road",
      "road_geometry": null
    },
    {
      "name": "998",
      "category": [
        "shop.yes"
      ],
      "lat": 22.2786922,
      "lon": 114.1769132,
      "osm_id": 4858600766,
      "osm_type": "node",
      "address": "\u53f2\u91d7\u57df\u9053 Stewart Road",
      "road_geometry": null
    },
    {
      "name": "Laufen",
      "category": [
        "shop.yes"
      ],
      "lat": 22.2786985,
      "lon": 114.1769628,
      "osm_id": 4858600767,
      "osm_type": "node",
      "address": "\u99f1\u514b\u9053 Lockhart Road",
      "road_geometry": null
    },
    {
      "name": "Adidas",
      "category": [
        "shop.sports"
      ],
      "lat": 22.2774673,
      "lon": 114.1763933,
      "osm_id": 5144897622,
      "osm_type": "node",
      "address": null,
      "road_geometry": null
    },
    {
      "name": "\u570b\u969b\u8abf\u89e3\u9662 International Organization for Mediation",
      "category": [
        "highway.bus_stop"
      ],
      "lat": 22.2793413,
      "lon": 114.1750203,
      "osm_id": 5417710050,
      "osm_type": "node",
      "address": null,
      "road_geometry": null
    },
    {
      "name": "\u570b\u969b\u8abf\u89e3\u9662 International Organization for Mediation",
      "category": [
        "highway.bus_stop"
      ],
      "lat": 22.2793699,
      "lon": 114.1752588,
      "osm_id": 5417710051,
      "osm_type": "node",
      "address": null,
      "road_geometry": null
    },
    {
      "name": "\u570b\u969b\u8abf\u89e3\u9662 International Organization for Mediation",
      "category": [
        "highway.bus_stop"
      ],
      "lat": 22.2793562,
      "lon": 114.1751446,
      "osm_id": 5417710055,
      "osm_type": "node",
      "address": null,
      "road_geometry": null
    },
    {
      "name": "\u570b\u969b\u8abf\u89e3\u9662 International Organization for Mediation",
      "category": [
        "highway.bus_stop"
      ],
      "lat": 22.2793631,
      "lon": 114.1752021,
      "osm_id": 5417710060,
      "osm_type": "node",
      "address": null,
      "road_geometry": null
    },
    {
      "name": "\u570b\u969b\u8abf\u89e3\u9662 International Organization for Mediation",
      "category": [
        "highway.bus_stop"
      ],
      "lat": 22.2793487,
      "lon": 114.1750826,
      "osm_id": 5417710061,
      "osm_type": "node",
      "address": null,
      "road_geometry": null
    },
    {
      "name": "Wooloomooloo Steakhouse",
      "category": [
        "amenity.restaurant"
      ],
      "lat": 22.2776786,
      "lon": 114.1761047,
      "osm_id": 5939163486,
      "osm_type": "node",
      "address": "\u838a\u58eb\u6566\u9053 Johnston Road",
      "road_geometry": null
    },
    {
      "name": "Neon Deer",
      "category": [
        "tourism.attraction"
      ],
      "lat": 22.2777183,
      "lon": 114.1767457,
      "osm_id": 6344539485,
      "osm_type": "node",
      "address": null,
      "road_geometry": null
    },
    {
      "name": "\u725b\u4e3c\u5bb6 Gyudonya",
      "category": [
        "amenity.restaurant"
      ],
      "lat": 22.2780508,
      "lon": 114.1758502,
      "osm_id": 6362392076,
      "osm_type": "node",
      "address": "\u8ed2\u5c3c\u8a69\u9053 Hennessy Road",
      "road_geometry": null
    },
    {
      "name": "\u91d1\u5821\u8336\u9910\u5ef3 Kam Bo Restaurant",
      "category": [
        "amenity.restaurant"
      ],
      "lat": 22.2790876,
      "lon": 114.1763069,
      "osm_id": 6368935219,
      "osm_type": "node",
      "address": "\u8b1d\u6590\u9053 Jaffe Road",
      "road_geometry": null
    },
    {
      "name": "Bitcoin Cryptocurrency ATM",
      "category": [
        "amenity.atm"
      ],
      "lat": 22.2782546,
      "lon": 114.1769017,
      "osm_id": 6393537638,
      "osm_type": "node",
      "address": null,
      "road_geometry": null
    },
    {
      "name": "Mr. Cool",
      "category": [
        "shop.convenience"
      ],
      "lat": 22.2776588,
      "lon": 114.1751726,
      "osm_id": 6426041119,
      "osm_type": "node",
      "address": "\u8ed2\u5c3c\u8a69\u9053 Hennessy Road",
      "road_geometry": null
    },
    {
      "name": "\u50f9\u771f\u68e7",
      "category": [
        "shop.convenience"
      ],
      "lat": 22.2779846,
      "lon": 114.1751743,
      "osm_id": 6438697138,
      "osm_type": "node",
      "address": "\u8ed2\u5c3c\u8a69\u9053 Hennessy Road",
      "road_geometry": null
    },
    {
      "name": "Osteria Marzia",
      "category": [
        "amenity.restaurant"
      ],
      "lat": 22.2789404,
      "lon": 114.1748296,
      "osm_id": 6438697145,
      "osm_type": "node",
      "address": null,
      "road_geometry": null
    },
    {
      "name": "\u5927\u76ca Tai Yick",
      "category": [
        "shop.tiles"
      ],
      "lat": 22.2785259,
      "lon": 114.17501,
      "osm_id": 6442475380,
      "osm_type": "node",
      "address": "\u99f1\u514b\u9053 Lockhart Road",
      "road_geometry": null
    },
    {
      "name": "\u5fb7\u5229\u6728\u884c\u5efa\u7bc9\u6750\u6599",
      "category": [
        "shop.yes"
      ],
      "lat": 22.2785301,
      "lon": 114.1750547,
      "osm_id": 6442475382,
      "osm_type": "node",
      "address": "\u99f1\u514b\u9053 Lockhart Road",
      "road_geometry": null
    },
    {
      "name": "\u6fb3\u67cf\u96f2\u77f3 Au Pak Marble",
      "category": [
        "shop.yes"
      ],
      "lat": 22.2784393,
      "lon": 114.176627,
      "osm_id": 6442475384,
      "osm_type": "node",
      "address": "\u99f1\u514b\u9053 Lockhart Road",
      "road_geometry": null
    },
    {
      "name": "\u512a\u54c1360 Best Mart 360",
      "category": [
        "shop.convenience"
      ],
      "lat": 22.2772834,
      "lon": 114.1760821,
      "osm_id": 6857211718,
      "osm_type": "node",
      "address": null,
      "road_geometry": null
    },
    {
      "name": "7-Eleven",
      "category": [
        "shop.convenience"
      ],
      "lat": 22.2790526,
      "lon": 114.1762274,
      "osm_id": 7310063485,
      "osm_type": "node",
      "address": null,
      "road_geometry": null
    },
    {
      "name": "Pirata",
      "category": [
        "amenity.restaurant"
      ],
      "lat": 22.2781073,
      "lon": 114.1759546,
      "osm_id": 8005332591,
      "osm_type": "node",
      "address": "\u8ed2\u5c3c\u8a69\u9053 Hennessy Road",
      "road_geometry": null
    },
    {
      "name": "\u99f1\u514b\u9053\u8857\u5e02 Lockhart Road Market",
      "category": [
        "highway.bus_stop"
      ],
      "lat": 22.2779803,
      "lon": 114.1756536,
      "osm_id": 8209812255,
      "osm_type": "node",
      "address": null,
      "road_geometry": null
    },
    {
      "name": "\u6469\u65af\u6f22\u5821 MOS Burger",
      "category": [
        "amenity.fast_food"
      ],
      "lat": 22.2774386,
      "lon": 114.1768524,
      "osm_id": 8353799788,
      "osm_type": "node",
      "address": null,
      "road_geometry": null
    },
    {
      "name": "\u4f73\u8a18\u7f8e\u98df",
      "category": [
        "amenity.restaurant"
      ],
      "lat": 22.2780407,
      "lon": 114.1757528,
      "osm_id": 11741135343,
      "osm_type": "node",
      "address": "\u8ed2\u5c3c\u8a69\u9053 Hennessy Road",
      "road_geometry": null
    },
    {
      "name": "\u99f1\u514b\u9053\u8857\u5e02 Lockhard Road Market",
      "category": [
        "amenity.marketplace"
      ],
      "lat": 22.2781492,
      "lon": 114.1754901,
      "osm_id": 12337635717,
      "osm_type": "node",
      "address": null,
      "road_geometry": null
    },
    {
      "name": "\u99f1\u514b\u9053\u8857\u5e02\u719f\u98df\u4e2d\u5fc3 Lockhard Road Market Cooked Food Centre",
      "category": [
        "amenity.food_court"
      ],
      "lat": 22.2781624,
      "lon": 114.175388,
      "osm_id": 12337647627,
      "osm_type": "node",
      "address": null,
      "road_geometry": null
    },
    {
      "name": "\u53f2\u91d7\u57df\u9053 Stewart Road",
      "category": [
        "highway.bus_stop"
      ],
      "lat": 22.2780351,
      "lon": 114.1761741,
      "osm_id": 12698689830,
      "osm_type": "node",
      "address": null,
      "road_geometry": null
    },
    {
      "name": "\u8ed2\u5c3c\u8a69\u9053\u5b98\u7acb\u5c0f\u5b78 Hennessy Road Government Primary School",
      "category": [
        "highway.bus_stop"
      ],
      "lat": 22.2777453,
      "lon": 114.1755813,
      "osm_id": 12740842356,
      "osm_type": "node",
      "address": null,
      "road_geometry": null
    },
    {
      "name": "Seoul Noodle Shop",
      "category": [
        "amenity.restaurant"
      ],
      "lat": 22.2773528,
      "lon": 114.176212,
      "osm_id": 12794715963,
      "osm_type": "node",
      "address": "\u838a\u58eb\u6566\u9053 Johnston Road",
      "road_geometry": null
    }
  ]
}