{
  "image": "dataset/images/397.png",
  "center_lat": 22.278378378378378,
  "center_lon": 114.17825439444776,
  "bbox": [
    114.1770374348179,
    22.27725225225225,
    114.1794713540776,
    22.2795045045045
  ],
  "unique_categories": [
    "shop.books",
    "shop.yes",
    "amenity.restaurant",
    "shop.houseware",
    "amenity.cafe",
    "shop.curtain",
    "shop.bicycle",
    "shop.building_materials",
    "shop.glass",
    "shop.supermarket",
    "shop.optician",
    "shop.hairdresser",
    "shop.computer",
    "shop.convenience",
    "shop.doityourself",
    "shop.pawnbroker",
    "highway.bus_stop",
    "amenity.fast_food",
    "shop.clothes",
    "amenity.bureau_de_change",
    "shop.massage",
    "shop.bookmaker",
    "amenity.parking",
    "amenity.doctors",
    "shop.chemist",
    "shop.security",
    "shop.second_hand",
    "tourism.guest_house",
    "amenity.pharmacy",
    "shop.hardware",
    "shop.bakery",
    "railway.tram_stop",
    "amenity.place_of_worship",
    "shop.bathroom_furnishing",
    "amenity.bank",
    "shop.mall"
  ],
  "poi_count_per_category": {
    "shop.books": 1,
    "shop.yes": 7,
    "amenity.restaurant": 39,
    "shop.houseware": 2,
    "amenity.cafe": 5,
    "shop.curtain": 1,
    "shop.bicycle": 1,
    "shop.building_materials": 1,
    "shop.glass": 1,
    "shop.supermarket": 2,
    "shop.optician": 1,
    "shop.hairdresser": 1,
    "shop.computer": 1,
    "shop.convenience": 5,
    "shop.doityourself": 11,
    "shop.pawnbroker": 1,
    "highway.bus_stop": 18,
    "amenity.fast_food": 2,
    "shop.clothes": 2,
    "amenity.bureau_de_change": 2,
    "shop.massage": 2,
    "shop.bookmaker": 1,
    "amenity.parking": 1,
    "amenity.doctors": 2,
    "shop.chemist": 1,
    "shop.security": 3,
    "shop.second_hand": 1,
    "tourism.guest_house": 1,
    "amenity.pharmacy": 3,
    "shop.hardware": 1,
    "shop.bakery": 2,
    "railway.tram_stop": 2,
    "amenity.place_of_worship": 1,
    "shop.bathroom_furnishing": 6,
    "amenity.bank": 3,
    "shop.mall": 2
  },
  "poi_count": 135,
  "pois": [
    {
      "name": "\u5317\u6d77\u4e2d\u5fc3 CNT Tower",
      "category": [
        "highway.bus_stop"
      ],
      "lat": 22.2783228,
      "lon": 114.1784932,
      "osm_id": 660415811,
      "osm_type": "node",
      "address": null,
      "road_geometry": null
    },
    {
      "name": "\u9673\u5bb6\u5eda\u623f",
      "category": [
        "amenity.restaurant"
      ],
      "lat": 22.2777927,
      "lon": 114.1792504,
      "osm_id": 1106907864,
      "osm_type": "node",
      "address": null,
      "road_geometry": null
    },
    {
      "name": "\u5143\u6717\u5408\u9686\u6f6e\u5dde\u7c89\u9eb5",
      "category": [
        "amenity.restaurant"
      ],
      "lat": 22.277569,
      "lon": 114.178418,
      "osm_id": 1298704478,
      "osm_type": "node",
      "address": "\u5fb7\u4ec1\u8857 Tak Yan Street",
      "road_geometry": null
    },
    {
      "name": "\u4e94\u6307\u9593 Wu Zhi Jian",
      "category": [
        "amenity.restaurant"
      ],
      "lat": 22.2779885,
      "lon": 114.177519,
      "osm_id": 1298704508,
      "osm_type": "node",
      "address": "\u8ed2\u5c3c\u8a69\u9053 Hennessy Road",
      "road_geometry": null
    },
    {
      "name": "\u5229\u82d1 Lei Garden",
      "category": [
        "amenity.restaurant"
      ],
      "lat": 22.27827,
      "lon": 114.17869,
      "osm_id": 1298704660,
      "osm_type": "node",
      "address": "\u8ed2\u5c3c\u8a69\u9053 Hennessy Road",
      "road_geometry": null
    },
    {
      "name": "\u4ea4\u901a\u9280\u884c Bank of Communications",
      "category": [
        "amenity.bank"
      ],
      "lat": 22.27855,
      "lon": 114.17947,
      "osm_id": 1298704667,
      "osm_type": "node",
      "address": "\u5929\u6a02\u91cc Tin Lok Lane",
      "road_geometry": null
    },
    {
      "name": "\u4e0a\u6d77\u5546\u696d\u9280\u884c Shanghai Commercial Bank",
      "category": [
        "amenity.bank"
      ],
      "lat": 22.2779711,
      "lon": 114.1779929,
      "osm_id": 1298704669,
      "osm_type": "node",
      "address": null,
      "road_geometry": null
    },
    {
      "name": "\u674e\u707c\u73ca\u4e2d\u91ab\u9928",
      "category": [
        "amenity.doctors"
      ],
      "lat": 22.2778874,
      "lon": 114.1784049,
      "osm_id": 1299465446,
      "osm_type": "node",
      "address": "\u7063\u4ed4\u9053 Wan Chai Road",
      "road_geometry": null
    },
    {
      "name": "\u9ea5\u7576\u52de McDonald's",
      "category": [
        "amenity.fast_food"
      ],
      "lat": 22.2780057,
      "lon": 114.1779424,
      "osm_id": 1299465479,
      "osm_type": "node",
      "address": null,
      "road_geometry": null
    },
    {
      "name": "\u4e03\u8a18\u55ae\u8eca Chat Kee Bicycle",
      "category": [
        "shop.bicycle"
      ],
      "lat": 22.277438,
      "lon": 114.17794,
      "osm_id": 1851235376,
      "osm_type": "node",
      "address": null,
      "road_geometry": null
    },
    {
      "name": "\u675c\u8001\u8a8c\u9053 Tonnochy Road",
      "category": [
        "railway.tram_stop"
      ],
      "lat": 22.2782634,
      "lon": 114.1778314,
      "osm_id": 2300434310,
      "osm_type": "node",
      "address": null,
      "road_geometry": null
    },
    {
      "name": "\u69ae\u8a18\u4e94\u91d1 Wing Kee Hardware",
      "category": [
        "shop.hardware"
      ],
      "lat": 22.2783409,
      "lon": 114.1787283,
      "osm_id": 2579835040,
      "osm_type": "node",
      "address": null,
      "road_geometry": null
    },
    {
      "name": "\u4e2d\u570b\u7db2\u7d61\u4e2d\u5fc3\u505c\u8eca\u5834 China Online Centre Car Park",
      "category": [
        "amenity.parking"
      ],
      "lat": 22.2794033,
      "lon": 114.1783483,
      "osm_id": 2995395043,
      "osm_type": "node",
      "address": null,
      "road_geometry": null
    },
    {
      "name": "\u675c\u8001\u8a8c\u9053 Tonnochy Road",
      "category": [
        "highway.bus_stop"
      ],
      "lat": 22.2785801,
      "lon": 114.1785704,
      "osm_id": 2995395046,
      "osm_type": "node",
      "address": null,
      "road_geometry": null
    },
    {
      "name": "\u675c\u8001\u8a8c\u9053 Tonnochy Road",
      "category": [
        "highway.bus_stop"
      ],
      "lat": 22.2785983,
      "lon": 114.1786327,
      "osm_id": 2995395047,
      "osm_type": "node",
      "address": null,
      "road_geometry": null
    },
    {
      "name": "\u675c\u8001\u8a8c\u9053 Tonnochy Road",
      "category": [
        "highway.bus_stop"
      ],
      "lat": 22.2786549,
      "lon": 114.178826,
      "osm_id": 2995395048,
      "osm_type": "node",
      "address": null,
      "road_geometry": null
    },
    {
      "name": "\u675c\u8001\u8a8c\u9053 Tonnochy Road",
      "category": [
        "highway.bus_stop"
      ],
      "lat": 22.2787239,
      "lon": 114.1790614,
      "osm_id": 2995395049,
      "osm_type": "node",
      "address": null,
      "road_geometry": null
    },
    {
      "name": "\u675c\u8001\u8a8c\u9053 Tonnochy Road",
      "category": [
        "highway.bus_stop"
      ],
      "lat": 22.2787499,
      "lon": 114.1791502,
      "osm_id": 2995395050,
      "osm_type": "node",
      "address": null,
      "road_geometry": null
    },
    {
      "name": "\u5317\u6d77\u4e2d\u5fc3 CNT Tower",
      "category": [
        "highway.bus_stop"
      ],
      "lat": 22.2783825,
      "lon": 114.1786889,
      "osm_id": 2995395118,
      "osm_type": "node",
      "address": null,
      "road_geometry": null
    },
    {
      "name": "\u5317\u6d77\u4e2d\u5fc3 CNT Tower",
      "category": [
        "highway.bus_stop"
      ],
      "lat": 22.2782847,
      "lon": 114.1783684,
      "osm_id": 2995395131,
      "osm_type": "node",
      "address": null,
      "road_geometry": null
    },
    {
      "name": "\u53f2\u91d7\u57df\u9053 Stewart Road",
      "category": [
        "highway.bus_stop"
      ],
      "lat": 22.2781838,
      "lon": 114.1772,
      "osm_id": 2995655695,
      "osm_type": "node",
      "address": null,
      "road_geometry": null
    },
    {
      "name": "\u53f2\u91d7\u57df\u9053 Stewart Road",
      "category": [
        "highway.bus_stop"
      ],
      "lat": 22.27821,
      "lon": 114.17729,
      "osm_id": 2995655696,
      "osm_type": "node",
      "address": null,
      "road_geometry": null
    },
    {
      "name": "\u5929\u6a02\u91cc Tin Lok Lane",
      "category": [
        "highway.bus_stop"
      ],
      "lat": 22.2779233,
      "lon": 114.1791604,
      "osm_id": 3064991894,
      "osm_type": "node",
      "address": null,
      "road_geometry": null
    },
    {
      "name": "\u83ef\u97fb\u5eda\u623f Wah Wang Kitchen",
      "category": [
        "amenity.restaurant"
      ],
      "lat": 22.27791,
      "lon": 114.17852,
      "osm_id": 3064991895,
      "osm_type": "node",
      "address": "\u7063\u4ed4\u9053 Wan Chai Road",
      "road_geometry": null
    },
    {
      "name": "\u5229\u666f\u9152\u5e97 The Charterhouse",
      "category": [
        "highway.bus_stop"
      ],
      "lat": 22.27782,
      "lon": 114.17917,
      "osm_id": 3064991896,
      "osm_type": "node",
      "address": null,
      "road_geometry": null
    },
    {
      "name": "\u675c\u8001\u8a8c\u9053 Tonnochy Road",
      "category": [
        "railway.tram_stop"
      ],
      "lat": 22.2781068,
      "lon": 114.1773838,
      "osm_id": 3112114536,
      "osm_type": "node",
      "address": null,
      "road_geometry": null
    },
    {
      "name": "\u592a\u5e73\u6d0b\u5496\u5561 Pacific Coffee",
      "category": [
        "amenity.cafe"
      ],
      "lat": 22.2779745,
      "lon": 114.1778174,
      "osm_id": 3665640836,
      "osm_type": "node",
      "address": null,
      "road_geometry": null
    },
    {
      "name": "\u9999\u6e2f\u8cfd\u99ac\u6703 The Hong Kong Jockey Club",
      "category": [
        "shop.bookmaker"
      ],
      "lat": 22.2779637,
      "lon": 114.1774335,
      "osm_id": 3665641811,
      "osm_type": "node",
      "address": "\u8ed2\u5c3c\u8a69\u9053 Hennessy Road",
      "road_geometry": null
    },
    {
      "name": "\u9189\u74ca\u6a13\u9152\u5bb6",
      "category": [
        "amenity.restaurant"
      ],
      "lat": 22.278333,
      "lon": 114.177508,
      "osm_id": 3665683340,
      "osm_type": "node",
      "address": "\u8ed2\u5c3c\u8a69\u9053 Hennessy Road",
      "road_geometry": null
    },
    {
      "name": "298\u96fb\u8166\u7279\u5340 298 Computer Centre",
      "category": [
        "shop.computer"
      ],
      "lat": 22.277919,
      "lon": 114.1772872,
      "osm_id": 3667280349,
      "osm_type": "node",
      "address": "\u8ed2\u5c3c\u8a69\u9053 Hennessy Road",
      "road_geometry": null
    },
    {
      "name": "OK\u4fbf\u5229\u5e97 Circle K",
      "category": [
        "shop.convenience"
      ],
      "lat": 22.2792008,
      "lon": 114.1794422,
      "osm_id": 3668080179,
      "osm_type": "node",
      "address": "\u99f1\u514b\u9053 Lockhart Road",
      "road_geometry": null
    },
    {
      "name": "\u6771\u65b9188 Oriental 188",
      "category": [
        "shop.mall"
      ],
      "lat": 22.2774975,
      "lon": 114.1775528,
      "osm_id": 3668112141,
      "osm_type": "node",
      "address": "\u7063\u4ed4\u9053 Wan Chai Road",
      "road_geometry": null
    },
    {
      "name": "\u990a\u548c\u5802\u6dbc\u8336\u9928",
      "category": [
        "amenity.restaurant"
      ],
      "lat": 22.2778913,
      "lon": 114.1771942,
      "osm_id": 3668133241,
      "osm_type": "node",
      "address": "\u8ed2\u5c3c\u8a69\u9053 Hennessy Road",
      "road_geometry": null
    },
    {
      "name": "Jollibee",
      "category": [
        "amenity.fast_food"
      ],
      "lat": 22.27811,
      "lon": 114.17797,
      "osm_id": 3668139928,
      "osm_type": "node",
      "address": null,
      "road_geometry": null
    },
    {
      "name": "\u96f2\u6735\u624b\u4f5c\u9eb5\u5305",
      "category": [
        "shop.bakery"
      ],
      "lat": 22.2778679,
      "lon": 114.178315,
      "osm_id": 3668154880,
      "osm_type": "node",
      "address": "\u7063\u4ed4\u9053 Wan Chai Road",
      "road_geometry": null
    },
    {
      "name": "\u8b5a\u4ed4\u4e09\u54e5 TamJai SamGor",
      "category": [
        "amenity.restaurant"
      ],
      "lat": 22.27772,
      "lon": 114.178815,
      "osm_id": 3668156538,
      "osm_type": "node",
      "address": "\u7063\u4ed4\u9053 Wan Chai Road",
      "road_geometry": null
    },
    {
      "name": "\u767e\u4f73 PARKnSHOP",
      "category": [
        "shop.supermarket"
      ],
      "lat": 22.2779806,
      "lon": 114.1778585,
      "osm_id": 4079478404,
      "osm_type": "node",
      "address": null,
      "road_geometry": null
    },
    {
      "name": "\u76db\u5a01\u593e\u842c Safewell",
      "category": [
        "shop.security"
      ],
      "lat": 22.27873,
      "lon": 114.1789235,
      "osm_id": 4079478405,
      "osm_type": "node",
      "address": "\u8ed2\u5c3c\u8a69\u9053 Hennessy Road",
      "road_geometry": null
    },
    {
      "name": "\u5929\u7136\u9f4b Green Veggie",
      "category": [
        "amenity.restaurant"
      ],
      "lat": 22.27905,
      "lon": 114.17707,
      "osm_id": 4149638363,
      "osm_type": "node",
      "address": "Jaffe Road",
      "road_geometry": null
    },
    {
      "name": "\u7dad\u6e2f Victory A Cafe",
      "category": [
        "amenity.restaurant"
      ],
      "lat": 22.2784053,
      "lon": 114.1777656,
      "osm_id": 4168479689,
      "osm_type": "node",
      "address": "\u8ed2\u5c3c\u8a69\u9053 Hennessy Road",
      "road_geometry": null
    },
    {
      "name": "\u6c90\u820d",
      "category": [
        "shop.massage"
      ],
      "lat": 22.27836,
      "lon": 114.17759,
      "osm_id": 4169383889,
      "osm_type": "node",
      "address": "\u8ed2\u5c3c\u8a69\u9053 Hennessy Road",
      "road_geometry": null
    },
    {
      "name": "\u827a\u9d60 Art and Culture Outreach",
      "category": [
        "shop.books"
      ],
      "lat": 22.2789718,
      "lon": 114.1794001,
      "osm_id": 4176153691,
      "osm_type": "node",
      "address": null,
      "road_geometry": null
    },
    {
      "name": "BBQ",
      "category": [
        "amenity.restaurant"
      ],
      "lat": 22.27772,
      "lon": 114.17888,
      "osm_id": 4252332991,
      "osm_type": "node",
      "address": "\u7063\u4ed4\u9053 Wan Chai Road",
      "road_geometry": null
    },
    {
      "name": "7-Eleven",
      "category": [
        "shop.convenience"
      ],
      "lat": 22.2777,
      "lon": 114.178402,
      "osm_id": 4345547573,
      "osm_type": "node",
      "address": null,
      "road_geometry": null
    },
    {
      "name": "\u65ec\u5c4b Shun Ya",
      "category": [
        "shop.supermarket"
      ],
      "lat": 22.27826,
      "lon": 114.17845,
      "osm_id": 4375656392,
      "osm_type": "node",
      "address": null,
      "road_geometry": null
    },
    {
      "name": "\u6d59\u6c5f\u8ed2",
      "category": [
        "amenity.restaurant"
      ],
      "lat": 22.2786763,
      "lon": 114.1776287,
      "osm_id": 4484738390,
      "osm_type": "node",
      "address": "\u99f1\u514b\u9053 Lockhart Road",
      "road_geometry": null
    },
    {
      "name": "\u5ee3\u751f\u884c\u5927\u5ec8 Kwong Sang Hong Building",
      "category": [
        "highway.bus_stop"
      ],
      "lat": 22.2780277,
      "lon": 114.1774958,
      "osm_id": 4498483404,
      "osm_type": "node",
      "address": null,
      "road_geometry": null
    },
    {
      "name": "\u8d8a\u5317\u725b\u8089\u7c89\u5c08\u9580\u5e97 North Viet Pho",
      "category": [
        "amenity.restaurant"
      ],
      "lat": 22.2778121,
      "lon": 114.179359,
      "osm_id": 4499844490,
      "osm_type": "node",
      "address": "\u7063\u4ed4\u9053 Wan Chai Road",
      "road_geometry": null
    },
    {
      "name": "E.F.C.C. Ling Chuen Church",
      "category": [
        "amenity.place_of_worship"
      ],
      "lat": 22.27768,
      "lon": 114.17725,
      "osm_id": 4673667335,
      "osm_type": "node",
      "address": null,
      "road_geometry": null
    },
    {
      "name": "\u7d05\u7cd6\u9910\u5ba4 Brown Sugar Restaurant",
      "category": [
        "amenity.restaurant"
      ],
      "lat": 22.27825,
      "lon": 114.17841,
      "osm_id": 4706672897,
      "osm_type": "node",
      "address": "\u8ed2\u5c3c\u8a69\u9053 Hennessy Road",
      "road_geometry": null
    },
    {
      "name": "\u5cb1\u6c11\u7063\u4ed4\u5e97",
      "category": [
        "amenity.restaurant"
      ],
      "lat": 22.27888,
      "lon": 114.17944,
      "osm_id": 4708451095,
      "osm_type": "node",
      "address": "\u8ed2\u5c3c\u8a69\u9053 Hennessy Road",
      "road_geometry": null
    },
    {
      "name": "\u5ee3\u751f\u884c\u5927\u5ec8 Kwong Sang Hong Building",
      "category": [
        "highway.bus_stop"
      ],
      "lat": 22.278022,
      "lon": 114.1774764,
      "osm_id": 4823313339,
      "osm_type": "node",
      "address": null,
      "road_geometry": null
    },
    {
      "name": "\u91ce\u7530\u73c8\u7432 Noda Coffee",
      "category": [
        "amenity.cafe"
      ],
      "lat": 22.2782095,
      "lon": 114.1782769,
      "osm_id": 4823313341,
      "osm_type": "node",
      "address": "\u8ed2\u5c3c\u8a69\u9053 Hennessy Road",
      "road_geometry": null
    },
    {
      "name": "\u6f6e\u8208\u9b5a\u86cb\u7c89",
      "category": [
        "amenity.restaurant"
      ],
      "lat": 22.2785265,
      "lon": 114.1793643,
      "osm_id": 4849823409,
      "osm_type": "node",
      "address": "\u8ed2\u5c3c\u8a69\u9053 Hennessy Road",
      "road_geometry": null
    },
    {
      "name": "Axor",
      "category": [
        "shop.bathroom_furnishing"
      ],
      "lat": 22.2794339,
      "lon": 114.179351,
      "osm_id": 4858269618,
      "osm_type": "node",
      "address": "\u99f1\u514b\u9053 Lockhart Road",
      "road_geometry": null
    },
    {
      "name": "Kwong Tai Marble Co",
      "category": [
        "shop.doityourself"
      ],
      "lat": 22.2785413,
      "lon": 114.1771262,
      "osm_id": 4858521759,
      "osm_type": "node",
      "address": null,
      "road_geometry": null
    },
    {
      "name": "Premier Construction Materials Limited",
      "category": [
        "shop.doityourself"
      ],
      "lat": 22.2785798,
      "lon": 114.1772069,
      "osm_id": 4858521760,
      "osm_type": "node",
      "address": "\u99f1\u514b\u9053 Lockhart Road",
      "road_geometry": null
    },
    {
      "name": "21 Century",
      "category": [
        "shop.yes"
      ],
      "lat": 22.2786434,
      "lon": 114.1774216,
      "osm_id": 4858521761,
      "osm_type": "node",
      "address": "\u99f1\u514b\u9053 Lockhart Road",
      "road_geometry": null
    },
    {
      "name": "Sunwood",
      "category": [
        "shop.yes"
      ],
      "lat": 22.2787422,
      "lon": 114.177794,
      "osm_id": 4858521762,
      "osm_type": "node",
      "address": "\u99f1\u514b\u9053 Lockhart Road",
      "road_geometry": null
    },
    {
      "name": "Wood Art Doors",
      "category": [
        "shop.building_materials"
      ],
      "lat": 22.2790909,
      "lon": 114.1790873,
      "osm_id": 4858521764,
      "osm_type": "node",
      "address": "\u99f1\u514b\u9053 Lockhart Road",
      "road_geometry": null
    },
    {
      "name": "Junckers",
      "category": [
        "shop.yes"
      ],
      "lat": 22.2791424,
      "lon": 114.1792518,
      "osm_id": 4858521765,
      "osm_type": "node",
      "address": "\u99f1\u514b\u9053 Lockhart Road",
      "road_geometry": null
    },
    {
      "name": "\u958b\u660e\u5e97 Switch On",
      "category": [
        "shop.yes"
      ],
      "lat": 22.2791515,
      "lon": 114.1792837,
      "osm_id": 4858521766,
      "osm_type": "node",
      "address": "\u99f1\u514b\u9053 Lockhart Road",
      "road_geometry": null
    },
    {
      "name": "Bathroom Collections",
      "category": [
        "shop.doityourself"
      ],
      "lat": 22.2787192,
      "lon": 114.1770434,
      "osm_id": 4858600768,
      "osm_type": "node",
      "address": "\u99f1\u514b\u9053 Lockhart Road",
      "road_geometry": null
    },
    {
      "name": "ADM",
      "category": [
        "shop.yes"
      ],
      "lat": 22.2787417,
      "lon": 114.1771028,
      "osm_id": 4858600770,
      "osm_type": "node",
      "address": "\u99f1\u514b\u9053 Lockhart Road",
      "road_geometry": null
    },
    {
      "name": "Bowin",
      "category": [
        "shop.doityourself"
      ],
      "lat": 22.2787478,
      "lon": 114.1771372,
      "osm_id": 4858600771,
      "osm_type": "node",
      "address": "\u99f1\u514b\u9053 Lockhart Road",
      "road_geometry": null
    },
    {
      "name": "Kohler Kitchens",
      "category": [
        "shop.doityourself"
      ],
      "lat": 22.2787631,
      "lon": 114.1771663,
      "osm_id": 4858600772,
      "osm_type": "node",
      "address": "\u99f1\u514b\u9053 Lockhart Road",
      "road_geometry": null
    },
    {
      "name": "BME Kitchen",
      "category": [
        "shop.doityourself"
      ],
      "lat": 22.2788303,
      "lon": 114.1774262,
      "osm_id": 4858604131,
      "osm_type": "node",
      "address": "\u99f1\u514b\u9053 Lockhart Road",
      "road_geometry": null
    },
    {
      "name": "K\u00fcchen",
      "category": [
        "shop.yes"
      ],
      "lat": 22.2788656,
      "lon": 114.1775219,
      "osm_id": 4858604132,
      "osm_type": "node",
      "address": "\u99f1\u514b\u9053 Lockhart Road",
      "road_geometry": null
    },
    {
      "name": "Bismen Glass Art",
      "category": [
        "shop.glass"
      ],
      "lat": 22.2788785,
      "lon": 114.1775545,
      "osm_id": 4858604133,
      "osm_type": "node",
      "address": "\u99f1\u514b\u9053 Lockhart Road",
      "road_geometry": null
    },
    {
      "name": "Anta",
      "category": [
        "shop.doityourself"
      ],
      "lat": 22.2789335,
      "lon": 114.1776624,
      "osm_id": 4858604134,
      "osm_type": "node",
      "address": "\u99f1\u514b\u9053 Lockhart Road",
      "road_geometry": null
    },
    {
      "name": "Hop Kwan",
      "category": [
        "shop.doityourself"
      ],
      "lat": 22.2790253,
      "lon": 114.1779575,
      "osm_id": 4858604135,
      "osm_type": "node",
      "address": "\u99f1\u514b\u9053 Lockhart Road",
      "road_geometry": null
    },
    {
      "name": "Berry Alloc",
      "category": [
        "shop.doityourself"
      ],
      "lat": 22.2790308,
      "lon": 114.1779769,
      "osm_id": 4858604136,
      "osm_type": "node",
      "address": "\u99f1\u514b\u9053 Lockhart Road",
      "road_geometry": null
    },
    {
      "name": "Kohler",
      "category": [
        "shop.doityourself"
      ],
      "lat": 22.279041,
      "lon": 114.1780139,
      "osm_id": 4858604137,
      "osm_type": "node",
      "address": "\u99f1\u514b\u9053 Lockhart Road",
      "road_geometry": null
    },
    {
      "name": "Yulley Building Materials",
      "category": [
        "shop.doityourself"
      ],
      "lat": 22.2791038,
      "lon": 114.178197,
      "osm_id": 4858604138,
      "osm_type": "node",
      "address": "\u99f1\u514b\u9053 Lockhart Road",
      "road_geometry": null
    },
    {
      "name": "Sunny Paridise Sauna",
      "category": [
        "shop.massage"
      ],
      "lat": 22.2791782,
      "lon": 114.1785678,
      "osm_id": 4858604139,
      "osm_type": "node",
      "address": "\u99f1\u514b\u9053 Lockhart Road",
      "road_geometry": null
    },
    {
      "name": "Depot",
      "category": [
        "shop.bathroom_furnishing"
      ],
      "lat": 22.2791997,
      "lon": 114.1786495,
      "osm_id": 4858604140,
      "osm_type": "node",
      "address": "\u99f1\u514b\u9053 Lockhart Road",
      "road_geometry": null
    },
    {
      "name": "Parador",
      "category": [
        "shop.yes"
      ],
      "lat": 22.279253,
      "lon": 114.1788047,
      "osm_id": 4858604141,
      "osm_type": "node",
      "address": "\u99f1\u514b\u9053 Lockhart Road",
      "road_geometry": null
    },
    {
      "name": "Hang Ngai Curtain Co",
      "category": [
        "shop.curtain"
      ],
      "lat": 22.2792857,
      "lon": 114.1788995,
      "osm_id": 4858604142,
      "osm_type": "node",
      "address": "\u99f1\u514b\u9053 Lockhart Road",
      "road_geometry": null
    },
    {
      "name": "Pacific Lifestyle",
      "category": [
        "shop.bathroom_furnishing"
      ],
      "lat": 22.279308,
      "lon": 114.1789925,
      "osm_id": 4858608463,
      "osm_type": "node",
      "address": "\u99f1\u514b\u9053 Lockhart Road",
      "road_geometry": null
    },
    {
      "name": "SL Gallery",
      "category": [
        "shop.bathroom_furnishing"
      ],
      "lat": 22.2793166,
      "lon": 114.1790222,
      "osm_id": 4858608464,
      "osm_type": "node",
      "address": "\u99f1\u514b\u9053 Lockhart Road",
      "road_geometry": null
    },
    {
      "name": "Grohe",
      "category": [
        "shop.bathroom_furnishing"
      ],
      "lat": 22.2793605,
      "lon": 114.1791449,
      "osm_id": 4858608465,
      "osm_type": "node",
      "address": "\u99f1\u514b\u9053 Lockhart Road",
      "road_geometry": null
    },
    {
      "name": "Oduravit",
      "category": [
        "shop.bathroom_furnishing"
      ],
      "lat": 22.2794044,
      "lon": 114.1793094,
      "osm_id": 4858608466,
      "osm_type": "node",
      "address": "\u99f1\u514b\u9053 Lockhart Road",
      "road_geometry": null
    },
    {
      "name": "\u65b0\u68ee\u6797 New Forest Restaurant",
      "category": [
        "amenity.restaurant"
      ],
      "lat": 22.27772,
      "lon": 114.178748,
      "osm_id": 4911838142,
      "osm_type": "node",
      "address": null,
      "road_geometry": null
    },
    {
      "name": "\u8996\u9ede\u8b77\u773c",
      "category": [
        "shop.optician"
      ],
      "lat": 22.27787,
      "lon": 114.17711,
      "osm_id": 4924643322,
      "osm_type": "node",
      "address": "\u8ed2\u5c3c\u8a69\u9053 Hennessy Road",
      "road_geometry": null
    },
    {
      "name": "\u96c4\u8a18\u7f8e\u98df",
      "category": [
        "amenity.restaurant"
      ],
      "lat": 22.277658,
      "lon": 114.177216,
      "osm_id": 5043210810,
      "osm_type": "node",
      "address": null,
      "road_geometry": null
    },
    {
      "name": "\u83ef\u661f\u51b0\u5ba4 Chrisly Cafe",
      "category": [
        "amenity.restaurant"
      ],
      "lat": 22.27769,
      "lon": 114.1772,
      "osm_id": 5043210811,
      "osm_type": "node",
      "address": null,
      "road_geometry": null
    },
    {
      "name": "ICE FIRE",
      "category": [
        "shop.clothes"
      ],
      "lat": 22.2773783,
      "lon": 114.1775306,
      "osm_id": 5087598409,
      "osm_type": "node",
      "address": "\u7063\u4ed4\u9053 Wan Chai Road",
      "road_geometry": null
    },
    {
      "name": "\u83ef\u767b\u9152\u5e97",
      "category": [
        "tourism.guest_house"
      ],
      "lat": 22.2788032,
      "lon": 114.1790151,
      "osm_id": 5140822421,
      "osm_type": "node",
      "address": null,
      "road_geometry": null
    },
    {
      "name": "\u963f\u91cc\u6717 Arirang",
      "category": [
        "amenity.restaurant"
      ],
      "lat": 22.2781406,
      "lon": 114.1783651,
      "osm_id": 5151241125,
      "osm_type": "node",
      "address": null,
      "road_geometry": null
    },
    {
      "name": "The Coffee Academics",
      "category": [
        "amenity.cafe"
      ],
      "lat": 22.2778311,
      "lon": 114.1794697,
      "osm_id": 5200999421,
      "osm_type": "node",
      "address": null,
      "road_geometry": null
    },
    {
      "name": "Green Ladies Green Little",
      "category": [
        "shop.second_hand"
      ],
      "lat": 22.2779976,
      "lon": 114.1777457,
      "osm_id": 5662551685,
      "osm_type": "node",
      "address": null,
      "road_geometry": null
    },
    {
      "name": "\u559c\u5c45\u751f\u6d3b Lively Life",
      "category": [
        "shop.convenience"
      ],
      "lat": 22.277822,
      "lon": 114.177769,
      "osm_id": 5662551686,
      "osm_type": "node",
      "address": null,
      "road_geometry": null
    },
    {
      "name": "\u62fe\u5473\u5200\u524a\u9eb5\u9928",
      "category": [
        "amenity.restaurant"
      ],
      "lat": 22.277771,
      "lon": 114.17806,
      "osm_id": 5666661342,
      "osm_type": "node",
      "address": "\u7063\u4ed4\u9053 Wan Chai Road",
      "road_geometry": null
    },
    {
      "name": "\u842c\u5be7 Mannings",
      "category": [
        "amenity.pharmacy",
        "shop.chemist"
      ],
      "lat": 22.27779,
      "lon": 114.178093,
      "osm_id": 5666661343,
      "osm_type": "node",
      "address": "\u7063\u4ed4\u9053 Wan Chai Road",
      "road_geometry": null
    },
    {
      "name": "\u5d0b\u5ac2\u51b0\u5ba4",
      "category": [
        "amenity.restaurant"
      ],
      "lat": 22.279185,
      "lon": 114.1774842,
      "osm_id": 6028853686,
      "osm_type": "node",
      "address": "\u8b1d\u6590\u9053 Jaffe Road",
      "road_geometry": null
    },
    {
      "name": "\u9760\u5f97\u4f4f",
      "category": [
        "amenity.restaurant"
      ],
      "lat": 22.277527,
      "lon": 114.177134,
      "osm_id": 6028872085,
      "osm_type": "node",
      "address": "\u514b\u8857 Heard Street",
      "road_geometry": null
    },
    {
      "name": "\u65b0\u66fc\u8c37\u6cf0\u570b\u83dc\u9928 New Bangkok Restaurant",
      "category": [
        "amenity.restaurant"
      ],
      "lat": 22.278538,
      "lon": 114.179408,
      "osm_id": 6266803607,
      "osm_type": "node",
      "address": "\u8ed2\u5c3c\u8a69\u9053 Hennessy Road",
      "road_geometry": null
    },
    {
      "name": "\u68ee\u5ddd\u5f01\u5f53 Morikawa Bento",
      "category": [
        "amenity.restaurant"
      ],
      "lat": 22.2780832,
      "lon": 114.1793925,
      "osm_id": 6266803608,
      "osm_type": "node",
      "address": "\u7063\u4ed4\u9053 Wan Chai Road",
      "road_geometry": null
    },
    {
      "name": "\u597d\u6b63\u9910\u5ba4",
      "category": [
        "amenity.restaurant"
      ],
      "lat": 22.277959,
      "lon": 114.178284,
      "osm_id": 6268145391,
      "osm_type": "node",
      "address": "\u5b89\u6a02\u91cc On Lok Lane",
      "road_geometry": null
    },
    {
      "name": "Lungo",
      "category": [
        "amenity.cafe"
      ],
      "lat": 22.2781984,
      "lon": 114.1782393,
      "osm_id": 6309346177,
      "osm_type": "node",
      "address": "\u8ed2\u5c3c\u8a69\u9053 Hennessy Road",
      "road_geometry": null
    },
    {
      "name": "\u540c\u8c50\u5927\u62bc Tung Fung Pawn Shop",
      "category": [
        "shop.pawnbroker"
      ],
      "lat": 22.2784355,
      "lon": 114.1778827,
      "osm_id": 6424771905,
      "osm_type": "node",
      "address": "\u8ed2\u5c3c\u8a69\u9053 Hennessy Road",
      "road_geometry": null
    },
    {
      "name": "\u9999\u6e2f\u9b5a\u86cb\u7687",
      "category": [
        "amenity.restaurant"
      ],
      "lat": 22.2784211,
      "lon": 114.1778352,
      "osm_id": 6424771906,
      "osm_type": "node",
      "address": "\u8ed2\u5c3c\u8a69\u9053 Hennessy Road",
      "road_geometry": null
    },
    {
      "name": "\u838a\u99ff\u7965\u91ab\u751f Dr. Anthony Chong",
      "category": [
        "amenity.doctors"
      ],
      "lat": 22.2784964,
      "lon": 114.1792694,
      "osm_id": 6424771907,
      "osm_type": "node",
      "address": "\u8ed2\u5c3c\u8a69\u9053 Hennessy Road",
      "road_geometry": null
    },
    {
      "name": "\u65e5\u672c\u57ce JHC",
      "category": [
        "shop.houseware"
      ],
      "lat": 22.2784844,
      "lon": 114.1792239,
      "osm_id": 6424771908,
      "osm_type": "node",
      "address": "\u8ed2\u5c3c\u8a69\u9053 Hennessy Road",
      "road_geometry": null
    },
    {
      "name": "\u5929\u9f8d\u71d2\u9d5d Tin Lung Goose",
      "category": [
        "amenity.restaurant"
      ],
      "lat": 22.2785064,
      "lon": 114.1793043,
      "osm_id": 6424771909,
      "osm_type": "node",
      "address": "\u8ed2\u5c3c\u8a69\u9053 Hennessy Road",
      "road_geometry": null
    },
    {
      "name": "\u65b0\u5be7\u85e5\u623f Sunning Dispensary",
      "category": [
        "amenity.pharmacy"
      ],
      "lat": 22.2782068,
      "lon": 114.1770741,
      "osm_id": 6424771910,
      "osm_type": "node",
      "address": "\u8ed2\u5c3c\u8a69\u9053 Hennessy Road",
      "road_geometry": null
    },
    {
      "name": "\u7c60\u7687\u9ede\u5fc3 Dragonking Dim Sum",
      "category": [
        "amenity.restaurant"
      ],
      "lat": 22.2782479,
      "lon": 114.1772177,
      "osm_id": 6424771911,
      "osm_type": "node",
      "address": "\u8ed2\u5c3c\u8a69\u9053 Hennessy Road",
      "road_geometry": null
    },
    {
      "name": "\u5fe0\u8a18\u7ca5\u54c1",
      "category": [
        "amenity.restaurant"
      ],
      "lat": 22.2782614,
      "lon": 114.1772588,
      "osm_id": 6424771912,
      "osm_type": "node",
      "address": "\u8ed2\u5c3c\u8a69\u9053 Hennessy Road",
      "road_geometry": null
    },
    {
      "name": "Ginger House",
      "category": [
        "shop.bakery"
      ],
      "lat": 22.2778788,
      "lon": 114.1771541,
      "osm_id": 6426041118,
      "osm_type": "node",
      "address": "\u8ed2\u5c3c\u8a69\u9053 Hennessy Road",
      "road_geometry": null
    },
    {
      "name": "\u660e\u660e\u8eca\u4ed4\u9eb5\u5c08\u9580\u5e97 Ming Ming Cart Noodle Bar",
      "category": [
        "amenity.restaurant"
      ],
      "lat": 22.2779028,
      "lon": 114.1772337,
      "osm_id": 6426041120,
      "osm_type": "node",
      "address": "\u8ed2\u5c3c\u8a69\u9053 Hennessy Road",
      "road_geometry": null
    },
    {
      "name": "\u592a\u5e73\u6d0b\u5496\u5561 Pacific Coffee",
      "category": [
        "amenity.cafe"
      ],
      "lat": 22.2785172,
      "lon": 114.1781476,
      "osm_id": 6442475381,
      "osm_type": "node",
      "address": "\u8ed2\u5c3c\u8a69\u9053 Hennessy Road",
      "road_geometry": null
    },
    {
      "name": "\u8a31\u6c0f\u5144\u5f1f",
      "category": [
        "amenity.bureau_de_change"
      ],
      "lat": 22.2782742,
      "lon": 114.1773065,
      "osm_id": 6442475383,
      "osm_type": "node",
      "address": "\u8ed2\u5c3c\u8a69\u9053 Hennessy Road",
      "road_geometry": null
    },
    {
      "name": "\u58f9\u865f\u8336\u8a18 Good One Cafe",
      "category": [
        "amenity.restaurant"
      ],
      "lat": 22.2776022,
      "lon": 114.177096,
      "osm_id": 6445151604,
      "osm_type": "node",
      "address": "\u514b\u8857 Heard Street",
      "road_geometry": null
    },
    {
      "name": "\u80a5\u4ed4\u8a18\u9eb5\u98df",
      "category": [
        "amenity.restaurant"
      ],
      "lat": 22.278571,
      "lon": 114.178377,
      "osm_id": 6583735651,
      "osm_type": "node",
      "address": "\u8ed2\u5c3c\u8a69\u9053 Hennessy Road",
      "road_geometry": null
    },
    {
      "name": "\u96c6\u53cb\u9280\u884c Chiyu Banking Corporation",
      "category": [
        "amenity.bank"
      ],
      "lat": 22.2786076,
      "lon": 114.1784995,
      "osm_id": 6713630030,
      "osm_type": "node",
      "address": null,
      "road_geometry": null
    },
    {
      "name": "\u8a31\u6c0f\u5144\u5f1f",
      "category": [
        "amenity.bureau_de_change"
      ],
      "lat": 22.278584,
      "lon": 114.1784217,
      "osm_id": 6713630041,
      "osm_type": "node",
      "address": null,
      "road_geometry": null
    },
    {
      "name": "\u5408\u52dd\u4e16\u4f2f\u96de Co-winner Restaurant",
      "category": [
        "amenity.restaurant"
      ],
      "lat": 22.2791565,
      "lon": 114.1773842,
      "osm_id": 6725669280,
      "osm_type": "node",
      "address": null,
      "road_geometry": null
    },
    {
      "name": "\u56de\u5bb6\u6e58",
      "category": [
        "amenity.restaurant"
      ],
      "lat": 22.2791493,
      "lon": 114.1776354,
      "osm_id": 6725669282,
      "osm_type": "node",
      "address": null,
      "road_geometry": null
    },
    {
      "name": "\u7063\u4ed4\u51b0\u5ba4",
      "category": [
        "amenity.restaurant"
      ],
      "lat": 22.2790853,
      "lon": 114.1771455,
      "osm_id": 6725682185,
      "osm_type": "node",
      "address": null,
      "road_geometry": null
    },
    {
      "name": "\u4f73\u5be7\u5a1c\u6f6e\u5dde\u83dc Carrianna Chiu Chow Restaurant",
      "category": [
        "amenity.restaurant"
      ],
      "lat": 22.2794314,
      "lon": 114.1774145,
      "osm_id": 6759443436,
      "osm_type": "node",
      "address": null,
      "road_geometry": null
    },
    {
      "name": "\u9df9\u91d1\u5eab\u593e\u842c Eagle Safes",
      "category": [
        "shop.security"
      ],
      "lat": 22.2787712,
      "lon": 114.1790678,
      "osm_id": 6857490594,
      "osm_type": "node",
      "address": "\u8ed2\u5c3c\u8a69\u9053 Hennessy Road",
      "road_geometry": null
    },
    {
      "name": "\u51a0\u5357\u83ef Koon Nam Wah Bridal",
      "category": [
        "shop.clothes"
      ],
      "lat": 22.2787836,
      "lon": 114.1791111,
      "osm_id": 6857490599,
      "osm_type": "node",
      "address": "\u8ed2\u5c3c\u8a69\u9053 Hennessy Road",
      "road_geometry": null
    },
    {
      "name": "\u6b23\u69ae\u5927\u85e5\u623f Jubilant Medicine Shop",
      "category": [
        "amenity.pharmacy"
      ],
      "lat": 22.2787441,
      "lon": 114.178969,
      "osm_id": 6857490600,
      "osm_type": "node",
      "address": "\u8ed2\u5c3c\u8a69\u9053 Hennessy Road",
      "road_geometry": null
    },
    {
      "name": "\u4f9d\u5229\u5bb6\u5c45\u767e\u8ca8",
      "category": [
        "shop.houseware"
      ],
      "lat": 22.2788647,
      "lon": 114.1793906,
      "osm_id": 6857490604,
      "osm_type": "node",
      "address": "\u8ed2\u5c3c\u8a69\u9053 Hennessy Road",
      "road_geometry": null
    },
    {
      "name": "\u982d\u982d\u662f\u9053 Hair's Way",
      "category": [
        "shop.hairdresser"
      ],
      "lat": 22.2787555,
      "lon": 114.1790101,
      "osm_id": 6857490605,
      "osm_type": "node",
      "address": "\u8ed2\u5c3c\u8a69\u9053 Hennessy Road",
      "road_geometry": null
    },
    {
      "name": "\u593e\u842c\u738b Safegear",
      "category": [
        "shop.security"
      ],
      "lat": 22.2788511,
      "lon": 114.179344,
      "osm_id": 7066056483,
      "osm_type": "node",
      "address": "\u8ed2\u5c3c\u8a69\u9053 Hennessy Road",
      "road_geometry": null
    },
    {
      "name": "\u5ee3\u751f\u884c\u5927\u5ec8 Kwong Sang Hong Building",
      "category": [
        "highway.bus_stop"
      ],
      "lat": 22.278019,
      "lon": 114.1774663,
      "osm_id": 7109127697,
      "osm_type": "node",
      "address": null,
      "road_geometry": null
    },
    {
      "name": "7-Eleven",
      "category": [
        "shop.convenience"
      ],
      "lat": 22.2787154,
      "lon": 114.1780697,
      "osm_id": 7150918849,
      "osm_type": "node",
      "address": "\u675c\u8001\u8a8c\u9053 Tonnochy Road",
      "road_geometry": null
    },
    {
      "name": "298\u96fb\u8166\u7279\u5340 298 Computer Zone",
      "category": [
        "shop.mall"
      ],
      "lat": 22.2778883,
      "lon": 114.1775204,
      "osm_id": 8887407403,
      "osm_type": "node",
      "address": "\u8ed2\u5c3c\u8a69\u9053 Hennessy Road",
      "road_geometry": null
    },
    {
      "name": "\u675c\u8001\u8a8c\u9053 Tonnochy Road",
      "category": [
        "highway.bus_stop"
      ],
      "lat": 22.2786427,
      "lon": 114.1787843,
      "osm_id": 10001554348,
      "osm_type": "node",
      "address": null,
      "road_geometry": null
    },
    {
      "name": "\u675c\u8001\u8a8c\u9053 Tonnochy Road",
      "category": [
        "highway.bus_stop"
      ],
      "lat": 22.2787074,
      "lon": 114.1790052,
      "osm_id": 10001554349,
      "osm_type": "node",
      "address": null,
      "road_geometry": null
    },
    {
      "name": "\u52c7\u8a18\u990a\u751f\u96de\u6e6f\u7c73\u7dda Yung Kee Chicken Noodles",
      "category": [
        "amenity.restaurant"
      ],
      "lat": 22.2779706,
      "lon": 114.1783206,
      "osm_id": 10099236303,
      "osm_type": "node",
      "address": "\u5b89\u6a02\u91cc On Lok Lane",
      "road_geometry": null
    },
    {
      "name": "7-Eleven",
      "category": [
        "shop.convenience"
      ],
      "lat": 22.2779243,
      "lon": 114.1786928,
      "osm_id": 11304298826,
      "osm_type": "node",
      "address": "\u7063\u4ed4\u9053 Wan Chai Road",
      "road_geometry": null
    },
    {
      "name": "\u5143\u6c17\u5bff\u53f8 Genki Sushi",
      "category": [
        "amenity.restaurant"
      ],
      "lat": 22.2776471,
      "lon": 114.1778355,
      "osm_id": 12435780423,
      "osm_type": "node",
      "address": "\u8ed2\u5c3c\u8a69\u9053 Hennessy Road",
      "road_geometry": null
    },
    {
      "name": "\u5317\u6d77\u4e2d\u5fc3 CNT Tower",
      "category": [
        "highway.bus_stop"
      ],
      "lat": 22.2783137,
      "lon": 114.1784634,
      "osm_id": 12740842357,
      "osm_type": "node",
      "address": null,
      "road_geometry": null
    }
  ]
}