{
  "image": "dataset/images/402.png",
  "center_lat": 22.28063063063063,
  "center_lon": 114.16365093768582,
  "bbox": [
    114.16243395845721,
    22.2795045045045,
    114.16486791691443,
    22.281756756756753
  ],
  "unique_categories": [
    "shop.convenience",
    "amenity.restaurant",
    "highway.bus_stop",
    "amenity.pharmacy",
    "amenity.clinic",
    "shop.department_store",
    "amenity.fast_food",
    "shop.car",
    "shop.chemist",
    "amenity.bank",
    "shop.jewelry"
  ],
  "poi_count_per_category": {
    "shop.convenience": 1,
    "amenity.restaurant": 5,
    "highway.bus_stop": 8,
    "amenity.pharmacy": 1,
    "amenity.clinic": 1,
    "shop.department_store": 1,
    "amenity.fast_food": 1,
    "shop.car": 1,
    "shop.chemist": 1,
    "amenity.bank": 2,
    "shop.jewelry": 1
  },
  "poi_count": 22,
  "pois": [
    {
      "name": "\u529b\u5bf6\u4e2d\u5fc3 Lippo Centre",
      "category": [
        "highway.bus_stop"
      ],
      "lat": 22.27969,
      "lon": 114.1631302,
      "osm_id": 1906352488,
      "osm_type": "node",
      "address": null,
      "road_geometry": null
    },
    {
      "name": "\u6d77\u5bcc\u4e2d\u5fc3 Admiralty Centre",
      "category": [
        "highway.bus_stop"
      ],
      "lat": 22.2797299,
      "lon": 114.1648522,
      "osm_id": 1906352505,
      "osm_type": "node",
      "address": null,
      "road_geometry": null
    },
    {
      "name": "\u91d1\u9418\u7ad9 - \u529b\u5bf6\u4e2d\u5fc3 Admiralty Station - Lippo Centre",
      "category": [
        "highway.bus_stop"
      ],
      "lat": 22.2798106,
      "lon": 114.1632323,
      "osm_id": 2496629597,
      "osm_type": "node",
      "address": null,
      "road_geometry": null
    },
    {
      "name": "\u91d1\u9418\u7ad9 - \u529b\u5bf6\u4e2d\u5fc3 Admiralty Station - Lippo Centre",
      "category": [
        "highway.bus_stop"
      ],
      "lat": 22.2796985,
      "lon": 114.1631374,
      "osm_id": 2496629599,
      "osm_type": "node",
      "address": null,
      "road_geometry": null
    },
    {
      "name": "M&S Simply Food",
      "category": [
        "shop.convenience"
      ],
      "lat": 22.2797578,
      "lon": 114.1636135,
      "osm_id": 2556738323,
      "osm_type": "node",
      "address": null,
      "road_geometry": null
    },
    {
      "name": "\u5927\u5feb\u6d3b Fairwood",
      "category": [
        "amenity.fast_food"
      ],
      "lat": 22.2800731,
      "lon": 114.1639569,
      "osm_id": 4168504990,
      "osm_type": "node",
      "address": null,
      "road_geometry": null
    },
    {
      "name": "LAH Noodles",
      "category": [
        "amenity.restaurant"
      ],
      "lat": 22.2800089,
      "lon": 114.1640535,
      "osm_id": 4168504991,
      "osm_type": "node",
      "address": null,
      "road_geometry": null
    },
    {
      "name": "\u842c\u5be7 Mannings",
      "category": [
        "amenity.pharmacy",
        "shop.chemist"
      ],
      "lat": 22.2799948,
      "lon": 114.1639873,
      "osm_id": 4168504992,
      "osm_type": "node",
      "address": null,
      "road_geometry": null
    },
    {
      "name": "\u6e23\u6253\u9280\u884c Standard Chartered",
      "category": [
        "amenity.bank"
      ],
      "lat": 22.2800575,
      "lon": 114.1638754,
      "osm_id": 4168510590,
      "osm_type": "node",
      "address": null,
      "road_geometry": null
    },
    {
      "name": "\u7fe1\u7fe0\u62c9\u9eb5\u5c0f\u7c60\u5305 Crystal Jade",
      "category": [
        "amenity.restaurant"
      ],
      "lat": 22.2797952,
      "lon": 114.1635636,
      "osm_id": 4168512690,
      "osm_type": "node",
      "address": null,
      "road_geometry": null
    },
    {
      "name": "\u4e00\u98a8\u5802 Ippudo",
      "category": [
        "amenity.restaurant"
      ],
      "lat": 22.2798379,
      "lon": 114.1636033,
      "osm_id": 4168512691,
      "osm_type": "node",
      "address": null,
      "road_geometry": null
    },
    {
      "name": "\u56db\u5b63\uff0e\u6085 Shiki\uff0eEtsu",
      "category": [
        "amenity.restaurant"
      ],
      "lat": 22.2798875,
      "lon": 114.1641017,
      "osm_id": 4168522489,
      "osm_type": "node",
      "address": null,
      "road_geometry": null
    },
    {
      "name": "Swarovski",
      "category": [
        "shop.jewelry"
      ],
      "lat": 22.2796393,
      "lon": 114.163927,
      "osm_id": 4168525489,
      "osm_type": "node",
      "address": null,
      "road_geometry": null
    },
    {
      "name": "\u4f4f\u597d\u5572 GOD",
      "category": [
        "shop.department_store"
      ],
      "lat": 22.2795173,
      "lon": 114.1640258,
      "osm_id": 4168525889,
      "osm_type": "node",
      "address": null,
      "road_geometry": null
    },
    {
      "name": "\u91d1\u9418\u7ad9 - B\u51fa\u53e3 Admiralty Station - Exit B",
      "category": [
        "highway.bus_stop"
      ],
      "lat": 22.2796983,
      "lon": 114.1637848,
      "osm_id": 4502672957,
      "osm_type": "node",
      "address": null,
      "road_geometry": null
    },
    {
      "name": "\u91d1\u9418\u7ad9 - B\u51fa\u53e3 Admiralty Station - Exit B",
      "category": [
        "highway.bus_stop"
      ],
      "lat": 22.2797787,
      "lon": 114.1638509,
      "osm_id": 4576848801,
      "osm_type": "node",
      "address": null,
      "road_geometry": null
    },
    {
      "name": "\u91d1\u9418\u7ad9 - B\u51fa\u53e3 Admiralty Station - Exit B",
      "category": [
        "highway.bus_stop"
      ],
      "lat": 22.279741,
      "lon": 114.1638192,
      "osm_id": 4614263240,
      "osm_type": "node",
      "address": null,
      "road_geometry": null
    },
    {
      "name": "BNI",
      "category": [
        "amenity.bank"
      ],
      "lat": 22.2797538,
      "lon": 114.1643897,
      "osm_id": 4857992732,
      "osm_type": "node",
      "address": "\u5fb7\u7acb\u8857 Drake Street",
      "road_geometry": null
    },
    {
      "name": "La Taste",
      "category": [
        "amenity.restaurant"
      ],
      "lat": 22.2800859,
      "lon": 114.1641236,
      "osm_id": 4857992733,
      "osm_type": "node",
      "address": "\u590f\u6164\u9053 Harcourt Road",
      "road_geometry": null
    },
    {
      "name": "Audi Hong Kong",
      "category": [
        "shop.car"
      ],
      "lat": 22.2796597,
      "lon": 114.1648553,
      "osm_id": 4867367985,
      "osm_type": "node",
      "address": "\u590f\u6164\u9053 Harcourt Road",
      "road_geometry": null
    },
    {
      "name": "\u9999\u6e2f\u80a9\u8155\u819d\u4e2d\u5fc3 Hong Kong ShoulderWrist and Knee Centre",
      "category": [
        "amenity.clinic"
      ],
      "lat": 22.2805976,
      "lon": 114.1629073,
      "osm_id": 7625196785,
      "osm_type": "node",
      "address": "\u590f\u6164\u9053 Harcourt Road",
      "road_geometry": null
    },
    {
      "name": "\u7d05\u68c9\u8def\u652f\u8def\u529b\u5bf6\u4e2d\u5fc3 Cotton Tree Drive slip road Lippo Centre",
      "category": [
        "highway.bus_stop"
      ],
      "lat": 22.2798031,
      "lon": 114.1632259,
      "osm_id": 11762379408,
      "osm_type": "node",
      "address": null,
      "road_geometry": null
    }
  ]
}