{
  "image": "dataset/images/407.png",
  "center_lat": 22.28063063063063,
  "center_lon": 114.1758207299719,
  "bbox": [
    114.1746037507433,
    22.2795045045045,
    114.17703770920052,
    22.281756756756753
  ],
  "unique_categories": [
    "shop.yes",
    "shop.convenience",
    "amenity.restaurant",
    "highway.bus_stop",
    "amenity.parking",
    "amenity.pharmacy",
    "amenity.cafe",
    "railway.stop",
    "railway.station",
    "amenity.fast_food",
    "shop.supermarket",
    "shop.chemist",
    "amenity.bank",
    "shop.mall",
    "amenity.office"
  ],
  "poi_count_per_category": {
    "shop.yes": 1,
    "shop.convenience": 3,
    "amenity.restaurant": 1,
    "highway.bus_stop": 18,
    "amenity.parking": 2,
    "amenity.pharmacy": 1,
    "amenity.cafe": 3,
    "railway.stop": 2,
    "railway.station": 1,
    "amenity.fast_food": 2,
    "shop.supermarket": 1,
    "shop.chemist": 1,
    "amenity.bank": 1,
    "shop.mall": 1,
    "amenity.office": 1
  },
  "poi_count": 38,
  "pois": [
    {
      "name": "China Resources Building",
      "category": [
        "amenity.parking"
      ],
      "lat": 22.2798472,
      "lon": 114.1759373,
      "osm_id": 1025308413,
      "osm_type": "node",
      "address": null,
      "road_geometry": null
    },
    {
      "name": "\u9df9\u6e2f\u516c\u773e\u505c\u8eca\u5834 Eagle Harbour Public Car Park",
      "category": [
        "amenity.parking"
      ],
      "lat": 22.2809122,
      "lon": 114.1752359,
      "osm_id": 1235363516,
      "osm_type": "node",
      "address": null,
      "road_geometry": null
    },
    {
      "name": "7-Eleven",
      "category": [
        "shop.convenience"
      ],
      "lat": 22.280923,
      "lon": 114.17582,
      "osm_id": 1299465471,
      "osm_type": "node",
      "address": "\u6e2f\u7063\u9053 Harbour Road",
      "road_geometry": null
    },
    {
      "name": "\u5357\u6d0b\u5546\u696d\u9280\u884c NCB",
      "category": [
        "amenity.bank"
      ],
      "lat": 22.2798928,
      "lon": 114.1757337,
      "osm_id": 1299465499,
      "osm_type": "node",
      "address": null,
      "road_geometry": null
    },
    {
      "name": "OOCL",
      "category": [
        "amenity.office"
      ],
      "lat": 22.2809546,
      "lon": 114.1756932,
      "osm_id": 1745579252,
      "osm_type": "node",
      "address": null,
      "road_geometry": null
    },
    {
      "name": "7-Eleven",
      "category": [
        "shop.convenience"
      ],
      "lat": 22.2809852,
      "lon": 114.1746768,
      "osm_id": 1952090000,
      "osm_type": "node",
      "address": null,
      "road_geometry": null
    },
    {
      "name": "\u53f2\u91d7\u57df\u9053 Stewart Road",
      "category": [
        "highway.bus_stop"
      ],
      "lat": 22.2795544,
      "lon": 114.1770283,
      "osm_id": 2585382693,
      "osm_type": "node",
      "address": null,
      "road_geometry": null
    },
    {
      "name": "\u7063\u666f\u4e2d\u5fc3\u5927\u5ec8 Causeway Centre",
      "category": [
        "highway.bus_stop"
      ],
      "lat": 22.2807353,
      "lon": 114.1760395,
      "osm_id": 3049050070,
      "osm_type": "node",
      "address": null,
      "road_geometry": null
    },
    {
      "name": "\u7063\u4ed4\u8a13\u7df4\u6c60 Wan Chai Training Pool",
      "category": [
        "highway.bus_stop"
      ],
      "lat": 22.2809296,
      "lon": 114.1765294,
      "osm_id": 3049050117,
      "osm_type": "node",
      "address": null,
      "road_geometry": null
    },
    {
      "name": "\u7063\u4ed4\u8a13\u7df4\u6c60 Wan Chai Training Pool",
      "category": [
        "highway.bus_stop"
      ],
      "lat": 22.280951,
      "lon": 114.176826,
      "osm_id": 3049050118,
      "osm_type": "node",
      "address": null,
      "road_geometry": null
    },
    {
      "name": "\u842c\u5be7 Mannings",
      "category": [
        "amenity.pharmacy",
        "shop.chemist"
      ],
      "lat": 22.2807123,
      "lon": 114.1766455,
      "osm_id": 3664272225,
      "osm_type": "node",
      "address": "\u6e2f\u7063\u9053 Harbour Road",
      "road_geometry": null
    },
    {
      "name": "7-Eleven",
      "category": [
        "shop.convenience"
      ],
      "lat": 22.2802076,
      "lon": 114.1769256,
      "osm_id": 3672903798,
      "osm_type": "node",
      "address": null,
      "road_geometry": null
    },
    {
      "name": "\u661f\u5df4\u514b Starbucks",
      "category": [
        "amenity.cafe"
      ],
      "lat": 22.2806243,
      "lon": 114.1766486,
      "osm_id": 3672903799,
      "osm_type": "node",
      "address": null,
      "road_geometry": null
    },
    {
      "name": "\u80af\u5fb7\u57fa KFC",
      "category": [
        "amenity.fast_food"
      ],
      "lat": 22.2804878,
      "lon": 114.176772,
      "osm_id": 3672919942,
      "osm_type": "node",
      "address": null,
      "road_geometry": null
    },
    {
      "name": "\u6703\u5c55 Exhibition Centre",
      "category": [
        "railway.stop"
      ],
      "lat": 22.281665,
      "lon": 114.1757084,
      "osm_id": 4515155551,
      "osm_type": "node",
      "address": null,
      "road_geometry": null
    },
    {
      "name": "\u6703\u5c55 Exhibition Centre",
      "category": [
        "railway.stop"
      ],
      "lat": 22.2816654,
      "lon": 114.1757015,
      "osm_id": 4515155552,
      "osm_type": "node",
      "address": null,
      "road_geometry": null
    },
    {
      "name": "\u661f\u5df4\u514b Starbucks",
      "category": [
        "amenity.cafe"
      ],
      "lat": 22.281124,
      "lon": 114.1746847,
      "osm_id": 4845942948,
      "osm_type": "node",
      "address": "\u83f2\u6797\u660e\u9053 Fleming Road",
      "road_geometry": null
    },
    {
      "name": "Dial-A-Gift Service",
      "category": [
        "shop.yes"
      ],
      "lat": 22.2809155,
      "lon": 114.1750604,
      "osm_id": 4846039438,
      "osm_type": "node",
      "address": "\u6e2f\u7063\u9053 Harbour Road",
      "road_geometry": null
    },
    {
      "name": "Triple O\u2018s",
      "category": [
        "amenity.fast_food"
      ],
      "lat": 22.2809448,
      "lon": 114.1755467,
      "osm_id": 5257542021,
      "osm_type": "node",
      "address": null,
      "road_geometry": null
    },
    {
      "name": "George Coffee",
      "category": [
        "amenity.cafe"
      ],
      "lat": 22.2801111,
      "lon": 114.1764124,
      "osm_id": 5355875921,
      "osm_type": "node",
      "address": null,
      "road_geometry": null
    },
    {
      "name": "\u7063\u4ed4\u8a13\u7df4\u6c60 Wan Chai Training Pool",
      "category": [
        "highway.bus_stop"
      ],
      "lat": 22.2809309,
      "lon": 114.1765525,
      "osm_id": 6720517871,
      "osm_type": "node",
      "address": null,
      "road_geometry": null
    },
    {
      "name": "\u6703\u5c55\u7ad9 Exhibition Centre Station",
      "category": [
        "highway.bus_stop"
      ],
      "lat": 22.2817519,
      "lon": 114.175135,
      "osm_id": 9728758441,
      "osm_type": "node",
      "address": null,
      "road_geometry": null
    },
    {
      "name": "\u6703\u5c55\u7ad9 Exhibition Centre Station",
      "category": [
        "highway.bus_stop"
      ],
      "lat": 22.2817465,
      "lon": 114.1751956,
      "osm_id": 9728758442,
      "osm_type": "node",
      "address": null,
      "road_geometry": null
    },
    {
      "name": "\u6703\u5c55\u7ad9 Exhibition Centre Station",
      "category": [
        "highway.bus_stop"
      ],
      "lat": 22.281737,
      "lon": 114.1752554,
      "osm_id": 9728758443,
      "osm_type": "node",
      "address": null,
      "road_geometry": null
    },
    {
      "name": "\u6703\u5c55\u7ad9 Exhibition Centre Station",
      "category": [
        "highway.bus_stop"
      ],
      "lat": 22.2817332,
      "lon": 114.175315,
      "osm_id": 9728758444,
      "osm_type": "node",
      "address": null,
      "road_geometry": null
    },
    {
      "name": "\u6703\u5c55\u7ad9 Exhibition Centre Station",
      "category": [
        "highway.bus_stop"
      ],
      "lat": 22.2817266,
      "lon": 114.1754109,
      "osm_id": 9728758445,
      "osm_type": "node",
      "address": null,
      "road_geometry": null
    },
    {
      "name": "\u6703\u5c55\u7ad9 Exhibition Centre Station",
      "category": [
        "highway.bus_stop"
      ],
      "lat": 22.2817229,
      "lon": 114.1754678,
      "osm_id": 9728758446,
      "osm_type": "node",
      "address": null,
      "road_geometry": null
    },
    {
      "name": "\u6703\u5c55\u7ad9 Exhibition Centre Station",
      "category": [
        "highway.bus_stop"
      ],
      "lat": 22.2817239,
      "lon": 114.1755286,
      "osm_id": 9728758447,
      "osm_type": "node",
      "address": null,
      "road_geometry": null
    },
    {
      "name": "\u6703\u5c55\u7ad9 Exhibition Centre Station",
      "category": [
        "highway.bus_stop"
      ],
      "lat": 22.2817162,
      "lon": 114.17574,
      "osm_id": 9728758461,
      "osm_type": "node",
      "address": null,
      "road_geometry": null
    },
    {
      "name": "\u6703\u5c55\u7ad9 Exhibition Centre Station",
      "category": [
        "highway.bus_stop"
      ],
      "lat": 22.2817088,
      "lon": 114.1757978,
      "osm_id": 9728758462,
      "osm_type": "node",
      "address": null,
      "road_geometry": null
    },
    {
      "name": "\u6703\u5c55\u7ad9 Exhibition Centre Station",
      "category": [
        "highway.bus_stop"
      ],
      "lat": 22.2816975,
      "lon": 114.1758584,
      "osm_id": 9728758463,
      "osm_type": "node",
      "address": null,
      "road_geometry": null
    },
    {
      "name": "\u6703\u5c55\u7ad9 Exhibition Centre Station",
      "category": [
        "highway.bus_stop"
      ],
      "lat": 22.281718,
      "lon": 114.1755867,
      "osm_id": 9728758464,
      "osm_type": "node",
      "address": null,
      "road_geometry": null
    },
    {
      "name": "\u6703\u5c55\u7ad9 Exhibition Centre Station",
      "category": [
        "highway.bus_stop"
      ],
      "lat": 22.2817168,
      "lon": 114.1756438,
      "osm_id": 9728758465,
      "osm_type": "node",
      "address": null,
      "road_geometry": null
    },
    {
      "name": "\u6703\u5c55 Exhibition Centre",
      "category": [
        "railway.station"
      ],
      "lat": 22.2816132,
      "lon": 114.1756895,
      "osm_id": 9739308598,
      "osm_type": "node",
      "address": null,
      "road_geometry": null
    },
    {
      "name": "\u7063\u666f\u4e2d\u5fc3\u5927\u5ec8 Causeway Centre",
      "category": [
        "highway.bus_stop"
      ],
      "lat": 22.2807442,
      "lon": 114.1761531,
      "osm_id": 9743189516,
      "osm_type": "node",
      "address": null,
      "road_geometry": null
    },
    {
      "name": "\u6d77\u6e2f\u8588 Victoria Harbour Supreme",
      "category": [
        "amenity.restaurant"
      ],
      "lat": 22.2809042,
      "lon": 114.1755313,
      "osm_id": 9921774773,
      "osm_type": "node",
      "address": "\u6e2f\u7063\u9053 Harbour Road",
      "road_geometry": null
    },
    {
      "name": "\u6d77\u6e2f\u5546\u5834 Harbour Shopping Arcade",
      "category": [
        "shop.mall"
      ],
      "lat": 22.2810544,
      "lon": 114.1754532,
      "osm_id": 11747591374,
      "osm_type": "node",
      "address": null,
      "road_geometry": null
    },
    {
      "name": "U\u8cfcSelect U Select",
      "category": [
        "shop.supermarket"
      ],
      "lat": 22.2803376,
      "lon": 114.1760216,
      "osm_id": 12283754565,
      "osm_type": "node",
      "address": "\u6e2f\u7063\u9053 Harbour Road",
      "road_geometry": null
    }
  ]
}