{
  "image": "dataset/images/41.png",
  "center_lat": 40.803378378378376,
  "center_lon": -73.94793129550999,
  "bbox": [
    -73.94941897278113,
    40.80225225225225,
    -73.94644361823885,
    40.80450450450451
  ],
  "unique_categories": [
    "shop.supermarket",
    "railway.stop",
    "amenity.bank",
    "amenity.ice_cream",
    "shop.bakery",
    "shop.toys",
    "shop.mobile_phone",
    "amenity.restaurant",
    "highway.bus_stop",
    "amenity.animal_shelter",
    "amenity.bicycle_rental",
    "amenity.school",
    "amenity.cafe"
  ],
  "poi_count_per_category": {
    "shop.supermarket": 1,
    "railway.stop": 1,
    "amenity.bank": 3,
    "amenity.ice_cream": 1,
    "shop.bakery": 1,
    "shop.toys": 1,
    "shop.mobile_phone": 1,
    "amenity.restaurant": 2,
    "highway.bus_stop": 3,
    "amenity.animal_shelter": 1,
    "amenity.bicycle_rental": 1,
    "amenity.school": 1,
    "amenity.cafe": 1
  },
  "poi_count": 18,
  "pois": [
    {
      "name": "Ristorante Settepani",
      "category": [
        "amenity.restaurant"
      ],
      "lat": 40.8043628,
      "lon": -73.9476425,
      "osm_id": 883337398,
      "osm_type": "node",
      "address": null,
      "road_geometry": null
    },
    {
      "name": "Carver Federal Savings Bank",
      "category": [
        "amenity.bank"
      ],
      "lat": 40.8024331,
      "lon": -73.9490146,
      "osm_id": 2714230679,
      "osm_type": "node",
      "address": "Malcolm X Boulevard",
      "road_geometry": null
    },
    {
      "name": "Malcolm X Boulevard & West 116th Street",
      "category": [
        "highway.bus_stop"
      ],
      "lat": 40.8022874,
      "lon": -73.94929,
      "osm_id": 3273383623,
      "osm_type": "node",
      "address": null,
      "road_geometry": null
    },
    {
      "name": "Public School 147",
      "category": [
        "amenity.school"
      ],
      "lat": 40.8024876,
      "lon": -73.9481015,
      "osm_id": 3938132962,
      "osm_type": "node",
      "address": null,
      "road_geometry": null
    },
    {
      "name": "116th Street",
      "category": [
        "railway.stop"
      ],
      "lat": 40.8028357,
      "lon": -73.9491422,
      "osm_id": 4460385051,
      "osm_type": "node",
      "address": null,
      "road_geometry": null
    },
    {
      "name": "Harlem Animal Hospital",
      "category": [
        "amenity.animal_shelter"
      ],
      "lat": 40.8044039,
      "lon": -73.9482728,
      "osm_id": 5266904158,
      "osm_type": "node",
      "address": "Malcolm X Boulevard",
      "road_geometry": null
    },
    {
      "name": "Malcolm X Boulevard & West 119th Street",
      "category": [
        "highway.bus_stop"
      ],
      "lat": 40.8041191,
      "lon": -73.9479544,
      "osm_id": 5266905147,
      "osm_type": "node",
      "address": null,
      "road_geometry": null
    },
    {
      "name": "Malcolm X Boulevard & West 119th Street",
      "category": [
        "highway.bus_stop"
      ],
      "lat": 40.8036389,
      "lon": -73.9487437,
      "osm_id": 5266905490,
      "osm_type": "node",
      "address": null,
      "road_geometry": null
    },
    {
      "name": "Sugar Hill Creamery",
      "category": [
        "amenity.ice_cream"
      ],
      "lat": 40.8040727,
      "lon": -73.9478588,
      "osm_id": 5266906021,
      "osm_type": "node",
      "address": "Malcolm X Boulevard",
      "road_geometry": null
    },
    {
      "name": "Grandma's Place",
      "category": [
        "shop.toys"
      ],
      "lat": 40.8042822,
      "lon": -73.9474319,
      "osm_id": 5972704270,
      "osm_type": "node",
      "address": "West 120th Street",
      "road_geometry": null
    },
    {
      "name": "La Sweets",
      "category": [
        "shop.bakery"
      ],
      "lat": 40.8042478,
      "lon": -73.9477261,
      "osm_id": 5972704885,
      "osm_type": "node",
      "address": "Malcolm X Boulevard",
      "road_geometry": null
    },
    {
      "name": "Wells Fargo",
      "category": [
        "amenity.bank"
      ],
      "lat": 40.8029195,
      "lon": -73.9493836,
      "osm_id": 5972704904,
      "osm_type": "node",
      "address": "Malcolm X Boulevard",
      "road_geometry": null
    },
    {
      "name": "T-Mobile",
      "category": [
        "shop.mobile_phone"
      ],
      "lat": 40.8024052,
      "lon": -73.9490379,
      "osm_id": 6799248313,
      "osm_type": "node",
      "address": "Malcolm X Boulevard",
      "road_geometry": null
    },
    {
      "name": "Carver Federal Savings Bank",
      "category": [
        "amenity.bank"
      ],
      "lat": 40.8024849,
      "lon": -73.9489635,
      "osm_id": 6863378285,
      "osm_type": "node",
      "address": "Malcolm X Boulevard",
      "road_geometry": null
    },
    {
      "name": "L'encanto de Lola 2",
      "category": [
        "amenity.restaurant"
      ],
      "lat": 40.8039558,
      "lon": -73.9486227,
      "osm_id": 10969587131,
      "osm_type": "node",
      "address": null,
      "road_geometry": null
    },
    {
      "name": "Fine Fare Supermarket ",
      "category": [
        "shop.supermarket"
      ],
      "lat": 40.8023211,
      "lon": -73.9490789,
      "osm_id": 11040269752,
      "osm_type": "node",
      "address": "Malcolm X Boulevard",
      "road_geometry": null
    },
    {
      "name": "Citi Bike - Lenox Ave & W 117 St",
      "category": [
        "amenity.bicycle_rental"
      ],
      "lat": 40.8025418,
      "lon": -73.9490551,
      "osm_id": 13226791515,
      "osm_type": "node",
      "address": null,
      "road_geometry": null
    },
    {
      "name": "Kaafi",
      "category": [
        "amenity.cafe"
      ],
      "lat": 40.8038597,
      "lon": -73.9487211,
      "osm_id": 13541547191,
      "osm_type": "node",
      "address": "Malcolm X Boulevard",
      "road_geometry": null
    }
  ]
}