{
  "image": "dataset/images/411.png",
  "center_lat": 22.28063063063063,
  "center_lon": 114.18555656380077,
  "bbox": [
    114.18433958457217,
    22.2795045045045,
    114.18677354302939,
    22.281756756756753
  ],
  "unique_categories": [
    "shop.books",
    "shop.tailor",
    "amenity.restaurant",
    "amenity.cafe",
    "shop.jewelry",
    "shop.ice_cream",
    "tourism.hostel",
    "shop.mobile_phone",
    "shop.supermarket",
    "shop.optician",
    "shop.hairdresser",
    "railway.subway_entrance",
    "shop.convenience",
    "highway.bus_stop",
    "shop.sports",
    "amenity.cinema",
    "amenity.fast_food",
    "tourism.hotel",
    "shop.beverages",
    "shop.clothes",
    "amenity.bureau_de_change",
    "shop.telecommunication",
    "shop.variety_store",
    "shop.pet",
    "shop.chemist",
    "amenity.post_office",
    "shop.furniture",
    "shop.bag",
    "shop.beauty",
    "shop.seafood",
    "amenity.pharmacy",
    "shop.electronics",
    "shop.bakery",
    "railway.tram_stop",
    "amenity.bank",
    "shop.mall"
  ],
  "poi_count_per_category": {
    "shop.books": 1,
    "shop.tailor": 1,
    "amenity.restaurant": 11,
    "amenity.cafe": 1,
    "shop.jewelry": 1,
    "shop.ice_cream": 1,
    "tourism.hostel": 1,
    "shop.mobile_phone": 3,
    "shop.supermarket": 3,
    "shop.optician": 1,
    "shop.hairdresser": 1,
    "railway.subway_entrance": 2,
    "shop.convenience": 2,
    "highway.bus_stop": 17,
    "shop.sports": 1,
    "amenity.cinema": 2,
    "amenity.fast_food": 4,
    "tourism.hotel": 1,
    "shop.beverages": 1,
    "shop.clothes": 10,
    "amenity.bureau_de_change": 1,
    "shop.telecommunication": 4,
    "shop.variety_store": 1,
    "shop.pet": 1,
    "shop.chemist": 6,
    "amenity.post_office": 1,
    "shop.furniture": 2,
    "shop.bag": 1,
    "shop.beauty": 1,
    "shop.seafood": 1,
    "amenity.pharmacy": 5,
    "shop.electronics": 1,
    "shop.bakery": 1,
    "railway.tram_stop": 3,
    "amenity.bank": 4,
    "shop.mall": 2
  },
  "poi_count": 98,
  "pois": [
    {
      "name": "\u7dad\u591a\u5229\u4e9e\u516c\u5712 Victoria Park",
      "category": [
        "railway.subway_entrance"
      ],
      "lat": 22.2803598,
      "lon": 114.1850696,
      "osm_id": 253289096,
      "osm_type": "node",
      "address": null,
      "road_geometry": null
    },
    {
      "name": "\u9054\u4eba\u5c4b Talent Group",
      "category": [
        "shop.ice_cream"
      ],
      "lat": 22.2796211,
      "lon": 114.1852232,
      "osm_id": 629118337,
      "osm_type": "node",
      "address": null,
      "road_geometry": null
    },
    {
      "name": "May May King",
      "category": [
        "shop.clothes"
      ],
      "lat": 22.2807571,
      "lon": 114.1857547,
      "osm_id": 629118338,
      "osm_type": "node",
      "address": null,
      "road_geometry": null
    },
    {
      "name": "\u6e23\u7538\u574a Jardine's Crescent",
      "category": [
        "railway.subway_entrance"
      ],
      "lat": 22.2798881,
      "lon": 114.1844365,
      "osm_id": 1012176526,
      "osm_type": "node",
      "address": null,
      "road_geometry": null
    },
    {
      "name": "Mr Steak",
      "category": [
        "amenity.restaurant"
      ],
      "lat": 22.2800252,
      "lon": 114.1861449,
      "osm_id": 1298704543,
      "osm_type": "node",
      "address": null,
      "road_geometry": null
    },
    {
      "name": "\u842c\u5be7 Mannings",
      "category": [
        "amenity.pharmacy",
        "shop.chemist"
      ],
      "lat": 22.2801268,
      "lon": 114.1860195,
      "osm_id": 1298704619,
      "osm_type": "node",
      "address": null,
      "road_geometry": null
    },
    {
      "name": "Watami",
      "category": [
        "amenity.restaurant"
      ],
      "lat": 22.2803208,
      "lon": 114.185947,
      "osm_id": 1298704723,
      "osm_type": "node",
      "address": null,
      "road_geometry": null
    },
    {
      "name": "7-Eleven",
      "category": [
        "shop.convenience"
      ],
      "lat": 22.2796561,
      "lon": 114.1848405,
      "osm_id": 1298704955,
      "osm_type": "node",
      "address": null,
      "road_geometry": null
    },
    {
      "name": "\u6e23\u6253\u9280\u884c Standard Chartered",
      "category": [
        "amenity.bank"
      ],
      "lat": 22.2796931,
      "lon": 114.1855683,
      "osm_id": 1299465456,
      "osm_type": "node",
      "address": "\u6021\u548c\u8857 Yee Wo Street",
      "road_geometry": null
    },
    {
      "name": "\u9ea5\u7576\u52de McDonald's",
      "category": [
        "amenity.fast_food"
      ],
      "lat": 22.2795897,
      "lon": 114.1858619,
      "osm_id": 1299465463,
      "osm_type": "node",
      "address": "\u6021\u548c\u8857 Yee Wo Street",
      "road_geometry": null
    },
    {
      "name": "\u6052\u751f\u9280\u884c Hang Seng Bank",
      "category": [
        "amenity.bank"
      ],
      "lat": 22.279737,
      "lon": 114.1854199,
      "osm_id": 1299465473,
      "osm_type": "node",
      "address": "\u6021\u548c\u8857 Yee Wo Street",
      "road_geometry": null
    },
    {
      "name": "Victoria's Secret",
      "category": [
        "shop.clothes"
      ],
      "lat": 22.2798314,
      "lon": 114.18454,
      "osm_id": 1299465500,
      "osm_type": "node",
      "address": null,
      "road_geometry": null
    },
    {
      "name": "\u5b9c\u5bb6\u5bb6\u5c45 IKEA",
      "category": [
        "shop.furniture"
      ],
      "lat": 22.2809453,
      "lon": 114.1865085,
      "osm_id": 1802894781,
      "osm_type": "node",
      "address": "\u544a\u58eb\u6253\u9053 Gloucester Road",
      "road_geometry": null
    },
    {
      "name": "\u908a\u5be7\u9813\u8857 Pennington Street",
      "category": [
        "railway.tram_stop"
      ],
      "lat": 22.2795252,
      "lon": 114.1865618,
      "osm_id": 1898508075,
      "osm_type": "node",
      "address": null,
      "road_geometry": null
    },
    {
      "name": "\u6771\u89d2 Laforet",
      "category": [
        "shop.mall"
      ],
      "lat": 22.2809336,
      "lon": 114.1847474,
      "osm_id": 1927712349,
      "osm_type": "node",
      "address": "\u6771\u89d2\u9053 East Point Road",
      "road_geometry": null
    },
    {
      "name": "\u5546\u52d9\u5370\u66f8\u9928 The Commercial Press",
      "category": [
        "shop.books"
      ],
      "lat": 22.279832,
      "lon": 114.1861876,
      "osm_id": 2087111552,
      "osm_type": "node",
      "address": null,
      "road_geometry": null
    },
    {
      "name": "Cinema City",
      "category": [
        "amenity.cinema"
      ],
      "lat": 22.2806885,
      "lon": 114.185775,
      "osm_id": 2090579206,
      "osm_type": "node",
      "address": "\u767e\u5fb7\u65b0\u8857 Paterson Street",
      "road_geometry": null
    },
    {
      "name": "\u60e0\u5eb7 Wellcome",
      "category": [
        "shop.supermarket"
      ],
      "lat": 22.2807337,
      "lon": 114.1859239,
      "osm_id": 2090579207,
      "osm_type": "node",
      "address": "\u8a18\u5229\u4f50\u6cbb\u8857 Great George Street",
      "road_geometry": null
    },
    {
      "name": "\u767e\u5fb7\u65b0\u8857 Paterson Street",
      "category": [
        "railway.tram_stop"
      ],
      "lat": 22.2796898,
      "lon": 114.1861371,
      "osm_id": 2300434248,
      "osm_type": "node",
      "address": null,
      "road_geometry": null
    },
    {
      "name": "\u767e\u5fb7\u65b0\u8857 Paterson Street",
      "category": [
        "railway.tram_stop"
      ],
      "lat": 22.2798278,
      "lon": 114.1856238,
      "osm_id": 2300434263,
      "osm_type": "node",
      "address": null,
      "road_geometry": null
    },
    {
      "name": "\u9285\u947c\u7063 - \u6021\u548c\u8857 Causeway Bay - Yee Wo Street",
      "category": [
        "highway.bus_stop"
      ],
      "lat": 22.279972,
      "lon": 114.18487,
      "osm_id": 2604514258,
      "osm_type": "node",
      "address": null,
      "road_geometry": null
    },
    {
      "name": "\u767e\u5fb7\u65b0\u8857 Paterson Street",
      "category": [
        "highway.bus_stop"
      ],
      "lat": 22.279794,
      "lon": 114.186108,
      "osm_id": 2958865901,
      "osm_type": "node",
      "address": null,
      "road_geometry": null
    },
    {
      "name": "\u767e\u5fb7\u65b0\u8857 Paterson Street",
      "category": [
        "highway.bus_stop"
      ],
      "lat": 22.2799674,
      "lon": 114.1855828,
      "osm_id": 2958865902,
      "osm_type": "node",
      "address": null,
      "road_geometry": null
    },
    {
      "name": "\u767e\u5fb7\u65b0\u8857 Paterson Street",
      "category": [
        "highway.bus_stop"
      ],
      "lat": 22.280009,
      "lon": 114.18545,
      "osm_id": 2958865903,
      "osm_type": "node",
      "address": null,
      "road_geometry": null
    },
    {
      "name": "\u767e\u5fb7\u65b0\u8857 Paterson Street",
      "category": [
        "highway.bus_stop"
      ],
      "lat": 22.2800396,
      "lon": 114.1853521,
      "osm_id": 2958865904,
      "osm_type": "node",
      "address": null,
      "road_geometry": null
    },
    {
      "name": "\u767e\u5fb7\u65b0\u8857 Paterson Street",
      "category": [
        "highway.bus_stop"
      ],
      "lat": 22.2800642,
      "lon": 114.1852733,
      "osm_id": 2958865905,
      "osm_type": "node",
      "address": null,
      "road_geometry": null
    },
    {
      "name": "\u9285\u947c\u7063 - \u6021\u548c\u8857 Causeway Bay - Yee Wo Street",
      "category": [
        "highway.bus_stop"
      ],
      "lat": 22.279817,
      "lon": 114.18535,
      "osm_id": 2958865908,
      "osm_type": "node",
      "address": null,
      "road_geometry": null
    },
    {
      "name": "\u6021\u548c\u8857 Yee Wo Street",
      "category": [
        "highway.bus_stop"
      ],
      "lat": 22.2798415,
      "lon": 114.185274,
      "osm_id": 2958865909,
      "osm_type": "node",
      "address": null,
      "road_geometry": null
    },
    {
      "name": "\u6021\u548c\u8857 Yee Wo Street",
      "category": [
        "highway.bus_stop"
      ],
      "lat": 22.2798709,
      "lon": 114.185183,
      "osm_id": 2958865910,
      "osm_type": "node",
      "address": null,
      "road_geometry": null
    },
    {
      "name": "\u9285\u947c\u7063 - \u6021\u548c\u8857 Causeway Bay - Yee Wo Street",
      "category": [
        "highway.bus_stop"
      ],
      "lat": 22.2798906,
      "lon": 114.185122,
      "osm_id": 2958865911,
      "osm_type": "node",
      "address": null,
      "road_geometry": null
    },
    {
      "name": "\u9285\u947c\u7063 - \u6021\u548c\u8857 Causeway Bay - Yee Wo Street",
      "category": [
        "highway.bus_stop"
      ],
      "lat": 22.2799265,
      "lon": 114.185011,
      "osm_id": 2958865912,
      "osm_type": "node",
      "address": null,
      "road_geometry": null
    },
    {
      "name": "\u9285\u947c\u7063 - \u6021\u548c\u8857 Causeway Bay - Yee Wo Street",
      "category": [
        "highway.bus_stop"
      ],
      "lat": 22.2799064,
      "lon": 114.185073,
      "osm_id": 2958865913,
      "osm_type": "node",
      "address": null,
      "road_geometry": null
    },
    {
      "name": "\u767e\u5fb7\u65b0\u8857 Paterson Street",
      "category": [
        "highway.bus_stop"
      ],
      "lat": 22.2799859,
      "lon": 114.1855237,
      "osm_id": 2958865914,
      "osm_type": "node",
      "address": null,
      "road_geometry": null
    },
    {
      "name": "\u540d\u5e97\u574a Fashion Walk",
      "category": [
        "shop.mall"
      ],
      "lat": 22.2815629,
      "lon": 114.1852026,
      "osm_id": 2977109014,
      "osm_type": "node",
      "address": null,
      "road_geometry": null
    },
    {
      "name": "\u7687\u5ba4\u6232\u9662 Grand Windsor Cinema",
      "category": [
        "amenity.cinema"
      ],
      "lat": 22.2804317,
      "lon": 114.1864286,
      "osm_id": 3799542960,
      "osm_type": "node",
      "address": "\u544a\u58eb\u6253\u9053 Gloucester Road",
      "road_geometry": null
    },
    {
      "name": "\u9f8d\u8c50Mall Lung Fung Mall",
      "category": [
        "shop.chemist"
      ],
      "lat": 22.280778,
      "lon": 114.1847817,
      "osm_id": 3813866659,
      "osm_type": "node",
      "address": null,
      "road_geometry": null
    },
    {
      "name": "\u96d9\u59b9\u569c",
      "category": [
        "shop.chemist"
      ],
      "lat": 22.2801875,
      "lon": 114.1850079,
      "osm_id": 4229447489,
      "osm_type": "node",
      "address": "\u8a18\u5229\u4f50\u6cbb\u8857 Great George Street",
      "road_geometry": null
    },
    {
      "name": "\u4e0a\u6d77\u9999\u6e2f\u9eb5\u5bb6",
      "category": [
        "amenity.restaurant"
      ],
      "lat": 22.2796426,
      "lon": 114.1848948,
      "osm_id": 4283469092,
      "osm_type": "node",
      "address": "\u6e23\u7538\u8857 Jardine's Bazaar",
      "road_geometry": null
    },
    {
      "name": "Franc Franc",
      "category": [
        "shop.furniture"
      ],
      "lat": 22.2816607,
      "lon": 114.1862589,
      "osm_id": 4459004489,
      "osm_type": "node",
      "address": "\u4eac\u58eb\u9813\u8857 Kingston Street",
      "road_geometry": null
    },
    {
      "name": "\u7fe0\u83ef\u9910\u5ef3 Tsui Wah Restaurant",
      "category": [
        "amenity.restaurant"
      ],
      "lat": 22.27986,
      "lon": 114.1863,
      "osm_id": 4563385999,
      "osm_type": "node",
      "address": "\u7cd6\u8857 Sugar Street",
      "road_geometry": null
    },
    {
      "name": "\u67cf\u5be7\u9152\u5e97 The Park Lane Hotel",
      "category": [
        "tourism.hotel"
      ],
      "lat": 22.2812255,
      "lon": 114.1863914,
      "osm_id": 4709935864,
      "osm_type": "node",
      "address": "\u544a\u58eb\u6253\u9053 Gloucester Road",
      "road_geometry": null
    },
    {
      "name": "Repulse Bay Bus Station (40,40x)",
      "category": [
        "highway.bus_stop"
      ],
      "lat": 22.2797053,
      "lon": 114.1847712,
      "osm_id": 4780849423,
      "osm_type": "node",
      "address": null,
      "road_geometry": null
    },
    {
      "name": "\u6ed9\u8c50\u9280\u884c HSBC",
      "category": [
        "amenity.bank"
      ],
      "lat": 22.2809017,
      "lon": 114.1865725,
      "osm_id": 4850145254,
      "osm_type": "node",
      "address": "\u544a\u58eb\u6253\u9053 Gloucester Road",
      "road_geometry": null
    },
    {
      "name": "\u661f\u5c55\u9280\u884c DBS",
      "category": [
        "amenity.bank"
      ],
      "lat": 22.2798624,
      "lon": 114.1850236,
      "osm_id": 4855998598,
      "osm_type": "node",
      "address": "\u6021\u548c\u8857 Yee Wo Street",
      "road_geometry": null
    },
    {
      "name": "\u5bb6\u54c1\u5c4b",
      "category": [
        "shop.variety_store"
      ],
      "lat": 22.2795072,
      "lon": 114.1861349,
      "osm_id": 4855998599,
      "osm_type": "node",
      "address": "\u6021\u548c\u8857 Yee Wo Street",
      "road_geometry": null
    },
    {
      "name": "\u4eae\u8996\u9ede Lens Crafters",
      "category": [
        "shop.optician"
      ],
      "lat": 22.2801024,
      "lon": 114.1854487,
      "osm_id": 4856146959,
      "osm_type": "node",
      "address": "\u6021\u548c\u8857 Yee Wo Street",
      "road_geometry": null
    },
    {
      "name": "\u8b1d\u745e\u9e9f TSL",
      "category": [
        "shop.jewelry"
      ],
      "lat": 22.2800789,
      "lon": 114.1855547,
      "osm_id": 4856146960,
      "osm_type": "node",
      "address": "\u6021\u548c\u8857 Yee Wo Street",
      "road_geometry": null
    },
    {
      "name": "Kwun Kee Tailor",
      "category": [
        "shop.tailor"
      ],
      "lat": 22.2800138,
      "lon": 114.1856413,
      "osm_id": 4856146962,
      "osm_type": "node",
      "address": "\u6021\u548c\u8857 Yee Wo Street",
      "road_geometry": null
    },
    {
      "name": "\u677e\u672c\u6e05 Matsumoto Kiyoshi",
      "category": [
        "amenity.pharmacy"
      ],
      "lat": 22.2800176,
      "lon": 114.1859138,
      "osm_id": 4856151216,
      "osm_type": "node",
      "address": "\u767e\u5fb7\u65b0\u8857 Paterson Street",
      "road_geometry": null
    },
    {
      "name": "\u65b0\u660c\u5927\u85e5\u623f Sun Cheung Dispensary",
      "category": [
        "amenity.pharmacy"
      ],
      "lat": 22.2799983,
      "lon": 114.1856909,
      "osm_id": 4856151217,
      "osm_type": "node",
      "address": "\u6021\u548c\u8857 Yee Wo Street",
      "road_geometry": null
    },
    {
      "name": "\u65b0\u79fb\u52d5\u901a\u8a0a SUN Mobile",
      "category": [
        "shop.telecommunication"
      ],
      "lat": 22.2798837,
      "lon": 114.1860155,
      "osm_id": 4856151218,
      "osm_type": "node",
      "address": "\u6021\u548c\u8857 Yee Wo Street",
      "road_geometry": null
    },
    {
      "name": "\u8c50\u6fa4 Fortress",
      "category": [
        "shop.electronics"
      ],
      "lat": 22.2798768,
      "lon": 114.1860454,
      "osm_id": 4856151219,
      "osm_type": "node",
      "address": "\u6021\u548c\u8857 Yee Wo Street",
      "road_geometry": null
    },
    {
      "name": "\u885b\u8a0a Wilson",
      "category": [
        "shop.mobile_phone"
      ],
      "lat": 22.2798632,
      "lon": 114.1860761,
      "osm_id": 4856151220,
      "osm_type": "node",
      "address": "\u6021\u548c\u8857 Yee Wo Street",
      "road_geometry": null
    },
    {
      "name": "$50",
      "category": [
        "shop.clothes"
      ],
      "lat": 22.2798381,
      "lon": 114.1861693,
      "osm_id": 4856152221,
      "osm_type": "node",
      "address": "\u6021\u548c\u8857 Yee Wo Street",
      "road_geometry": null
    },
    {
      "name": "\u6587\u8f1d\u58a8\u9b5a\u4e38\u5927\u738b",
      "category": [
        "amenity.restaurant"
      ],
      "lat": 22.2798009,
      "lon": 114.1849301,
      "osm_id": 4883401321,
      "osm_type": "node",
      "address": "\u6e23\u7538\u8857 Jardine's Bazaar",
      "road_geometry": null
    },
    {
      "name": "SOO HAIR by korean",
      "category": [
        "shop.hairdresser"
      ],
      "lat": 22.2797796,
      "lon": 114.184342,
      "osm_id": 5151216721,
      "osm_type": "node",
      "address": null,
      "road_geometry": null
    },
    {
      "name": "BAKE Cheese Tart",
      "category": [
        "shop.bakery"
      ],
      "lat": 22.2803445,
      "lon": 114.1844323,
      "osm_id": 5151418523,
      "osm_type": "node",
      "address": null,
      "road_geometry": null
    },
    {
      "name": "\u69ae\u8a18\u7c89\u9eb5 Wing Kee Noodle",
      "category": [
        "amenity.restaurant"
      ],
      "lat": 22.2799887,
      "lon": 114.1867403,
      "osm_id": 5151440221,
      "osm_type": "node",
      "address": "\u7cd6\u8857 Sugar Street",
      "road_geometry": null
    },
    {
      "name": "\u5fb7\u5f70\u4e2d\u897f\u85e5\u696d Tak Cheung Medicine",
      "category": [
        "shop.chemist"
      ],
      "lat": 22.2807844,
      "lon": 114.1846246,
      "osm_id": 5160479023,
      "osm_type": "node",
      "address": null,
      "road_geometry": null
    },
    {
      "name": "COS",
      "category": [
        "shop.clothes"
      ],
      "lat": 22.281429,
      "lon": 114.1855485,
      "osm_id": 5161899121,
      "osm_type": "node",
      "address": null,
      "road_geometry": null
    },
    {
      "name": "\u9285\u947c\u7063\u90f5\u653f\u5c40 Causeway Bay Post Office",
      "category": [
        "amenity.post_office"
      ],
      "lat": 22.2804828,
      "lon": 114.1866616,
      "osm_id": 5386799346,
      "osm_type": "node",
      "address": "\u544a\u58eb\u6253\u9053 Gloucester Road",
      "road_geometry": null
    },
    {
      "name": "\u5c0f\u7c73\u4e4b\u5bb6 Mi",
      "category": [
        "shop.mobile_phone"
      ],
      "lat": 22.2802364,
      "lon": 114.1859655,
      "osm_id": 5584613921,
      "osm_type": "node",
      "address": null,
      "road_geometry": null
    },
    {
      "name": "Pandan Leaf Indonesian Food",
      "category": [
        "amenity.restaurant"
      ],
      "lat": 22.2798481,
      "lon": 114.1863531,
      "osm_id": 6397681195,
      "osm_type": "node",
      "address": null,
      "road_geometry": null
    },
    {
      "name": "Sedap Gurih Indonesian Restaurant",
      "category": [
        "amenity.restaurant"
      ],
      "lat": 22.2797226,
      "lon": 114.1866037,
      "osm_id": 6397681196,
      "osm_type": "node",
      "address": null,
      "road_geometry": null
    },
    {
      "name": "Sweaty Betty",
      "category": [
        "shop.clothes"
      ],
      "lat": 22.281709,
      "lon": 114.1855216,
      "osm_id": 6417901297,
      "osm_type": "node",
      "address": null,
      "road_geometry": null
    },
    {
      "name": "\u5c48\u81e3\u6c0f Watsons",
      "category": [
        "amenity.pharmacy",
        "shop.chemist"
      ],
      "lat": 22.2809772,
      "lon": 114.1855974,
      "osm_id": 6417901298,
      "osm_type": "node",
      "address": null,
      "road_geometry": null
    },
    {
      "name": "Maison Kitsun\u00e9",
      "category": [
        "shop.clothes"
      ],
      "lat": 22.2809132,
      "lon": 114.1855905,
      "osm_id": 6417901299,
      "osm_type": "node",
      "address": null,
      "road_geometry": null
    },
    {
      "name": "American Vintage",
      "category": [
        "shop.clothes"
      ],
      "lat": 22.2816208,
      "lon": 114.1852396,
      "osm_id": 6417901300,
      "osm_type": "node",
      "address": null,
      "road_geometry": null
    },
    {
      "name": "Kura Chika",
      "category": [
        "shop.bag"
      ],
      "lat": 22.2817476,
      "lon": 114.1851914,
      "osm_id": 6417901306,
      "osm_type": "node",
      "address": null,
      "road_geometry": null
    },
    {
      "name": "Little Boss",
      "category": [
        "shop.pet"
      ],
      "lat": 22.2796658,
      "lon": 114.185146,
      "osm_id": 6759443415,
      "osm_type": "node",
      "address": null,
      "road_geometry": null
    },
    {
      "name": "\u512a\u9ede\u9ede\u5fc3\u5c08\u9580\u5e97 King\u2019s Dimsum",
      "category": [
        "amenity.restaurant"
      ],
      "lat": 22.2795451,
      "lon": 114.1849878,
      "osm_id": 6759443421,
      "osm_type": "node",
      "address": "\u6e23\u7538\u8857 Jardine's Bazaar",
      "road_geometry": null
    },
    {
      "name": "OK\u4fbf\u5229\u5e97 Circle K",
      "category": [
        "shop.convenience"
      ],
      "lat": 22.2795946,
      "lon": 114.1849679,
      "osm_id": 6759443424,
      "osm_type": "node",
      "address": "\u6e23\u7538\u8857 Jardine's Bazaar",
      "road_geometry": null
    },
    {
      "name": "\u52e4\u8a18\u7c89\u9eb5 King\u2019s Cafe",
      "category": [
        "amenity.restaurant"
      ],
      "lat": 22.2796164,
      "lon": 114.1849343,
      "osm_id": 6759443427,
      "osm_type": "node",
      "address": "\u6e23\u7538\u8857 Jardine's Bazaar",
      "road_geometry": null
    },
    {
      "name": "\u5507\u8336",
      "category": [
        "shop.beverages"
      ],
      "lat": 22.2797113,
      "lon": 114.1851034,
      "osm_id": 6759443430,
      "osm_type": "node",
      "address": "\u6e23\u7538\u8857 Jardine's Bazaar",
      "road_geometry": null
    },
    {
      "name": "3 Supreme",
      "category": [
        "shop.telecommunication"
      ],
      "lat": 22.2798185,
      "lon": 114.1851589,
      "osm_id": 6793319320,
      "osm_type": "node",
      "address": "\u6021\u548c\u8857 Yee Wo Street",
      "road_geometry": null
    },
    {
      "name": "Jollibee",
      "category": [
        "amenity.fast_food"
      ],
      "lat": 22.2795364,
      "lon": 114.1860471,
      "osm_id": 6793319321,
      "osm_type": "node",
      "address": "\u6021\u548c\u8857 Yee Wo Street",
      "road_geometry": null
    },
    {
      "name": "\u4e2d\u570b\u806f\u901a China Unicom",
      "category": [
        "shop.telecommunication"
      ],
      "lat": 22.2798064,
      "lon": 114.1851976,
      "osm_id": 6793319322,
      "osm_type": "node",
      "address": "\u6021\u548c\u8857 Yee Wo Street",
      "road_geometry": null
    },
    {
      "name": "Kunila",
      "category": [
        "shop.beauty"
      ],
      "lat": 22.2798312,
      "lon": 114.1851175,
      "osm_id": 6793319323,
      "osm_type": "node",
      "address": "\u6021\u548c\u8857 Yee Wo Street",
      "road_geometry": null
    },
    {
      "name": "csl.",
      "category": [
        "shop.telecommunication"
      ],
      "lat": 22.2797867,
      "lon": 114.1852617,
      "osm_id": 6793319324,
      "osm_type": "node",
      "address": "\u6021\u548c\u8857 Yee Wo Street",
      "road_geometry": null
    },
    {
      "name": "\u5c0f\u7c73\u4e4b\u5bb6 Mi",
      "category": [
        "shop.mobile_phone"
      ],
      "lat": 22.2796411,
      "lon": 114.1857166,
      "osm_id": 6857211713,
      "osm_type": "node",
      "address": "\u6021\u548c\u8857 Yee Wo Street",
      "road_geometry": null
    },
    {
      "name": "\u5927\u5bb6\u6a02 Caf\u00e9 de Coral",
      "category": [
        "amenity.fast_food"
      ],
      "lat": 22.2808397,
      "lon": 114.1857469,
      "osm_id": 6938627491,
      "osm_type": "node",
      "address": "\u767e\u5fb7\u65b0\u8857 Paterson Street",
      "road_geometry": null
    },
    {
      "name": "\u4e09\u967d\u865f",
      "category": [
        "shop.seafood"
      ],
      "lat": 22.279641,
      "lon": 114.1851907,
      "osm_id": 6957288094,
      "osm_type": "node",
      "address": null,
      "road_geometry": null
    },
    {
      "name": "Don Don Donki",
      "category": [
        "shop.supermarket"
      ],
      "lat": 22.2812616,
      "lon": 114.1857147,
      "osm_id": 8157730430,
      "osm_type": "node",
      "address": null,
      "road_geometry": null
    },
    {
      "name": "Decathlon",
      "category": [
        "shop.sports"
      ],
      "lat": 22.280854,
      "lon": 114.1862012,
      "osm_id": 8244642343,
      "osm_type": "node",
      "address": "\u544a\u58eb\u6253\u9053 Gloucester Road",
      "road_geometry": null
    },
    {
      "name": "Chandra",
      "category": [
        "amenity.bureau_de_change"
      ],
      "lat": 22.2807507,
      "lon": 114.1861145,
      "osm_id": 8244642348,
      "osm_type": "node",
      "address": null,
      "road_geometry": null
    },
    {
      "name": "\u8c6a\u5927\u5927\u96de\u6392",
      "category": [
        "amenity.fast_food"
      ],
      "lat": 22.2797224,
      "lon": 114.1850652,
      "osm_id": 8277452716,
      "osm_type": "node",
      "address": null,
      "road_geometry": null
    },
    {
      "name": "\u8ca2\u8336 Gong Cha",
      "category": [
        "amenity.cafe"
      ],
      "lat": 22.2797168,
      "lon": 114.1850845,
      "osm_id": 8277470117,
      "osm_type": "node",
      "address": null,
      "road_geometry": null
    },
    {
      "name": "Hannah",
      "category": [
        "shop.clothes"
      ],
      "lat": 22.2806391,
      "lon": 114.184831,
      "osm_id": 9697359844,
      "osm_type": "node",
      "address": null,
      "road_geometry": null
    },
    {
      "name": "\u9285\u947c\u7063 - \u6021\u548c\u8857 Causeway Bay - Yee Wo Street",
      "category": [
        "highway.bus_stop"
      ],
      "lat": 22.2797886,
      "lon": 114.185438,
      "osm_id": 10844132370,
      "osm_type": "node",
      "address": null,
      "road_geometry": null
    },
    {
      "name": "\u9285\u947c\u7063 - \u6021\u548c\u8857 Causeway Bay - Yee Wo Street",
      "category": [
        "highway.bus_stop"
      ],
      "lat": 22.2798525,
      "lon": 114.18524,
      "osm_id": 10844132371,
      "osm_type": "node",
      "address": null,
      "road_geometry": null
    },
    {
      "name": "\u5eb7\u5be7\u5927\u85e5\u623f Hong Ning Pharmacy",
      "category": [
        "amenity.pharmacy"
      ],
      "lat": 22.2807679,
      "lon": 114.1844574,
      "osm_id": 11510801106,
      "osm_type": "node",
      "address": null,
      "road_geometry": null
    },
    {
      "name": "Brilliant. Mlle",
      "category": [
        "shop.clothes"
      ],
      "lat": 22.2807663,
      "lon": 114.1844037,
      "osm_id": 11510801107,
      "osm_type": "node",
      "address": "\u99f1\u514b\u9053 Lockhart Road",
      "road_geometry": null
    },
    {
      "name": "Focus. S",
      "category": [
        "shop.clothes"
      ],
      "lat": 22.2807685,
      "lon": 114.1845055,
      "osm_id": 11510801108,
      "osm_type": "node",
      "address": "\u99f1\u514b\u9053 Lockhart Road",
      "road_geometry": null
    },
    {
      "name": "\u5c1a\u76db\u4e2d\u897f\u5927\u85e5\u574a",
      "category": [
        "shop.chemist"
      ],
      "lat": 22.2807701,
      "lon": 114.184564,
      "osm_id": 11510801109,
      "osm_type": "node",
      "address": null,
      "road_geometry": null
    },
    {
      "name": "\u5be6\u60e0 PRICERITE",
      "category": [
        "shop.supermarket"
      ],
      "lat": 22.2801499,
      "lon": 114.1853439,
      "osm_id": 11752363007,
      "osm_type": "node",
      "address": null,
      "road_geometry": null
    },
    {
      "name": "\u767e\u5fb7\u65b0\u8857 Paterson Street",
      "category": [
        "highway.bus_stop"
      ],
      "lat": 22.2799867,
      "lon": 114.1855149,
      "osm_id": 12740842347,
      "osm_type": "node",
      "address": null,
      "road_geometry": null
    },
    {
      "name": "Hi Backpackers",
      "category": [
        "tourism.hostel"
      ],
      "lat": 22.2801154,
      "lon": 114.1855112,
      "osm_id": 13188860693,
      "osm_type": "node",
      "address": "\u6021\u548c\u8857 Yee Wo Street",
      "road_geometry": null
    },
    {
      "name": "Tequila Mex Mexican & Indian Restaurant",
      "category": [
        "amenity.restaurant"
      ],
      "lat": 22.2816879,
      "lon": 114.1863205,
      "osm_id": 13673744353,
      "osm_type": "node",
      "address": "\u4eac\u58eb\u9813\u8857 Kingston Street",
      "road_geometry": null
    }
  ]
}