{
  "image": "dataset/images/421.png",
  "center_lat": 22.28288288288288,
  "center_lon": 114.18312297776762,
  "bbox": [
    114.18190597893775,
    22.281756756756753,
    114.1843399765975,
    22.284009009009004
  ],
  "unique_categories": [
    "amenity.restaurant",
    "highway.bus_stop",
    "shop.gift",
    "shop.sports",
    "amenity.cafe",
    "shop.pet",
    "tourism.attraction",
    "shop.clothes"
  ],
  "poi_count_per_category": {
    "amenity.restaurant": 2,
    "highway.bus_stop": 3,
    "shop.gift": 1,
    "shop.sports": 1,
    "amenity.cafe": 1,
    "shop.pet": 1,
    "tourism.attraction": 1,
    "shop.clothes": 1
  },
  "poi_count": 11,
  "pois": [
    {
      "name": "\u661f\u5df4\u514b Starbucks",
      "category": [
        "amenity.cafe"
      ],
      "lat": 22.2820743,
      "lon": 114.1840392,
      "osm_id": 456737917,
      "osm_type": "node",
      "address": null,
      "road_geometry": null
    },
    {
      "name": "\u6021\u548c\u5348\u7832 Noonday Gun",
      "category": [
        "tourism.attraction"
      ],
      "lat": 22.282598,
      "lon": 114.183816,
      "osm_id": 1019305706,
      "osm_type": "node",
      "address": null,
      "road_geometry": null
    },
    {
      "name": "\u666f\u9686\u8857 Cannon Street",
      "category": [
        "highway.bus_stop"
      ],
      "lat": 22.2817605,
      "lon": 114.1829346,
      "osm_id": 3049050066,
      "osm_type": "node",
      "address": null,
      "road_geometry": null
    },
    {
      "name": "\u666f\u9686\u8857 Cannon Street",
      "category": [
        "highway.bus_stop"
      ],
      "lat": 22.2817889,
      "lon": 114.1830107,
      "osm_id": 3049050067,
      "osm_type": "node",
      "address": null,
      "road_geometry": null
    },
    {
      "name": "\u666f\u9686\u8857 Cannon Street",
      "category": [
        "highway.bus_stop"
      ],
      "lat": 22.2818402,
      "lon": 114.1831482,
      "osm_id": 3049050068,
      "osm_type": "node",
      "address": null,
      "road_geometry": null
    },
    {
      "name": "Atlas Sports",
      "category": [
        "shop.sports"
      ],
      "lat": 22.2819592,
      "lon": 114.183677,
      "osm_id": 4850169213,
      "osm_type": "node",
      "address": "\u544a\u58eb\u6253\u9053 Gloucester Road",
      "road_geometry": null
    },
    {
      "name": "Flag Ship Pet Grooming",
      "category": [
        "shop.pet"
      ],
      "lat": 22.2817658,
      "lon": 114.1836268,
      "osm_id": 4858562064,
      "osm_type": "node",
      "address": "\u666f\u9686\u8857 Cannon Street",
      "road_geometry": null
    },
    {
      "name": "Koby Gift",
      "category": [
        "shop.gift"
      ],
      "lat": 22.2818132,
      "lon": 114.1836053,
      "osm_id": 4858562065,
      "osm_type": "node",
      "address": "\u666f\u9686\u8857 Cannon Street",
      "road_geometry": null
    },
    {
      "name": "Paddy Field",
      "category": [
        "shop.clothes"
      ],
      "lat": 22.2817713,
      "lon": 114.1834013,
      "osm_id": 4860027980,
      "osm_type": "node",
      "address": "\u666f\u9686\u8857 Cannon Street",
      "road_geometry": null
    },
    {
      "name": "\u7fe0\u82d1\u751c\u54c1\u5c02\u5bb6",
      "category": [
        "amenity.restaurant"
      ],
      "lat": 22.2819326,
      "lon": 114.1836794,
      "osm_id": 4910060321,
      "osm_type": "node",
      "address": "\u666f\u9686\u8857 Cannon Street",
      "road_geometry": null
    },
    {
      "name": "\u9eb5\u9bae\u91ac\u6cb9\u623f \u5468\u6708 Shugetsu",
      "category": [
        "amenity.restaurant"
      ],
      "lat": 22.2817914,
      "lon": 114.1836151,
      "osm_id": 5411814911,
      "osm_type": "node",
      "address": "\u666f\u9686\u8857 Cannon Street",
      "road_geometry": null
    }
  ]
}