{
  "image": "dataset/images/472.png",
  "center_lat": 22.294144144144138,
  "center_lon": 114.17338806561284,
  "bbox": [
    114.17217096873894,
    22.29301801801801,
    114.17460516248673,
    22.29527027027026
  ],
  "unique_categories": [
    "tourism.theme_park",
    "amenity.restaurant",
    "highway.bus_stop",
    "amenity.cafe",
    "shop.car",
    "amenity.bar",
    "shop.mall"
  ],
  "poi_count_per_category": {
    "tourism.theme_park": 1,
    "amenity.restaurant": 4,
    "highway.bus_stop": 11,
    "amenity.cafe": 2,
    "shop.car": 1,
    "amenity.bar": 1,
    "shop.mall": 1
  },
  "poi_count": 21,
  "pois": [
    {
      "name": "King Ludwig",
      "category": [
        "amenity.restaurant"
      ],
      "lat": 22.2952034,
      "lon": 114.174059,
      "osm_id": 1022494598,
      "osm_type": "node",
      "address": null,
      "road_geometry": null
    },
    {
      "name": "\u5c16\u6771\u7ad9 East Tsim Sha Tsui Station",
      "category": [
        "highway.bus_stop"
      ],
      "lat": 22.2951945,
      "lon": 114.1744464,
      "osm_id": 1949213214,
      "osm_type": "node",
      "address": null,
      "road_geometry": null
    },
    {
      "name": "Teresa New Life Coffee Shop",
      "category": [
        "amenity.cafe"
      ],
      "lat": 22.2949857,
      "lon": 114.1744254,
      "osm_id": 2247828087,
      "osm_type": "node",
      "address": "East Tsim Sha Tsui Station",
      "road_geometry": null
    },
    {
      "name": "\u5c16\u6c99\u5480\u4e2d\u9593\u9053 Middle Road Tsim Sha Tsui",
      "category": [
        "highway.bus_stop"
      ],
      "lat": 22.29524,
      "lon": 114.17244,
      "osm_id": 2604586678,
      "osm_type": "node",
      "address": null,
      "road_geometry": null
    },
    {
      "name": "\u5c16\u6771\u7ad9 East Tsim Sha Tsui Station",
      "category": [
        "highway.bus_stop"
      ],
      "lat": 22.294697,
      "lon": 114.1740923,
      "osm_id": 3912040168,
      "osm_type": "node",
      "address": null,
      "road_geometry": null
    },
    {
      "name": "\u5c16\u6771\u7ad9 East Tsim Sha Tsui Station",
      "category": [
        "highway.bus_stop"
      ],
      "lat": 22.2946952,
      "lon": 114.1740852,
      "osm_id": 3912040169,
      "osm_type": "node",
      "address": null,
      "road_geometry": null
    },
    {
      "name": "\u5c16\u6771\u7ad9 East Tsim Sha Tsui Station",
      "category": [
        "highway.bus_stop"
      ],
      "lat": 22.2946935,
      "lon": 114.1740782,
      "osm_id": 3912040170,
      "osm_type": "node",
      "address": null,
      "road_geometry": null
    },
    {
      "name": "\u5c16\u6771\u7ad9 East Tsim Sha Tsui Station",
      "category": [
        "highway.bus_stop"
      ],
      "lat": 22.295236,
      "lon": 114.1745951,
      "osm_id": 4520748587,
      "osm_type": "node",
      "address": null,
      "road_geometry": null
    },
    {
      "name": "\u6e2f\u7554\u9910\u5ef3 Harbourside",
      "category": [
        "amenity.restaurant"
      ],
      "lat": 22.2932969,
      "lon": 114.1740371,
      "osm_id": 4540980489,
      "osm_type": "node",
      "address": null,
      "road_geometry": null
    },
    {
      "name": "\u5927\u5802\u9152\u5eca Lobby Lounge",
      "category": [
        "amenity.bar"
      ],
      "lat": 22.2934254,
      "lon": 114.1738937,
      "osm_id": 4824790221,
      "osm_type": "node",
      "address": null,
      "road_geometry": null
    },
    {
      "name": "Agnes B. Caf\u00e9",
      "category": [
        "amenity.cafe"
      ],
      "lat": 22.2949193,
      "lon": 114.1728183,
      "osm_id": 4848354392,
      "osm_type": "node",
      "address": "\u68b3\u58eb\u5df4\u5229\u9053 Salisbury Road",
      "road_geometry": null
    },
    {
      "name": "\u9e97\u6676\u8ed2 Lai Ching Heen",
      "category": [
        "amenity.restaurant"
      ],
      "lat": 22.293448,
      "lon": 114.1740156,
      "osm_id": 5172512824,
      "osm_type": "node",
      "address": null,
      "road_geometry": null
    },
    {
      "name": "\u5c16\u6771\u7ad9 East Tsim Sha Tsui Station",
      "category": [
        "highway.bus_stop"
      ],
      "lat": 22.2951531,
      "lon": 114.1742976,
      "osm_id": 8140840210,
      "osm_type": "node",
      "address": null,
      "road_geometry": null
    },
    {
      "name": "The Steak House",
      "category": [
        "amenity.restaurant"
      ],
      "lat": 22.2933626,
      "lon": 114.1739224,
      "osm_id": 10866927294,
      "osm_type": "node",
      "address": null,
      "road_geometry": null
    },
    {
      "name": "\u5c16\u6771\u7ad9 East Tsim Sha Tsui Station",
      "category": [
        "highway.bus_stop"
      ],
      "lat": 22.2947278,
      "lon": 114.1742165,
      "osm_id": 10928952700,
      "osm_type": "node",
      "address": null,
      "road_geometry": null
    },
    {
      "name": "\u5c16\u6771\u7ad9 East Tsim Sha Tsui Station",
      "category": [
        "highway.bus_stop"
      ],
      "lat": 22.2947882,
      "lon": 114.1744603,
      "osm_id": 10928952702,
      "osm_type": "node",
      "address": null,
      "road_geometry": null
    },
    {
      "name": "\u5c16\u6771\u7ad9 East Tsim Sha Tsui Station",
      "category": [
        "highway.bus_stop"
      ],
      "lat": 22.2947569,
      "lon": 114.1743338,
      "osm_id": 10928952703,
      "osm_type": "node",
      "address": null,
      "road_geometry": null
    },
    {
      "name": "Tesla K11 MUSEA \u9ad4\u9a57\u4e2d\u5fc3",
      "category": [
        "shop.car"
      ],
      "lat": 22.2945704,
      "lon": 114.1745591,
      "osm_id": 11090157630,
      "osm_type": "node",
      "address": "\u68b3\u58eb\u5df4\u5229\u9053 Salisbury Road",
      "road_geometry": null
    },
    {
      "name": "The Peninsula Arcade",
      "category": [
        "shop.mall"
      ],
      "lat": 22.2952014,
      "lon": 114.1721797,
      "osm_id": 11264962679,
      "osm_type": "node",
      "address": null,
      "road_geometry": null
    },
    {
      "name": "\u9999\u6e2f\u6a02\u9ad8\u63a2\u7d22\u4e2d\u5fc3 LEGOLAND Discovery Centre",
      "category": [
        "tourism.theme_park"
      ],
      "lat": 22.2943196,
      "lon": 114.1729602,
      "osm_id": 12534608794,
      "osm_type": "node",
      "address": "\u68b3\u58eb\u5df4\u5229\u9053 Salisbury Road",
      "road_geometry": null
    },
    {
      "name": "K11\u4eba\u6587\u8cfc\u7269\u85dd\u8853\u9928 K11 MUSEA",
      "category": [
        "highway.bus_stop"
      ],
      "lat": 22.2944106,
      "lon": 114.1728499,
      "osm_id": 12534608795,
      "osm_type": "node",
      "address": null,
      "road_geometry": null
    }
  ]
}