{
  "image": "dataset/images/48.png",
  "center_lat": 51.51513513513515,
  "center_lon": -0.08371403471365207,
  "bbox": [
    -0.08552358641213517,
    51.51400900900902,
    -0.08190448301516896,
    51.51626126126128
  ],
  "unique_categories": [
    "amenity.bicycle_rental",
    "amenity.atm",
    "tourism.artwork",
    "shop.beauty",
    "amenity.college",
    "highway.bus_stop",
    "amenity.restaurant",
    "amenity.bank",
    "tourism.viewpoint",
    "amenity.cafe",
    "leisure.sports_centre",
    "amenity.fast_food",
    "leisure.fitness_centre",
    "amenity.bar",
    "shop.hairdresser",
    "shop.newsagent",
    "shop.stationery",
    "shop.clothes"
  ],
  "poi_count_per_category": {
    "amenity.bicycle_rental": 1,
    "amenity.atm": 1,
    "tourism.artwork": 3,
    "shop.beauty": 1,
    "amenity.college": 1,
    "highway.bus_stop": 7,
    "amenity.restaurant": 3,
    "amenity.bank": 1,
    "tourism.viewpoint": 2,
    "amenity.cafe": 4,
    "leisure.sports_centre": 2,
    "amenity.fast_food": 7,
    "leisure.fitness_centre": 1,
    "amenity.bar": 6,
    "shop.hairdresser": 1,
    "shop.newsagent": 1,
    "shop.stationery": 2,
    "shop.clothes": 1
  },
  "poi_count": 45,
  "pois": [
    {
      "name": "Camomile Street",
      "category": [
        "highway.bus_stop"
      ],
      "lat": 51.5158325,
      "lon": -0.0821223,
      "osm_id": 469765563,
      "osm_type": "node",
      "address": null,
      "road_geometry": null
    },
    {
      "name": "Wormwood Street",
      "category": [
        "highway.bus_stop"
      ],
      "lat": 51.5161855,
      "lon": -0.082672,
      "osm_id": 469765565,
      "osm_type": "node",
      "address": null,
      "road_geometry": null
    },
    {
      "name": "Threadneedle Street",
      "category": [
        "highway.bus_stop"
      ],
      "lat": 51.5141329,
      "lon": -0.0838965,
      "osm_id": 469774062,
      "osm_type": "node",
      "address": null,
      "road_geometry": null
    },
    {
      "name": "Great Winchester Street",
      "category": [
        "highway.bus_stop"
      ],
      "lat": 51.5156242,
      "lon": -0.0842733,
      "osm_id": 469776974,
      "osm_type": "node",
      "address": null,
      "road_geometry": null
    },
    {
      "name": "Great Winchester Street",
      "category": [
        "highway.bus_stop"
      ],
      "lat": 51.5153073,
      "lon": -0.0844124,
      "osm_id": 469777003,
      "osm_type": "node",
      "address": null,
      "road_geometry": null
    },
    {
      "name": "Old Broad Street",
      "category": [
        "highway.bus_stop"
      ],
      "lat": 51.5142602,
      "lon": -0.0852149,
      "osm_id": 469777165,
      "osm_type": "node",
      "address": null,
      "road_geometry": null
    },
    {
      "name": "HSBC UK",
      "category": [
        "amenity.atm"
      ],
      "lat": 51.516236,
      "lon": -0.0839612,
      "osm_id": 475396920,
      "osm_type": "node",
      "address": null,
      "road_geometry": null
    },
    {
      "name": "Wormwood Street",
      "category": [
        "amenity.bicycle_rental"
      ],
      "lat": 51.5160656,
      "lon": -0.0821208,
      "osm_id": 835390896,
      "osm_type": "node",
      "address": null,
      "road_geometry": null
    },
    {
      "name": "Bank Health Club",
      "category": [
        "leisure.sports_centre"
      ],
      "lat": 51.5147315,
      "lon": -0.0853714,
      "osm_id": 1787108615,
      "osm_type": "node",
      "address": null,
      "road_geometry": null
    },
    {
      "name": "Bannatyne's Health Club",
      "category": [
        "leisure.sports_centre"
      ],
      "lat": 51.5148938,
      "lon": -0.0841972,
      "osm_id": 2389890389,
      "osm_type": "node",
      "address": null,
      "road_geometry": null
    },
    {
      "name": "Global Knowledge",
      "category": [
        "amenity.college"
      ],
      "lat": 51.5150095,
      "lon": -0.0850972,
      "osm_id": 2490735156,
      "osm_type": "node",
      "address": "Old Broad Street",
      "road_geometry": null
    },
    {
      "name": "Piazza Italiana",
      "category": [
        "amenity.restaurant"
      ],
      "lat": 51.5144903,
      "lon": -0.0840663,
      "osm_id": 2793904913,
      "osm_type": "node",
      "address": "Threadneedle Street",
      "road_geometry": null
    },
    {
      "name": "Burger & Lobster",
      "category": [
        "amenity.restaurant"
      ],
      "lat": 51.5143246,
      "lon": -0.085187,
      "osm_id": 2793904914,
      "osm_type": "node",
      "address": "Threadneedle Street",
      "road_geometry": null
    },
    {
      "name": "Stagnight",
      "category": [
        "tourism.artwork"
      ],
      "lat": 51.5159856,
      "lon": -0.0819822,
      "osm_id": 2929114896,
      "osm_type": "node",
      "address": "Bishopsgate",
      "road_geometry": null
    },
    {
      "name": "Ryman Design",
      "category": [
        "shop.stationery"
      ],
      "lat": 51.5152219,
      "lon": -0.0828074,
      "osm_id": 3018116496,
      "osm_type": "node",
      "address": null,
      "road_geometry": null
    },
    {
      "name": "Coco di Mama",
      "category": [
        "amenity.fast_food"
      ],
      "lat": 51.5149882,
      "lon": -0.083051,
      "osm_id": 3018116497,
      "osm_type": "node",
      "address": "Bishopsgate",
      "road_geometry": null
    },
    {
      "name": "Pret A Manger",
      "category": [
        "amenity.fast_food"
      ],
      "lat": 51.5151685,
      "lon": -0.0828534,
      "osm_id": 3018116498,
      "osm_type": "node",
      "address": "Bishopsgate",
      "road_geometry": null
    },
    {
      "name": "Hawes & Curtis",
      "category": [
        "shop.clothes"
      ],
      "lat": 51.5151085,
      "lon": -0.0829092,
      "osm_id": 3018116499,
      "osm_type": "node",
      "address": null,
      "road_geometry": null
    },
    {
      "name": "Fitness First",
      "category": [
        "leisure.fitness_centre"
      ],
      "lat": 51.5150418,
      "lon": -0.0829711,
      "osm_id": 3018116500,
      "osm_type": "node",
      "address": null,
      "road_geometry": null
    },
    {
      "name": "City Social",
      "category": [
        "amenity.bar"
      ],
      "lat": 51.515105,
      "lon": -0.0840846,
      "osm_id": 3114630761,
      "osm_type": "node",
      "address": "Old Broad Street",
      "road_geometry": null
    },
    {
      "name": "New York Laser Clinic",
      "category": [
        "shop.beauty"
      ],
      "lat": 51.5150097,
      "lon": -0.0826476,
      "osm_id": 3239698988,
      "osm_type": "node",
      "address": null,
      "road_geometry": null
    },
    {
      "name": "Balls Brothers",
      "category": [
        "amenity.bar"
      ],
      "lat": 51.5156651,
      "lon": -0.0852995,
      "osm_id": 3320744028,
      "osm_type": "node",
      "address": "Austin Friars",
      "road_geometry": null
    },
    {
      "name": "Nusa Kitchen",
      "category": [
        "amenity.fast_food"
      ],
      "lat": 51.5146417,
      "lon": -0.0851221,
      "osm_id": 4377148225,
      "osm_type": "node",
      "address": "Adams Court",
      "road_geometry": null
    },
    {
      "name": "Forever Us Hair Salon",
      "category": [
        "shop.hairdresser"
      ],
      "lat": 51.5145695,
      "lon": -0.0847068,
      "osm_id": 4453344988,
      "osm_type": "node",
      "address": null,
      "road_geometry": null
    },
    {
      "name": "Rocket",
      "category": [
        "amenity.restaurant"
      ],
      "lat": 51.5146457,
      "lon": -0.0847648,
      "osm_id": 4453345657,
      "osm_type": "node",
      "address": null,
      "road_geometry": null
    },
    {
      "name": "Piada",
      "category": [
        "amenity.fast_food"
      ],
      "lat": 51.5145649,
      "lon": -0.0848476,
      "osm_id": 4453346094,
      "osm_type": "node",
      "address": "Adams Court",
      "road_geometry": null
    },
    {
      "name": "The Otherist",
      "category": [
        "amenity.bar"
      ],
      "lat": 51.5154865,
      "lon": -0.0844664,
      "osm_id": 4503830991,
      "osm_type": "node",
      "address": "Old Broad Street",
      "road_geometry": null
    },
    {
      "name": "Ryman Design",
      "category": [
        "shop.stationery"
      ],
      "lat": 51.5152969,
      "lon": -0.0827121,
      "osm_id": 4684958739,
      "osm_type": "node",
      "address": "Bishopsgate",
      "road_geometry": null
    },
    {
      "name": "Camomile Street",
      "category": [
        "highway.bus_stop"
      ],
      "lat": 51.5154649,
      "lon": -0.0822292,
      "osm_id": 4827019219,
      "osm_type": "node",
      "address": null,
      "road_geometry": null
    },
    {
      "name": "Vertigo 42, Champagne Bar",
      "category": [
        "amenity.bar"
      ],
      "lat": 51.5150814,
      "lon": -0.083811,
      "osm_id": 4935127421,
      "osm_type": "node",
      "address": "Old Broad Street",
      "road_geometry": null
    },
    {
      "name": "Arcadia",
      "category": [
        "tourism.artwork"
      ],
      "lat": 51.5155378,
      "lon": -0.0824562,
      "osm_id": 5130278264,
      "osm_type": "node",
      "address": "Bishopsgate",
      "road_geometry": null
    },
    {
      "name": "Joe & The Juice",
      "category": [
        "amenity.cafe"
      ],
      "lat": 51.5149091,
      "lon": -0.0831861,
      "osm_id": 5161384722,
      "osm_type": "node",
      "address": "Bishopsgate",
      "road_geometry": null
    },
    {
      "name": "Sweetie Plus",
      "category": [
        "shop.newsagent"
      ],
      "lat": 51.5150588,
      "lon": -0.0843613,
      "osm_id": 5165768021,
      "osm_type": "node",
      "address": "Old Broad Street",
      "road_geometry": null
    },
    {
      "name": "Vital Ingredient",
      "category": [
        "amenity.fast_food"
      ],
      "lat": 51.5152958,
      "lon": -0.0834861,
      "osm_id": 5165768022,
      "osm_type": "node",
      "address": "Old Broad Street",
      "road_geometry": null
    },
    {
      "name": "Paul in Tower 42",
      "category": [
        "amenity.cafe"
      ],
      "lat": 51.5151388,
      "lon": -0.0842029,
      "osm_id": 5165768121,
      "osm_type": "node",
      "address": "Old Broad Street",
      "road_geometry": null
    },
    {
      "name": "Black Sheep Coffee",
      "category": [
        "amenity.cafe"
      ],
      "lat": 51.5140173,
      "lon": -0.0824258,
      "osm_id": 5341303120,
      "osm_type": "node",
      "address": "Leadenhall Street",
      "road_geometry": null
    },
    {
      "name": "Hampshire Trust Bank",
      "category": [
        "amenity.bank"
      ],
      "lat": 51.5152923,
      "lon": -0.0828795,
      "osm_id": 5537425023,
      "osm_type": "node",
      "address": "Bishopsgate",
      "road_geometry": null
    },
    {
      "name": "Scarpetta",
      "category": [
        "amenity.fast_food"
      ],
      "lat": 51.5149629,
      "lon": -0.0834741,
      "osm_id": 5565387184,
      "osm_type": "node",
      "address": "Bishopsgate",
      "road_geometry": null
    },
    {
      "name": "Broadleaf",
      "category": [
        "amenity.bar"
      ],
      "lat": 51.5151143,
      "lon": -0.0833648,
      "osm_id": 5565387243,
      "osm_type": "node",
      "address": "Old Broad Street",
      "road_geometry": null
    },
    {
      "name": "Hop",
      "category": [
        "amenity.fast_food"
      ],
      "lat": 51.5140142,
      "lon": -0.0821864,
      "osm_id": 6118582765,
      "osm_type": "node",
      "address": "Leadenhall Street",
      "road_geometry": null
    },
    {
      "name": "It Was Only a Matter of Time Before We Found the Pyramid and Forced It Open",
      "category": [
        "tourism.artwork"
      ],
      "lat": 51.5145068,
      "lon": -0.082016,
      "osm_id": 6569608689,
      "osm_type": "node",
      "address": "Undershaft",
      "road_geometry": null
    },
    {
      "name": "The Lookout",
      "category": [
        "tourism.viewpoint"
      ],
      "lat": 51.5140131,
      "lon": -0.0836015,
      "osm_id": 11148594121,
      "osm_type": "node",
      "address": null,
      "road_geometry": null
    },
    {
      "name": "Horizon 22",
      "category": [
        "tourism.viewpoint"
      ],
      "lat": 51.514367,
      "lon": -0.083149,
      "osm_id": 11262672466,
      "osm_type": "node",
      "address": null,
      "road_geometry": null
    },
    {
      "name": "Blend",
      "category": [
        "amenity.cafe"
      ],
      "lat": 51.5142714,
      "lon": -0.0826372,
      "osm_id": 11414857733,
      "osm_type": "node",
      "address": null,
      "road_geometry": null
    },
    {
      "name": "Andrea Adam's Court",
      "category": [
        "amenity.bar"
      ],
      "lat": 51.5146708,
      "lon": -0.0845643,
      "osm_id": 11692082702,
      "osm_type": "node",
      "address": "Adams Court",
      "road_geometry": null
    }
  ]
}