{
  "image": "dataset/images/482.png",
  "center_lat": 22.29639639639639,
  "center_lon": 114.17095404841214,
  "bbox": [
    114.1697369319219,
    22.29527027027026,
    114.17217116490238,
    22.297522522522513
  ],
  "unique_categories": [
    "shop.yes",
    "amenity.restaurant",
    "shop.camera",
    "shop.houseware",
    "amenity.cafe",
    "railway.stop",
    "shop.supermarket",
    "shop.optician",
    "shop.tea",
    "shop.scuba_diving",
    "railway.subway_entrance",
    "shop.convenience",
    "highway.bus_stop",
    "shop.sports",
    "amenity.cinema",
    "shop.alcohol",
    "amenity.fast_food",
    "amenity.clinic",
    "shop.stationery",
    "shop.clothes",
    "leisure.fitness_centre",
    "amenity.bureau_de_change",
    "shop.beverages",
    "shop.telecommunication",
    "amenity.pub",
    "shop.massage",
    "shop.wine",
    "shop.nutrition_supplements",
    "shop.chemist",
    "shop.golf",
    "shop.bag",
    "shop.watches",
    "amenity.pharmacy",
    "shop.cosmetics",
    "shop.department_store",
    "shop.herbalist",
    "amenity.bar",
    "amenity.bank",
    "shop.shoes",
    "shop.jewelry"
  ],
  "poi_count_per_category": {
    "shop.yes": 1,
    "amenity.restaurant": 37,
    "shop.camera": 1,
    "shop.houseware": 1,
    "amenity.cafe": 1,
    "railway.stop": 1,
    "shop.supermarket": 2,
    "shop.optician": 1,
    "shop.tea": 1,
    "shop.scuba_diving": 1,
    "railway.subway_entrance": 3,
    "shop.convenience": 5,
    "highway.bus_stop": 9,
    "shop.sports": 1,
    "amenity.cinema": 1,
    "shop.alcohol": 1,
    "amenity.fast_food": 7,
    "amenity.clinic": 2,
    "shop.stationery": 1,
    "shop.clothes": 10,
    "leisure.fitness_centre": 2,
    "amenity.bureau_de_change": 2,
    "shop.beverages": 2,
    "shop.telecommunication": 1,
    "amenity.pub": 3,
    "shop.massage": 1,
    "shop.wine": 1,
    "shop.nutrition_supplements": 1,
    "shop.chemist": 9,
    "shop.golf": 3,
    "shop.bag": 4,
    "shop.watches": 3,
    "amenity.pharmacy": 1,
    "shop.cosmetics": 1,
    "shop.department_store": 1,
    "shop.herbalist": 3,
    "amenity.bar": 2,
    "amenity.bank": 2,
    "shop.shoes": 1,
    "shop.jewelry": 14
  },
  "poi_count": 144,
  "pois": [
    {
      "name": "Delaney's Irish Pub",
      "category": [
        "amenity.pub"
      ],
      "lat": 22.2963303,
      "lon": 114.1716934,
      "osm_id": 1106515969,
      "osm_type": "node",
      "address": "\u5317\u4eac\u9053 Peking Road",
      "road_geometry": null
    },
    {
      "name": "\u9ea5\u7576\u52de McDonald's",
      "category": [
        "amenity.fast_food"
      ],
      "lat": 22.2964427,
      "lon": 114.170977,
      "osm_id": 1950794665,
      "osm_type": "node",
      "address": "\u5317\u4eac\u9053 Peking Road",
      "road_geometry": null
    },
    {
      "name": "Kung Tak Lam",
      "category": [
        "amenity.restaurant"
      ],
      "lat": 22.2959936,
      "lon": 114.169895,
      "osm_id": 2192631868,
      "osm_type": "node",
      "address": null,
      "road_geometry": null
    },
    {
      "name": "Felix Bar",
      "category": [
        "amenity.bar"
      ],
      "lat": 22.2954573,
      "lon": 114.1720177,
      "osm_id": 2247830957,
      "osm_type": "node",
      "address": "Salisbury Road, Kowloon",
      "road_geometry": null
    },
    {
      "name": "\u5c16\u6c99\u5480 Tsim Sha Tsui",
      "category": [
        "railway.stop"
      ],
      "lat": 22.29718,
      "lon": 114.172169,
      "osm_id": 2555388098,
      "osm_type": "node",
      "address": null,
      "road_geometry": null
    },
    {
      "name": "\u4e5d\u9f8d\u9152\u5e97 The Kowloon Hotel",
      "category": [
        "highway.bus_stop"
      ],
      "lat": 22.2959785,
      "lon": 114.1721665,
      "osm_id": 2811081690,
      "osm_type": "node",
      "address": null,
      "road_geometry": null
    },
    {
      "name": "\u6e2f\u532f\u627e\u63db\u532f\u6b3e",
      "category": [
        "amenity.bureau_de_change"
      ],
      "lat": 22.296831,
      "lon": 114.1710257,
      "osm_id": 3609080345,
      "osm_type": "node",
      "address": "\u6f22\u53e3\u9053 Hankow Road",
      "road_geometry": null
    },
    {
      "name": "\u725b\u9663",
      "category": [
        "amenity.restaurant"
      ],
      "lat": 22.296707,
      "lon": 114.171863,
      "osm_id": 3727068791,
      "osm_type": "node",
      "address": "\u5f4c\u6566\u9053 Nathan Road",
      "road_geometry": null
    },
    {
      "name": "\u5317\u4eac\u9053 Peking Road",
      "category": [
        "highway.bus_stop"
      ],
      "lat": 22.2959696,
      "lon": 114.1704668,
      "osm_id": 3912040164,
      "osm_type": "node",
      "address": null,
      "road_geometry": null
    },
    {
      "name": "\u4e5d\u9f8d\u516c\u5712\u5f91 Kowloon Park Drive",
      "category": [
        "highway.bus_stop"
      ],
      "lat": 22.296073,
      "lon": 114.1702064,
      "osm_id": 3912040165,
      "osm_type": "node",
      "address": null,
      "road_geometry": null
    },
    {
      "name": "7-Eleven",
      "category": [
        "shop.convenience"
      ],
      "lat": 22.2974975,
      "lon": 114.1720306,
      "osm_id": 3914318602,
      "osm_type": "node",
      "address": null,
      "road_geometry": null
    },
    {
      "name": "7-Eleven",
      "category": [
        "shop.convenience"
      ],
      "lat": 22.29706,
      "lon": 114.1707612,
      "osm_id": 3914318604,
      "osm_type": "node",
      "address": null,
      "road_geometry": null
    },
    {
      "name": "Market Place",
      "category": [
        "shop.supermarket"
      ],
      "lat": 22.2966775,
      "lon": 114.17194,
      "osm_id": 4066472129,
      "osm_type": "node",
      "address": null,
      "road_geometry": null
    },
    {
      "name": "\u767e\u4f73 PARKnSHOP",
      "category": [
        "shop.supermarket"
      ],
      "lat": 22.2963264,
      "lon": 114.1716666,
      "osm_id": 4071568089,
      "osm_type": "node",
      "address": null,
      "road_geometry": null
    },
    {
      "name": "\u6f6e\u767c\u7ca5\u9eb5\u8336\u9910\u5ef3 Chiu Fat Restaurant",
      "category": [
        "amenity.restaurant"
      ],
      "lat": 22.2970091,
      "lon": 114.1715078,
      "osm_id": 4158952989,
      "osm_type": "node",
      "address": "\u6a02\u9053 Lock Road",
      "road_geometry": null
    },
    {
      "name": "\u534a\u5cf6\u9152\u5e97 The Peninsula",
      "category": [
        "railway.subway_entrance"
      ],
      "lat": 22.2962034,
      "lon": 114.1721625,
      "osm_id": 4159230886,
      "osm_type": "node",
      "address": null,
      "road_geometry": null
    },
    {
      "name": "Branto \u5370\u5ea6\u7d20\u98df\u9910\u5ef3 Branto Indian Vegetarian Restaurant",
      "category": [
        "amenity.restaurant"
      ],
      "lat": 22.2968694,
      "lon": 114.1714694,
      "osm_id": 4367744290,
      "osm_type": "node",
      "address": "\u6a02\u9053 Lock Road",
      "road_geometry": null
    },
    {
      "name": "\u5c1a\u81f3\u91ab\u7642 Virtus",
      "category": [
        "amenity.clinic"
      ],
      "lat": 22.2974398,
      "lon": 114.1711842,
      "osm_id": 4375050021,
      "osm_type": "node",
      "address": "\u6f22\u53e3\u9053 Hankow Road",
      "road_geometry": null
    },
    {
      "name": "\u6f22\u53e3\u9053\u5df4\u58eb\u7e3d\u7ad9 Hankow Road Bus Terminus",
      "category": [
        "highway.bus_stop"
      ],
      "lat": 22.295345,
      "lon": 114.1712022,
      "osm_id": 4402896718,
      "osm_type": "node",
      "address": null,
      "road_geometry": null
    },
    {
      "name": "\u9ea5\u5940\u96f2\u541e\u9eb5\u4e16\u5bb6 Mak\u2019s Noodle",
      "category": [
        "amenity.restaurant"
      ],
      "lat": 22.2972905,
      "lon": 114.1714884,
      "osm_id": 4405710295,
      "osm_type": "node",
      "address": "\u6a02\u9053 Lock Road",
      "road_geometry": null
    },
    {
      "name": "Monster sushi",
      "category": [
        "amenity.restaurant"
      ],
      "lat": 22.2966324,
      "lon": 114.17181,
      "osm_id": 4540980689,
      "osm_type": "node",
      "address": null,
      "road_geometry": null
    },
    {
      "name": "\u534a\u5cf6\u9152\u5e97 The Peninsula",
      "category": [
        "highway.bus_stop"
      ],
      "lat": 22.29536,
      "lon": 114.171201,
      "osm_id": 4541756891,
      "osm_type": "node",
      "address": null,
      "road_geometry": null
    },
    {
      "name": "\u661f\u5df4\u514b Starbucks",
      "category": [
        "amenity.cafe"
      ],
      "lat": 22.2966733,
      "lon": 114.1720239,
      "osm_id": 4646626290,
      "osm_type": "node",
      "address": null,
      "road_geometry": null
    },
    {
      "name": "Canon",
      "category": [
        "shop.camera"
      ],
      "lat": 22.2973687,
      "lon": 114.171921,
      "osm_id": 4848052040,
      "osm_type": "node",
      "address": "\u5f4c\u6566\u9053 Nathan Road",
      "road_geometry": null
    },
    {
      "name": "Alive Fitness",
      "category": [
        "leisure.fitness_centre"
      ],
      "lat": 22.2973657,
      "lon": 114.1719577,
      "osm_id": 4848052041,
      "osm_type": "node",
      "address": "\u5f4c\u6566\u9053 Nathan Road",
      "road_geometry": null
    },
    {
      "name": "\u82f1\u7687\u9418\u9336\u73e0\u5bf6 Emperor Watch and Jewellry",
      "category": [
        "shop.jewelry"
      ],
      "lat": 22.2973013,
      "lon": 114.1719638,
      "osm_id": 4848052042,
      "osm_type": "node",
      "address": "\u5f4c\u6566\u9053 Nathan Road",
      "road_geometry": null
    },
    {
      "name": "\u82f1\u7687\u73e0\u5bf6 Emperor",
      "category": [
        "shop.jewelry"
      ],
      "lat": 22.297226,
      "lon": 114.1720022,
      "osm_id": 4848052043,
      "osm_type": "node",
      "address": "\u5f4c\u6566\u9053 Nathan Road",
      "road_geometry": null
    },
    {
      "name": "\u5468\u751f\u751f Chow Sang Sang",
      "category": [
        "shop.jewelry"
      ],
      "lat": 22.2970728,
      "lon": 114.1720303,
      "osm_id": 4848052044,
      "osm_type": "node",
      "address": "\u5f4c\u6566\u9053 Nathan Road",
      "road_geometry": null
    },
    {
      "name": "M&S Outlet",
      "category": [
        "shop.department_store"
      ],
      "lat": 22.2970023,
      "lon": 114.1718892,
      "osm_id": 4848052045,
      "osm_type": "node",
      "address": "\u5f4c\u6566\u9053 Nathan Road",
      "road_geometry": null
    },
    {
      "name": "\u5468\u5927\u798f Chow Tai Fook",
      "category": [
        "shop.jewelry"
      ],
      "lat": 22.2967532,
      "lon": 114.171956,
      "osm_id": 4848052046,
      "osm_type": "node",
      "address": "\u5f4c\u6566\u9053 Nathan Road",
      "road_geometry": null
    },
    {
      "name": "Ermenegildo Zegna",
      "category": [
        "shop.clothes"
      ],
      "lat": 22.2960338,
      "lon": 114.1700711,
      "osm_id": 4848128224,
      "osm_type": "node",
      "address": "\u5317\u4eac\u9053 Peking Road",
      "road_geometry": null
    },
    {
      "name": "\u5468\u5927\u798f Chow Tai Fook",
      "category": [
        "shop.jewelry"
      ],
      "lat": 22.2966219,
      "lon": 114.1720134,
      "osm_id": 4848178722,
      "osm_type": "node",
      "address": "\u5f4c\u6566\u9053 Nathan Road",
      "road_geometry": null
    },
    {
      "name": "\u9f8d\u57ce\u85e5\u599d Lung Shing Medicine",
      "category": [
        "shop.chemist"
      ],
      "lat": 22.2963713,
      "lon": 114.172063,
      "osm_id": 4848178723,
      "osm_type": "node",
      "address": null,
      "road_geometry": null
    },
    {
      "name": "Swatch",
      "category": [
        "shop.watches"
      ],
      "lat": 22.2962662,
      "lon": 114.1721058,
      "osm_id": 4848178728,
      "osm_type": "node",
      "address": "\u5f4c\u6566\u9053 Nathan Road",
      "road_geometry": null
    },
    {
      "name": "ISA",
      "category": [
        "shop.clothes"
      ],
      "lat": 22.296188,
      "lon": 114.1721087,
      "osm_id": 4848178729,
      "osm_type": "node",
      "address": "\u5f4c\u6566\u9053 Nathan Road",
      "road_geometry": null
    },
    {
      "name": "Prince",
      "category": [
        "shop.yes"
      ],
      "lat": 22.2961175,
      "lon": 114.1720686,
      "osm_id": 4848178730,
      "osm_type": "node",
      "address": "\u5f4c\u6566\u9053 Nathan Road",
      "road_geometry": null
    },
    {
      "name": "Goyard",
      "category": [
        "shop.clothes"
      ],
      "lat": 22.2953691,
      "lon": 114.1721318,
      "osm_id": 4848178731,
      "osm_type": "node",
      "address": "\u5f4c\u6566\u9053 Nathan Road",
      "road_geometry": null
    },
    {
      "name": "\u6c38\u8c50\u74b0\u7403\u5927\u85e5\u7ca7",
      "category": [
        "shop.chemist"
      ],
      "lat": 22.2962181,
      "lon": 114.1707339,
      "osm_id": 4849781084,
      "osm_type": "node",
      "address": "\u5317\u4eac\u9053 Peking Road",
      "road_geometry": null
    },
    {
      "name": "\u65b0\u6e2f\u514d\u7a05\u5927\u85e5\u574a",
      "category": [
        "shop.chemist"
      ],
      "lat": 22.2962563,
      "lon": 114.1709907,
      "osm_id": 4849781085,
      "osm_type": "node",
      "address": "\u5317\u4eac\u9053 Peking Road",
      "road_geometry": null
    },
    {
      "name": "AL Luxury",
      "category": [
        "shop.bag"
      ],
      "lat": 22.2964393,
      "lon": 114.1709428,
      "osm_id": 4849781087,
      "osm_type": "node",
      "address": "\u5317\u4eac\u9053 Peking Road",
      "road_geometry": null
    },
    {
      "name": "Adidas Originals",
      "category": [
        "shop.clothes"
      ],
      "lat": 22.2964491,
      "lon": 114.171034,
      "osm_id": 4849781088,
      "osm_type": "node",
      "address": "\u5317\u4eac\u9053 Peking Road",
      "road_geometry": null
    },
    {
      "name": "\u540c\u4ec1\u5927\u85e5\u574a Tung Yan Medicine",
      "category": [
        "shop.chemist"
      ],
      "lat": 22.2962327,
      "lon": 114.1707807,
      "osm_id": 4849804176,
      "osm_type": "node",
      "address": "\u5317\u4eac\u9053 Peking Road",
      "road_geometry": null
    },
    {
      "name": "\u7389\u6676\u5802 Cohen Optical",
      "category": [
        "shop.optician"
      ],
      "lat": 22.2962406,
      "lon": 114.1708458,
      "osm_id": 4849804177,
      "osm_type": "node",
      "address": "\u5317\u4eac\u9053 Peking Road",
      "road_geometry": null
    },
    {
      "name": "\u4e5d\u723a",
      "category": [
        "amenity.restaurant"
      ],
      "lat": 22.2966751,
      "lon": 114.171036,
      "osm_id": 4849843735,
      "osm_type": "node",
      "address": "\u6f22\u53e3\u9053 Hankow Road",
      "road_geometry": null
    },
    {
      "name": "Hello India",
      "category": [
        "amenity.restaurant"
      ],
      "lat": 22.296768,
      "lon": 114.1710025,
      "osm_id": 4849843740,
      "osm_type": "node",
      "address": "\u6f22\u53e3\u9053 Hankow Road",
      "road_geometry": null
    },
    {
      "name": "Power Jewellery",
      "category": [
        "shop.jewelry"
      ],
      "lat": 22.2967448,
      "lon": 114.1710313,
      "osm_id": 4849843741,
      "osm_type": "node",
      "address": "\u6f22\u53e3\u9053 Hankow Road",
      "road_geometry": null
    },
    {
      "name": "\u6a02\u610f\u9ede\u5fc3 Log Ye Dim Sum",
      "category": [
        "amenity.restaurant"
      ],
      "lat": 22.2968044,
      "lon": 114.1710271,
      "osm_id": 4849843742,
      "osm_type": "node",
      "address": "\u6f22\u53e3\u9053 Hankow Road",
      "road_geometry": null
    },
    {
      "name": "\u4f59\u4ec1\u5802\u514d\u7a05\u85e5\u574a",
      "category": [
        "shop.chemist"
      ],
      "lat": 22.2968609,
      "lon": 114.1710228,
      "osm_id": 4849843743,
      "osm_type": "node",
      "address": "\u6f22\u53e3\u9053 Hankow Road",
      "road_geometry": null
    },
    {
      "name": "\u6e90\u8a18\u9910\u5ef3",
      "category": [
        "amenity.restaurant"
      ],
      "lat": 22.2967775,
      "lon": 114.1710294,
      "osm_id": 4849843744,
      "osm_type": "node",
      "address": "\u6f22\u53e3\u9053 Hankow Road",
      "road_geometry": null
    },
    {
      "name": "Golf City",
      "category": [
        "shop.golf"
      ],
      "lat": 22.297113,
      "lon": 114.171004,
      "osm_id": 4849843751,
      "osm_type": "node",
      "address": "\u6f22\u53e3\u9053 Hankow Road",
      "road_geometry": null
    },
    {
      "name": "\u5317\u4eac\u540c\u4ec1\u5802 Beijing Tong Ren Tang",
      "category": [
        "shop.herbalist"
      ],
      "lat": 22.296913,
      "lon": 114.171019,
      "osm_id": 4849843754,
      "osm_type": "node",
      "address": "\u6f22\u53e3\u9053 Hankow Road",
      "road_geometry": null
    },
    {
      "name": "\u5929\u7a7a\u4e4b\u57ce\u9152\u696d Castle of Sky",
      "category": [
        "shop.alcohol"
      ],
      "lat": 22.2966359,
      "lon": 114.1710378,
      "osm_id": 4849843757,
      "osm_type": "node",
      "address": "\u6f22\u53e3\u9053 Hankow Road",
      "road_geometry": null
    },
    {
      "name": "\u9f8d\u57ce\u5927\u85e5\u574a",
      "category": [
        "shop.chemist"
      ],
      "lat": 22.2969664,
      "lon": 114.1710151,
      "osm_id": 4849843758,
      "osm_type": "node",
      "address": "\u6f22\u53e3\u9053 Hankow Road",
      "road_geometry": null
    },
    {
      "name": "\u65e5\u66ae\u5bb6\u9eb5\u5320 Higureya Menso",
      "category": [
        "amenity.restaurant"
      ],
      "lat": 22.2970773,
      "lon": 114.1708634,
      "osm_id": 4849843759,
      "osm_type": "node",
      "address": "\u5b9c\u660c\u8857 Ichang Street",
      "road_geometry": null
    },
    {
      "name": "\u9038\u58fd\u53f8",
      "category": [
        "amenity.restaurant"
      ],
      "lat": 22.2974812,
      "lon": 114.1705585,
      "osm_id": 4849843762,
      "osm_type": "node",
      "address": "\u4e9e\u58eb\u5398\u9053 Ashley Road",
      "road_geometry": null
    },
    {
      "name": "\u54af\u54af\u96de Kok Kok Chicken",
      "category": [
        "amenity.restaurant"
      ],
      "lat": 22.2972083,
      "lon": 114.1705959,
      "osm_id": 4849863691,
      "osm_type": "node",
      "address": "\u4e9e\u58eb\u5398\u9053 Ashley Road",
      "road_geometry": null
    },
    {
      "name": "\u65b9\u53d4\u53d4 Uncle Fong",
      "category": [
        "amenity.restaurant"
      ],
      "lat": 22.2966014,
      "lon": 114.1712767,
      "osm_id": 4849863692,
      "osm_type": "node",
      "address": "\u5317\u4eac\u9053 Peking Road",
      "road_geometry": null
    },
    {
      "name": "\u5eda\u5341\u4e09",
      "category": [
        "amenity.restaurant"
      ],
      "lat": 22.2965771,
      "lon": 114.1712767,
      "osm_id": 4849863693,
      "osm_type": "node",
      "address": "\u5317\u4eac\u9053 Peking Road",
      "road_geometry": null
    },
    {
      "name": "Believe",
      "category": [
        "shop.clothes"
      ],
      "lat": 22.2964965,
      "lon": 114.1714484,
      "osm_id": 4849863694,
      "osm_type": "node",
      "address": "\u5317\u4eac\u9053 Peking Road",
      "road_geometry": null
    },
    {
      "name": "\u8db3\u81e8\u9580",
      "category": [
        "shop.massage"
      ],
      "lat": 22.2968556,
      "lon": 114.1709964,
      "osm_id": 4849863695,
      "osm_type": "node",
      "address": "\u6f22\u53e3\u9053 Hankow Road",
      "road_geometry": null
    },
    {
      "name": "\u4e00\u90ce",
      "category": [
        "amenity.restaurant"
      ],
      "lat": 22.2969521,
      "lon": 114.1709219,
      "osm_id": 4849863696,
      "osm_type": "node",
      "address": "\u5b9c\u660c\u8857 Ichang Street",
      "road_geometry": null
    },
    {
      "name": "\u7f8e\u5fc3MX Maxim's MX",
      "category": [
        "amenity.fast_food"
      ],
      "lat": 22.2966419,
      "lon": 114.1712429,
      "osm_id": 4849863697,
      "osm_type": "node",
      "address": "\u5317\u4eac\u9053 Peking Road",
      "road_geometry": null
    },
    {
      "name": "Lionesse Exclusive",
      "category": [
        "shop.cosmetics"
      ],
      "lat": 22.2966844,
      "lon": 114.1712395,
      "osm_id": 4849863698,
      "osm_type": "node",
      "address": "\u6f22\u53e3\u9053 Hankow Road",
      "road_geometry": null
    },
    {
      "name": "\u677f\u795e",
      "category": [
        "amenity.restaurant"
      ],
      "lat": 22.2967286,
      "lon": 114.1712359,
      "osm_id": 4849863699,
      "osm_type": "node",
      "address": "\u6f22\u53e3\u9053 Hankow Road",
      "road_geometry": null
    },
    {
      "name": "\u9999\u6e2f\u78c1\u529b\u5171\u632f\u4e2d\u5fc3 Hong Kong MRI",
      "category": [
        "amenity.clinic"
      ],
      "lat": 22.296803,
      "lon": 114.1712285,
      "osm_id": 4849863700,
      "osm_type": "node",
      "address": "\u6f22\u53e3\u9053 Hankow Road",
      "road_geometry": null
    },
    {
      "name": "1O1O",
      "category": [
        "shop.telecommunication"
      ],
      "lat": 22.2968995,
      "lon": 114.1712215,
      "osm_id": 4849863701,
      "osm_type": "node",
      "address": "\u6f22\u53e3\u9053 Hankow Road",
      "road_geometry": null
    },
    {
      "name": "\u512a\u54c1360 Best Mart 360",
      "category": [
        "shop.convenience"
      ],
      "lat": 22.2970438,
      "lon": 114.1712115,
      "osm_id": 4849863702,
      "osm_type": "node",
      "address": "\u6f22\u53e3\u9053 Hankow Road",
      "road_geometry": null
    },
    {
      "name": "Le Creuset",
      "category": [
        "shop.houseware"
      ],
      "lat": 22.2969822,
      "lon": 114.171215,
      "osm_id": 4849863703,
      "osm_type": "node",
      "address": "\u6f22\u53e3\u9053 Hankow Road",
      "road_geometry": null
    },
    {
      "name": "\u4f4d\u5143\u5802",
      "category": [
        "shop.herbalist"
      ],
      "lat": 22.2971534,
      "lon": 114.1712038,
      "osm_id": 4849863709,
      "osm_type": "node",
      "address": "\u6f22\u53e3\u9053 Hankow Road",
      "road_geometry": null
    },
    {
      "name": "\u4e2d\u570b\u5de5\u5546\u9280\u884c\uff08\u4e9e\u6d32\uff09 ICBC (Asia)",
      "category": [
        "amenity.bank"
      ],
      "lat": 22.297331,
      "lon": 114.1711918,
      "osm_id": 4849863710,
      "osm_type": "node",
      "address": "\u6f22\u53e3\u9053 Hankow Road",
      "road_geometry": null
    },
    {
      "name": "\u7d33\u58eb\u7fe1\u7fe0 Suns Fei Cui Jade",
      "category": [
        "shop.jewelry"
      ],
      "lat": 22.2975043,
      "lon": 114.1711788,
      "osm_id": 4849863711,
      "osm_type": "node",
      "address": "\u6f22\u53e3\u9053 Hankow Road",
      "road_geometry": null
    },
    {
      "name": "MLB",
      "category": [
        "shop.clothes"
      ],
      "lat": 22.296605,
      "lon": 114.1717134,
      "osm_id": 4849887211,
      "osm_type": "node",
      "address": "\u6a02\u9053 Lock Road",
      "road_geometry": null
    },
    {
      "name": "\u963f\u56db\u5feb\u9910 Ah Say Fast Food",
      "category": [
        "amenity.fast_food"
      ],
      "lat": 22.2974225,
      "lon": 114.1714793,
      "osm_id": 4849902131,
      "osm_type": "node",
      "address": "\u6a02\u9053 Lock Road",
      "road_geometry": null
    },
    {
      "name": "\u6d77\u5929\u6f5b\u6c34 Ocean Sky Diving",
      "category": [
        "shop.scuba_diving"
      ],
      "lat": 22.2971756,
      "lon": 114.1714963,
      "osm_id": 4849902133,
      "osm_type": "node",
      "address": "\u6a02\u9053 Lock Road",
      "road_geometry": null
    },
    {
      "name": "\u6625\u8a18\u6587\u5177 Chun Kee Stationary",
      "category": [
        "shop.stationery"
      ],
      "lat": 22.2969636,
      "lon": 114.1715111,
      "osm_id": 4849902138,
      "osm_type": "node",
      "address": "\u6a02\u9053 Lock Road",
      "road_geometry": null
    },
    {
      "name": "\u6d77\u91cf\u73e0\u5bf6 Highland Jewellery",
      "category": [
        "shop.jewelry"
      ],
      "lat": 22.2967783,
      "lon": 114.1715235,
      "osm_id": 4849902142,
      "osm_type": "node",
      "address": "\u6a02\u9053 Lock Road",
      "road_geometry": null
    },
    {
      "name": "\u70af\u8a18\u71d2\u5473 Gwing Kee Roasted",
      "category": [
        "amenity.restaurant"
      ],
      "lat": 22.297348,
      "lon": 114.1714844,
      "osm_id": 4849902143,
      "osm_type": "node",
      "address": "\u6a02\u9053 Lock Road",
      "road_geometry": null
    },
    {
      "name": "7-Eleven",
      "category": [
        "shop.convenience"
      ],
      "lat": 22.2968724,
      "lon": 114.1715178,
      "osm_id": 4849902144,
      "osm_type": "node",
      "address": "\u6a02\u9053 Lock Road",
      "road_geometry": null
    },
    {
      "name": "\u9054\u9686\u85e5\u623f Tack Long Pharmacy",
      "category": [
        "amenity.pharmacy"
      ],
      "lat": 22.296918,
      "lon": 114.1715145,
      "osm_id": 4849902145,
      "osm_type": "node",
      "address": "\u6a02\u9053 Lock Road",
      "road_geometry": null
    },
    {
      "name": "\u6cf0\u6fc3\u9eb5 SiamNoodles",
      "category": [
        "amenity.restaurant"
      ],
      "lat": 22.2968258,
      "lon": 114.1715203,
      "osm_id": 4849902146,
      "osm_type": "node",
      "address": "\u6a02\u9053 Lock Road",
      "road_geometry": null
    },
    {
      "name": "\u9f8d\u8c50 Lung Fung",
      "category": [
        "shop.chemist"
      ],
      "lat": 22.2963195,
      "lon": 114.1716084,
      "osm_id": 4849905361,
      "osm_type": "node",
      "address": "\u5317\u4eac\u9053 Peking Road",
      "road_geometry": null
    },
    {
      "name": "bossini",
      "category": [
        "shop.clothes"
      ],
      "lat": 22.2963351,
      "lon": 114.171739,
      "osm_id": 4849905362,
      "osm_type": "node",
      "address": "\u5317\u4eac\u9053 Peking Road",
      "road_geometry": null
    },
    {
      "name": "\u4f50\u4e39\u5974 Giordano",
      "category": [
        "shop.clothes"
      ],
      "lat": 22.2963143,
      "lon": 114.1715591,
      "osm_id": 4849961233,
      "osm_type": "node",
      "address": "\u5317\u4eac\u9053 Peking Road",
      "road_geometry": null
    },
    {
      "name": "\u83ef\u4ec1\u5802 Hah Yan Tong",
      "category": [
        "shop.chemist"
      ],
      "lat": 22.2963014,
      "lon": 114.1714533,
      "osm_id": 4849961234,
      "osm_type": "node",
      "address": "\u5317\u4eac\u9053 Peking Road",
      "road_geometry": null
    },
    {
      "name": "\u83ef\u82d1\u6f6e\u5dde\u95a3 Wah Yuen Chiuchow Cuisine",
      "category": [
        "amenity.restaurant"
      ],
      "lat": 22.2962745,
      "lon": 114.1713901,
      "osm_id": 4849961235,
      "osm_type": "node",
      "address": "\u5317\u4eac\u9053 Peking Road",
      "road_geometry": null
    },
    {
      "name": "New Grand",
      "category": [
        "shop.jewelry"
      ],
      "lat": 22.2962959,
      "lon": 114.1714098,
      "osm_id": 4849961236,
      "osm_type": "node",
      "address": "\u5317\u4eac\u9053 Peking Road",
      "road_geometry": null
    },
    {
      "name": "Domi Luxury",
      "category": [
        "shop.bag"
      ],
      "lat": 22.2962896,
      "lon": 114.1713621,
      "osm_id": 4849961237,
      "osm_type": "node",
      "address": "\u5317\u4eac\u9053 Peking Road",
      "road_geometry": null
    },
    {
      "name": "\u591a\u9858\u97d3\u570b\u8b77\u809d\u5bf6\u5c08\u9580\u5e97 Dawon",
      "category": [
        "shop.nutrition_supplements"
      ],
      "lat": 22.2962557,
      "lon": 114.1713126,
      "osm_id": 4849961238,
      "osm_type": "node",
      "address": "\u6f22\u53e3\u9053 Hankow Road",
      "road_geometry": null
    },
    {
      "name": "7-Eleven",
      "category": [
        "shop.convenience"
      ],
      "lat": 22.296157,
      "lon": 114.171318,
      "osm_id": 4849961239,
      "osm_type": "node",
      "address": "\u6f22\u53e3\u9053 Hankow Road",
      "road_geometry": null
    },
    {
      "name": "\u6052\u751f\u9280\u884c Hang Seng Bank",
      "category": [
        "amenity.bank"
      ],
      "lat": 22.29591,
      "lon": 114.17134,
      "osm_id": 4849961245,
      "osm_type": "node",
      "address": "\u6f22\u53e3\u9053 Hankow Road",
      "road_geometry": null
    },
    {
      "name": "\u4f59\u4ec1\u751f Eu Yan Sang",
      "category": [
        "shop.herbalist"
      ],
      "lat": 22.2964912,
      "lon": 114.1714755,
      "osm_id": 4850025677,
      "osm_type": "node",
      "address": "\u5317\u4eac\u9053 Peking Road",
      "road_geometry": null
    },
    {
      "name": "ISA",
      "category": [
        "shop.jewelry"
      ],
      "lat": 22.2962195,
      "lon": 114.1710923,
      "osm_id": 4850025679,
      "osm_type": "node",
      "address": "\u6f22\u53e3\u9053 Hankow Road",
      "road_geometry": null
    },
    {
      "name": "Major Watch",
      "category": [
        "shop.watches"
      ],
      "lat": 22.2960327,
      "lon": 114.1711007,
      "osm_id": 4850025680,
      "osm_type": "node",
      "address": "\u6f22\u53e3\u9053 Hankow Road",
      "road_geometry": null
    },
    {
      "name": "Major Cellar",
      "category": [
        "shop.wine"
      ],
      "lat": 22.2959989,
      "lon": 114.1711081,
      "osm_id": 4850025681,
      "osm_type": "node",
      "address": "\u6f22\u53e3\u9053 Hankow Road",
      "road_geometry": null
    },
    {
      "name": "Tony Jewellery",
      "category": [
        "shop.jewelry"
      ],
      "lat": 22.2959449,
      "lon": 114.1710995,
      "osm_id": 4850025682,
      "osm_type": "node",
      "address": "\u6f22\u53e3\u9053 Hankow Road",
      "road_geometry": null
    },
    {
      "name": "Prince Fashion",
      "category": [
        "shop.clothes"
      ],
      "lat": 22.2955858,
      "lon": 114.1708818,
      "osm_id": 4850025684,
      "osm_type": "node",
      "address": "\u4e2d\u9593\u9053 Middle Road",
      "road_geometry": null
    },
    {
      "name": "Fortune Time Watch Co. Ltd.",
      "category": [
        "shop.jewelry"
      ],
      "lat": 22.2956016,
      "lon": 114.1708088,
      "osm_id": 4850025685,
      "osm_type": "node",
      "address": "\u4e9e\u58eb\u5398\u9053 Ashley Road",
      "road_geometry": null
    },
    {
      "name": "\u6fb3\u9580\u8336\u9910\u5ef3",
      "category": [
        "amenity.restaurant"
      ],
      "lat": 22.2968294,
      "lon": 114.1717496,
      "osm_id": 4892003721,
      "osm_type": "node",
      "address": null,
      "road_geometry": null
    },
    {
      "name": "\u795e\u5c71\u9eb5\u5c4b Kanzan Menya",
      "category": [
        "amenity.restaurant"
      ],
      "lat": 22.2964332,
      "lon": 114.1708872,
      "osm_id": 4930301821,
      "osm_type": "node",
      "address": null,
      "road_geometry": null
    },
    {
      "name": "\u9ad8\u7403\u57ce Super Golf",
      "category": [
        "shop.golf"
      ],
      "lat": 22.2974632,
      "lon": 114.1711827,
      "osm_id": 5037252092,
      "osm_type": "node",
      "address": null,
      "road_geometry": null
    },
    {
      "name": "\u5357\u6d77\u4e00\u865f Nanhai No.1",
      "category": [
        "amenity.restaurant"
      ],
      "lat": 22.2972449,
      "lon": 114.1718391,
      "osm_id": 5151262024,
      "osm_type": "node",
      "address": "\u5f4c\u6566\u9053 Nathan Road",
      "road_geometry": null
    },
    {
      "name": "Ned Kelly's Last Stand",
      "category": [
        "amenity.pub"
      ],
      "lat": 22.2968403,
      "lon": 114.1704763,
      "osm_id": 5158969223,
      "osm_type": "node",
      "address": "\u4e9e\u58eb\u5398\u9053 Ashley Road",
      "road_geometry": null
    },
    {
      "name": "\u9738\u738b\u5ddd\u838a Sichuan House",
      "category": [
        "amenity.restaurant"
      ],
      "lat": 22.2972129,
      "lon": 114.1717283,
      "osm_id": 5158972021,
      "osm_type": "node",
      "address": "\u5f4c\u6566\u9053 Nathan Road",
      "road_geometry": null
    },
    {
      "name": "eyebar",
      "category": [
        "amenity.bar"
      ],
      "lat": 22.2972536,
      "lon": 114.1718998,
      "osm_id": 5172662735,
      "osm_type": "node",
      "address": "\u5f4c\u6566\u9053 Nathan Road",
      "road_geometry": null
    },
    {
      "name": "Jollibee",
      "category": [
        "amenity.fast_food"
      ],
      "lat": 22.2963059,
      "lon": 114.1714919,
      "osm_id": 5358797021,
      "osm_type": "node",
      "address": "\u5317\u4eac\u9053 Peking Road",
      "road_geometry": null
    },
    {
      "name": "\u4f59\u5143\u5802\u514d\u7a05\u5927\u85e5\u574a",
      "category": [
        "shop.chemist"
      ],
      "lat": 22.29564,
      "lon": 114.1711,
      "osm_id": 5985217949,
      "osm_type": "node",
      "address": null,
      "road_geometry": null
    },
    {
      "name": "\u82f1\u8a18\u8336\u838a Ying Kee Tea House",
      "category": [
        "shop.tea"
      ],
      "lat": 22.2969468,
      "lon": 114.1708705,
      "osm_id": 6144322985,
      "osm_type": "node",
      "address": "\u5b9c\u660c\u8857 Ichang Street",
      "road_geometry": null
    },
    {
      "name": "\u6eec\u6c5f\u98ef\u5e97 Wu Kong Shanghai Restaurant",
      "category": [
        "amenity.restaurant"
      ],
      "lat": 22.2963643,
      "lon": 114.1719966,
      "osm_id": 6176025486,
      "osm_type": "node",
      "address": null,
      "road_geometry": null
    },
    {
      "name": "iSquare",
      "category": [
        "railway.subway_entrance"
      ],
      "lat": 22.2967793,
      "lon": 114.1720724,
      "osm_id": 6309071633,
      "osm_type": "node",
      "address": null,
      "road_geometry": null
    },
    {
      "name": "iSQUARE",
      "category": [
        "railway.subway_entrance"
      ],
      "lat": 22.2973076,
      "lon": 114.1720366,
      "osm_id": 6309071634,
      "osm_type": "node",
      "address": "\u5f4c\u6566\u9053 Nathan Road",
      "road_geometry": null
    },
    {
      "name": "Mariane Jewellery",
      "category": [
        "shop.jewelry"
      ],
      "lat": 22.29615,
      "lon": 114.1710749,
      "osm_id": 6369725485,
      "osm_type": "node",
      "address": null,
      "road_geometry": null
    },
    {
      "name": "Fila",
      "category": [
        "shop.clothes"
      ],
      "lat": 22.296608,
      "lon": 114.1717708,
      "osm_id": 6371599589,
      "osm_type": "node",
      "address": null,
      "road_geometry": null
    },
    {
      "name": "\u5f69\u798f\u7687\u5bb4 Choi Fook Royal Banquet",
      "category": [
        "amenity.restaurant"
      ],
      "lat": 22.2972213,
      "lon": 114.1718455,
      "osm_id": 6937454527,
      "osm_type": "node",
      "address": "\u5f4c\u6566\u9053 Nathan Road",
      "road_geometry": null
    },
    {
      "name": "Castro's",
      "category": [
        "amenity.restaurant"
      ],
      "lat": 22.2970633,
      "lon": 114.1706139,
      "osm_id": 6973008386,
      "osm_type": "node",
      "address": null,
      "road_geometry": null
    },
    {
      "name": "\u5c16\u6c99\u5480\u4e2d\u9593\u9053 Middle Road Tsim Sha Tsui",
      "category": [
        "highway.bus_stop"
      ],
      "lat": 22.2959688,
      "lon": 114.1721674,
      "osm_id": 7054435554,
      "osm_type": "node",
      "address": null,
      "road_geometry": null
    },
    {
      "name": "\u5927\u5feb\u6d3b Fairwood",
      "category": [
        "amenity.fast_food"
      ],
      "lat": 22.2965239,
      "lon": 114.1704952,
      "osm_id": 7176920185,
      "osm_type": "node",
      "address": "\u4e9e\u58eb\u5398\u9053 Ashley Road",
      "road_geometry": null
    },
    {
      "name": "\u540d\u5bb6\u97d3\u570b\u9910\u5ef3 Myung Ga Korean Restaurant",
      "category": [
        "amenity.restaurant"
      ],
      "lat": 22.2971937,
      "lon": 114.1719503,
      "osm_id": 7257866551,
      "osm_type": "node",
      "address": "\u5f4c\u6566\u9053 Nathan Road",
      "road_geometry": null
    },
    {
      "name": "\u82f1\u7687\u6232\u9662 Emperor Cinemas",
      "category": [
        "amenity.cinema"
      ],
      "lat": 22.2969368,
      "lon": 114.1718423,
      "osm_id": 7258073825,
      "osm_type": "node",
      "address": "\u5f4c\u6566\u9053 Nathan Road",
      "road_geometry": null
    },
    {
      "name": "\u5317\u4eac\u9053 Peking Road",
      "category": [
        "highway.bus_stop"
      ],
      "lat": 22.2958167,
      "lon": 114.1705064,
      "osm_id": 8140840214,
      "osm_type": "node",
      "address": null,
      "road_geometry": null
    },
    {
      "name": "Gaylord",
      "category": [
        "amenity.restaurant"
      ],
      "lat": 22.2965812,
      "lon": 114.171295,
      "osm_id": 10814277806,
      "osm_type": "node",
      "address": "\u5317\u4eac\u9053 Peking Road",
      "road_geometry": null
    },
    {
      "name": "\u54c1\u5473\u6599\u7406 V&B Cuisine",
      "category": [
        "amenity.restaurant"
      ],
      "lat": 22.297514,
      "lon": 114.171473,
      "osm_id": 10880215918,
      "osm_type": "node",
      "address": "\u6a02\u9053 Lock Road",
      "road_geometry": null
    },
    {
      "name": "\u592a\u5b50\u73e0\u5bf6\u9418\u9336 Prince Jewellery & Watch",
      "category": [
        "shop.jewelry"
      ],
      "lat": 22.296479,
      "lon": 114.1713084,
      "osm_id": 10880215920,
      "osm_type": "node",
      "address": "\u5317\u4eac\u9053 Peking Road",
      "road_geometry": null
    },
    {
      "name": "\u4f86\u4e00\u71d9\u5192\u83dc\u9ebb\u8fa3\u71d9",
      "category": [
        "amenity.restaurant"
      ],
      "lat": 22.2964951,
      "lon": 114.1715091,
      "osm_id": 10880215921,
      "osm_type": "node",
      "address": null,
      "road_geometry": null
    },
    {
      "name": "\u9280\u8a18\u9999\u6e2f\u50b3\u7d71\u7f8e\u98df Hong Kong Traditional Food",
      "category": [
        "amenity.fast_food"
      ],
      "lat": 22.296545,
      "lon": 114.1715395,
      "osm_id": 10880215922,
      "osm_type": "node",
      "address": null,
      "road_geometry": null
    },
    {
      "name": "Brand Station",
      "category": [
        "shop.bag"
      ],
      "lat": 22.2965911,
      "lon": 114.1715364,
      "osm_id": 10880215923,
      "osm_type": "node",
      "address": "\u6a02\u9053 Lock Road",
      "road_geometry": null
    },
    {
      "name": "\u9999\u6e2f\u8cfc\u7269\u4e2d\u5fc3 HK Shopping Centre",
      "category": [
        "shop.bag"
      ],
      "lat": 22.2966372,
      "lon": 114.1715332,
      "osm_id": 10880215924,
      "osm_type": "node",
      "address": "\u6a02\u9053 Lock Road",
      "road_geometry": null
    },
    {
      "name": "\u6cf0\u9bae\u5473 Thai Umami",
      "category": [
        "amenity.fast_food"
      ],
      "lat": 22.2964989,
      "lon": 114.1715427,
      "osm_id": 10880215925,
      "osm_type": "node",
      "address": null,
      "road_geometry": null
    },
    {
      "name": "Garmin",
      "category": [
        "shop.sports"
      ],
      "lat": 22.2967308,
      "lon": 114.1715268,
      "osm_id": 10880215926,
      "osm_type": "node",
      "address": null,
      "road_geometry": null
    },
    {
      "name": "FIT24 Fitness",
      "category": [
        "leisure.fitness_centre"
      ],
      "lat": 22.2975115,
      "lon": 114.1716386,
      "osm_id": 10880215928,
      "osm_type": "node",
      "address": "\u5f4c\u6566\u9053 Nathan Road",
      "road_geometry": null
    },
    {
      "name": "\u725b\u54c1\u53f0\u5f0f\u706b\u934b Beef Bang Taiwanese Hot Pot",
      "category": [
        "amenity.restaurant"
      ],
      "lat": 22.2974115,
      "lon": 114.1716454,
      "osm_id": 10880215929,
      "osm_type": "node",
      "address": "\u6a02\u9053 Lock Road",
      "road_geometry": null
    },
    {
      "name": "\u6625\u967d\u8336\u4e8b Chun Yang Tea",
      "category": [
        "shop.beverages"
      ],
      "lat": 22.2974448,
      "lon": 114.1716431,
      "osm_id": 10880215930,
      "osm_type": "node",
      "address": "\u6a02\u9053 Lock Road",
      "road_geometry": null
    },
    {
      "name": "\u82b1\u6591\u8336\u793e A Boutea",
      "category": [
        "shop.beverages"
      ],
      "lat": 22.2974782,
      "lon": 114.1716409,
      "osm_id": 10880215931,
      "osm_type": "node",
      "address": "\u6a02\u9053 Lock Road",
      "road_geometry": null
    },
    {
      "name": "\u661f\u947d\u9418\u9336 Tick Time Company",
      "category": [
        "shop.watches"
      ],
      "lat": 22.2971786,
      "lon": 114.1709995,
      "osm_id": 10880216060,
      "osm_type": "node",
      "address": "\u6f22\u53e3\u9053 Hankow Road",
      "road_geometry": null
    },
    {
      "name": "\u540d\u661f\u9ad8\u723e\u592b Star Golf",
      "category": [
        "shop.golf"
      ],
      "lat": 22.2971458,
      "lon": 114.1710017,
      "osm_id": 10880216061,
      "osm_type": "node",
      "address": "\u6f22\u53e3\u9053 Hankow Road",
      "road_geometry": null
    },
    {
      "name": "Foot Locker",
      "category": [
        "shop.shoes"
      ],
      "lat": 22.2964044,
      "lon": 114.170511,
      "osm_id": 10880216123,
      "osm_type": "node",
      "address": "\u4e9e\u58eb\u5398\u9053 Ashley Road",
      "road_geometry": null
    },
    {
      "name": "Crispi Bun",
      "category": [
        "amenity.restaurant"
      ],
      "lat": 22.2965836,
      "lon": 114.1704872,
      "osm_id": 10880216124,
      "osm_type": "node",
      "address": "\u4e9e\u58eb\u5398\u9053 Ashley Road",
      "road_geometry": null
    },
    {
      "name": "\u4e5d\u9f8d\u516c\u5712\u5f91 Kowloon Park Drive",
      "category": [
        "highway.bus_stop"
      ],
      "lat": 22.296045,
      "lon": 114.170213,
      "osm_id": 11027194659,
      "osm_type": "node",
      "address": null,
      "road_geometry": null
    },
    {
      "name": "\u4e2d\u9593\u9053 Middle Road",
      "category": [
        "highway.bus_stop"
      ],
      "lat": 22.2961099,
      "lon": 114.1721702,
      "osm_id": 11264857232,
      "osm_type": "node",
      "address": null,
      "road_geometry": null
    },
    {
      "name": "\u8857\u982d\u9738\u738b",
      "category": [
        "amenity.restaurant"
      ],
      "lat": 22.2969397,
      "lon": 114.1710172,
      "osm_id": 11397441369,
      "osm_type": "node",
      "address": null,
      "road_geometry": null
    },
    {
      "name": "\u5f69\u8588\u8ed2 Joyous Gate",
      "category": [
        "amenity.restaurant"
      ],
      "lat": 22.2972328,
      "lon": 114.171951,
      "osm_id": 11397442569,
      "osm_type": "node",
      "address": "\u5f4c\u6566\u9053 Nathan Road",
      "road_geometry": null
    },
    {
      "name": "\u6d77\u6e2f\u8588-\u5c16\u6c99\u5480\u5e97",
      "category": [
        "amenity.restaurant"
      ],
      "lat": 22.2960563,
      "lon": 114.1700228,
      "osm_id": 11747591371,
      "osm_type": "node",
      "address": null,
      "road_geometry": null
    },
    {
      "name": "\u56cd\u8588",
      "category": [
        "amenity.restaurant"
      ],
      "lat": 22.296097,
      "lon": 114.170038,
      "osm_id": 11747591372,
      "osm_type": "node",
      "address": null,
      "road_geometry": null
    },
    {
      "name": "Always U (cryptocurrency exchange)",
      "category": [
        "amenity.bureau_de_change"
      ],
      "lat": 22.2958733,
      "lon": 114.1710809,
      "osm_id": 12488154937,
      "osm_type": "node",
      "address": null,
      "road_geometry": null
    },
    {
      "name": "The Ashley Road Trading Company",
      "category": [
        "amenity.pub"
      ],
      "lat": 22.2969113,
      "lon": 114.1704663,
      "osm_id": 12716726133,
      "osm_type": "node",
      "address": "\u4e9e\u58eb\u5398\u9053 Ashley Road",
      "road_geometry": null
    }
  ]
}