{
  "image": "dataset/images/506.png",
  "center_lat": 22.300900900900892,
  "center_lon": 114.17582302449595,
  "bbox": [
    114.1746058687655,
    22.299774774774765,
    114.17704018022641,
    22.302027027027016
  ],
  "unique_categories": [
    "shop.tailor",
    "shop.yes",
    "amenity.restaurant",
    "shop.deli",
    "amenity.cafe",
    "shop.supermarket",
    "shop.hairdresser",
    "shop.locksmith",
    "shop.convenience",
    "highway.bus_stop",
    "shop.sports",
    "shop.beverages",
    "shop.clothes",
    "amenity.bureau_de_change",
    "shop.shoes",
    "amenity.music_school",
    "shop.beauty",
    "shop.pastry",
    "shop.bakery",
    "shop.tattoo",
    "shop.car",
    "amenity.bar",
    "shop.dry_cleaning",
    "shop.jewelry"
  ],
  "poi_count_per_category": {
    "shop.tailor": 1,
    "shop.yes": 5,
    "amenity.restaurant": 19,
    "shop.deli": 1,
    "amenity.cafe": 5,
    "shop.supermarket": 1,
    "shop.hairdresser": 1,
    "shop.locksmith": 1,
    "shop.convenience": 4,
    "highway.bus_stop": 12,
    "shop.sports": 1,
    "shop.beverages": 1,
    "shop.clothes": 19,
    "amenity.bureau_de_change": 1,
    "shop.shoes": 2,
    "amenity.music_school": 1,
    "shop.beauty": 4,
    "shop.pastry": 1,
    "shop.bakery": 1,
    "shop.tattoo": 1,
    "shop.car": 2,
    "amenity.bar": 1,
    "shop.dry_cleaning": 1,
    "shop.jewelry": 1
  },
  "poi_count": 87,
  "pois": [
    {
      "name": "\u60e0\u5eb7 Wellcome",
      "category": [
        "shop.supermarket"
      ],
      "lat": 22.3010084,
      "lon": 114.1746581,
      "osm_id": 2208339281,
      "osm_type": "node",
      "address": null,
      "road_geometry": null
    },
    {
      "name": "7-Eleven",
      "category": [
        "shop.convenience"
      ],
      "lat": 22.3018245,
      "lon": 114.1754598,
      "osm_id": 2209285899,
      "osm_type": "node",
      "address": null,
      "road_geometry": null
    },
    {
      "name": "Pelican Bay",
      "category": [
        "amenity.bar"
      ],
      "lat": 22.3014729,
      "lon": 114.1747629,
      "osm_id": 3495692464,
      "osm_type": "node",
      "address": null,
      "road_geometry": null
    },
    {
      "name": "7-Eleven",
      "category": [
        "shop.convenience"
      ],
      "lat": 22.300996,
      "lon": 114.1759503,
      "osm_id": 3914318592,
      "osm_type": "node",
      "address": null,
      "road_geometry": null
    },
    {
      "name": "\u798f\u81e8\u9580 Fook Lam Moon",
      "category": [
        "amenity.restaurant"
      ],
      "lat": 22.3010389,
      "lon": 114.1747322,
      "osm_id": 4265712389,
      "osm_type": "node",
      "address": "\u91d1\u5df4\u5229\u9053 Kimberley Road",
      "road_geometry": null
    },
    {
      "name": "\u91d1\u5fb7\u5927\u5ec8 Golden Mansion",
      "category": [
        "highway.bus_stop"
      ],
      "lat": 22.3010651,
      "lon": 114.1762818,
      "osm_id": 4402847937,
      "osm_type": "node",
      "address": null,
      "road_geometry": null
    },
    {
      "name": "\u9999\u6e2f\u79d1\u5b78\u9928 Hong Kong Science Museum",
      "category": [
        "highway.bus_stop"
      ],
      "lat": 22.3010257,
      "lon": 114.1765088,
      "osm_id": 4402847939,
      "osm_type": "node",
      "address": null,
      "road_geometry": null
    },
    {
      "name": "\u52a0\u9023\u5a01\u8001\u9053 Granville Road",
      "category": [
        "highway.bus_stop"
      ],
      "lat": 22.3000243,
      "lon": 114.1759432,
      "osm_id": 4520748588,
      "osm_type": "node",
      "address": null,
      "road_geometry": null
    },
    {
      "name": "Marouf Coffee",
      "category": [
        "amenity.cafe"
      ],
      "lat": 22.3010682,
      "lon": 114.1756994,
      "osm_id": 4826373821,
      "osm_type": "node",
      "address": "\u5929\u6587\u81fa\u9053 Observatory Road",
      "road_geometry": null
    },
    {
      "name": "Nine Kee Chiu Chow Restaurant",
      "category": [
        "amenity.restaurant"
      ],
      "lat": 22.3000357,
      "lon": 114.1758784,
      "osm_id": 4848408990,
      "osm_type": "node",
      "address": "\u6f06\u54b8\u9053\u5357 Chatham Road South",
      "road_geometry": null
    },
    {
      "name": "Pie & Tart Specialists",
      "category": [
        "shop.bakery"
      ],
      "lat": 22.3006408,
      "lon": 114.1760599,
      "osm_id": 4848408992,
      "osm_type": "node",
      "address": "\u6f06\u54b8\u9053\u5357 Chatham Road South",
      "road_geometry": null
    },
    {
      "name": "Audi",
      "category": [
        "shop.car"
      ],
      "lat": 22.3007439,
      "lon": 114.1760772,
      "osm_id": 4848408993,
      "osm_type": "node",
      "address": "\u5929\u6587\u81fa\u9053 Observatory Road",
      "road_geometry": null
    },
    {
      "name": "Victoria Wedding",
      "category": [
        "shop.clothes"
      ],
      "lat": 22.3009872,
      "lon": 114.1761585,
      "osm_id": 4848408995,
      "osm_type": "node",
      "address": "\u6f06\u54b8\u9053\u5357 Chatham Road South",
      "road_geometry": null
    },
    {
      "name": "Lojel",
      "category": [
        "shop.yes"
      ],
      "lat": 22.3012439,
      "lon": 114.176296,
      "osm_id": 4848408996,
      "osm_type": "node",
      "address": "\u6f06\u54b8\u9053\u5357 Chatham Road South",
      "road_geometry": null
    },
    {
      "name": "ICE FIRE",
      "category": [
        "shop.clothes"
      ],
      "lat": 22.3014591,
      "lon": 114.1763875,
      "osm_id": 4848408997,
      "osm_type": "node",
      "address": "\u6f06\u54b8\u9053\u5357 Chatham Road South",
      "road_geometry": null
    },
    {
      "name": "\u4e09\u9910\u51b0\u5ba4 Sam Chaan Cafe",
      "category": [
        "amenity.cafe"
      ],
      "lat": 22.3016573,
      "lon": 114.1763911,
      "osm_id": 4848408998,
      "osm_type": "node",
      "address": "\u6f06\u54b8\u9053\u5357 Chatham Road South",
      "road_geometry": null
    },
    {
      "name": "Gennie's Maternity",
      "category": [
        "shop.clothes"
      ],
      "lat": 22.3018242,
      "lon": 114.1764491,
      "osm_id": 4848408999,
      "osm_type": "node",
      "address": "\u6f06\u54b8\u9053\u5357 Chatham Road South",
      "road_geometry": null
    },
    {
      "name": "Spread",
      "category": [
        "shop.yes"
      ],
      "lat": 22.3018885,
      "lon": 114.1764854,
      "osm_id": 4848409000,
      "osm_type": "node",
      "address": "\u6f06\u54b8\u9053\u5357 Chatham Road South",
      "road_geometry": null
    },
    {
      "name": "Perfect Tan Max",
      "category": [
        "shop.beauty"
      ],
      "lat": 22.3019271,
      "lon": 114.1764978,
      "osm_id": 4848409001,
      "osm_type": "node",
      "address": "\u6f06\u54b8\u9053\u5357 Chatham Road South",
      "road_geometry": null
    },
    {
      "name": "Danieleslie",
      "category": [
        "shop.clothes"
      ],
      "lat": 22.3012055,
      "lon": 114.1750088,
      "osm_id": 4850542038,
      "osm_type": "node",
      "address": "\u91d1\u5df4\u5229\u9053 Kimberley Road",
      "road_geometry": null
    },
    {
      "name": "Vogue",
      "category": [
        "shop.clothes"
      ],
      "lat": 22.3011513,
      "lon": 114.1749366,
      "osm_id": 4850542039,
      "osm_type": "node",
      "address": "\u91d1\u5df4\u5229\u9053 Kimberley Road",
      "road_geometry": null
    },
    {
      "name": "Venice Sauna",
      "category": [
        "shop.beauty"
      ],
      "lat": 22.3012162,
      "lon": 114.1749431,
      "osm_id": 4850542040,
      "osm_type": "node",
      "address": "\u5929\u6587\u81fa\u9053 Observatory Road",
      "road_geometry": null
    },
    {
      "name": "\u5357\ub300\u9580\u97d3\u570b\u6599\u7406 Namdaemoon",
      "category": [
        "amenity.restaurant"
      ],
      "lat": 22.3013371,
      "lon": 114.1750749,
      "osm_id": 4850542041,
      "osm_type": "node",
      "address": "\u5929\u6587\u81fa\u9053 Observatory Road",
      "road_geometry": null
    },
    {
      "name": "VIVI Bride",
      "category": [
        "shop.clothes"
      ],
      "lat": 22.3012094,
      "lon": 114.1752444,
      "osm_id": 4850542042,
      "osm_type": "node",
      "address": "\u5929\u6587\u81fa\u9053 Observatory Road",
      "road_geometry": null
    },
    {
      "name": "Demone",
      "category": [
        "shop.clothes"
      ],
      "lat": 22.3011898,
      "lon": 114.1752994,
      "osm_id": 4850542043,
      "osm_type": "node",
      "address": "\u5929\u6587\u81fa\u9053 Observatory Road",
      "road_geometry": null
    },
    {
      "name": "Nail Queen",
      "category": [
        "shop.beauty"
      ],
      "lat": 22.3011856,
      "lon": 114.1753096,
      "osm_id": 4850542044,
      "osm_type": "node",
      "address": "\u5929\u6587\u81fa\u9053 Observatory Road",
      "road_geometry": null
    },
    {
      "name": "Kimberly Bridal",
      "category": [
        "shop.clothes"
      ],
      "lat": 22.3011657,
      "lon": 114.1753636,
      "osm_id": 4850542045,
      "osm_type": "node",
      "address": "\u5929\u6587\u81fa\u9053 Observatory Road",
      "road_geometry": null
    },
    {
      "name": "\u516b \u5c45\u9152\u5c4b 8 Izakaya Yakitori",
      "category": [
        "amenity.restaurant"
      ],
      "lat": 22.301126,
      "lon": 114.1755176,
      "osm_id": 4850542046,
      "osm_type": "node",
      "address": "\u5929\u6587\u81fa\u9053 Observatory Road",
      "road_geometry": null
    },
    {
      "name": "8Five2 Restobar",
      "category": [
        "amenity.restaurant"
      ],
      "lat": 22.3010926,
      "lon": 114.1756205,
      "osm_id": 4850542047,
      "osm_type": "node",
      "address": "\u5929\u6587\u81fa\u9053 Observatory Road",
      "road_geometry": null
    },
    {
      "name": "\u5927\u696d\u7389\u5668\u516c\u53f8 Chu's Jade Manufacturer",
      "category": [
        "shop.jewelry"
      ],
      "lat": 22.3006733,
      "lon": 114.1754612,
      "osm_id": 4850592324,
      "osm_type": "node",
      "address": "\u91d1\u5df4\u5229\u8857 Kimberley Street",
      "road_geometry": null
    },
    {
      "name": "Gagahoho",
      "category": [
        "amenity.restaurant"
      ],
      "lat": 22.3006532,
      "lon": 114.1753808,
      "osm_id": 4850592325,
      "osm_type": "node",
      "address": "\u91d1\u5df4\u5229\u8857 Kimberley Street",
      "road_geometry": null
    },
    {
      "name": "Korea Mart",
      "category": [
        "shop.convenience"
      ],
      "lat": 22.3006272,
      "lon": 114.1752733,
      "osm_id": 4850592326,
      "osm_type": "node",
      "address": "\u91d1\u5df4\u5229\u8857 Kimberley Street",
      "road_geometry": null
    },
    {
      "name": "Oppa Coffee Bar",
      "category": [
        "amenity.restaurant"
      ],
      "lat": 22.3006017,
      "lon": 114.1751619,
      "osm_id": 4850592327,
      "osm_type": "node",
      "address": "\u91d1\u5df4\u5229\u8857 Kimberley Street",
      "road_geometry": null
    },
    {
      "name": "Miami Dry Cleaning & Laundry Co.",
      "category": [
        "shop.dry_cleaning"
      ],
      "lat": 22.3005652,
      "lon": 114.1750304,
      "osm_id": 4850592328,
      "osm_type": "node",
      "address": "\u91d1\u5df4\u5229\u8857 Kimberley Street",
      "road_geometry": null
    },
    {
      "name": "Shun Tai Ling Houseware & Grocery",
      "category": [
        "shop.convenience"
      ],
      "lat": 22.3005567,
      "lon": 114.1749684,
      "osm_id": 4850592329,
      "osm_type": "node",
      "address": "\u91d1\u5df4\u5229\u8857 Kimberley Street",
      "road_geometry": null
    },
    {
      "name": "Han Spoon",
      "category": [
        "amenity.restaurant"
      ],
      "lat": 22.3004966,
      "lon": 114.1747653,
      "osm_id": 4850592330,
      "osm_type": "node",
      "address": "\u91d1\u5df4\u5229\u8857 Kimberley Street",
      "road_geometry": null
    },
    {
      "name": "Tycoons Caf\u00e9",
      "category": [
        "amenity.cafe"
      ],
      "lat": 22.3004638,
      "lon": 114.1746422,
      "osm_id": 4850592331,
      "osm_type": "node",
      "address": "\u91d1\u5df4\u5229\u8857 Kimberley Street",
      "road_geometry": null
    },
    {
      "name": "Phaya",
      "category": [
        "shop.clothes"
      ],
      "lat": 22.3002419,
      "lon": 114.174683,
      "osm_id": 4850604446,
      "osm_type": "node",
      "address": "\u52a0\u9023\u5a01\u8001\u9053 Granville Road",
      "road_geometry": null
    },
    {
      "name": "\u9999\u69ad\u7ad9 MM Station",
      "category": [
        "shop.clothes"
      ],
      "lat": 22.3002333,
      "lon": 114.1746497,
      "osm_id": 4850604447,
      "osm_type": "node",
      "address": "\u52a0\u9023\u5a01\u8001\u9053 Granville Road",
      "road_geometry": null
    },
    {
      "name": "\u6b47\u8173\u4ead Sharetea",
      "category": [
        "shop.beverages"
      ],
      "lat": 22.3002583,
      "lon": 114.1747484,
      "osm_id": 4850604449,
      "osm_type": "node",
      "address": "\u52a0\u9023\u5a01\u8001\u9053 Granville Road",
      "road_geometry": null
    },
    {
      "name": "\u5df4\u8fa3\u4ed4",
      "category": [
        "amenity.restaurant"
      ],
      "lat": 22.3002005,
      "lon": 114.1752637,
      "osm_id": 4850604450,
      "osm_type": "node",
      "address": "\u52a0\u9023\u5a01\u8001\u9053 Granville Road",
      "road_geometry": null
    },
    {
      "name": "Valerie",
      "category": [
        "shop.pastry"
      ],
      "lat": 22.3003036,
      "lon": 114.1749314,
      "osm_id": 4850604451,
      "osm_type": "node",
      "address": "\u52a0\u9023\u5a01\u8001\u9053 Granville Road",
      "road_geometry": null
    },
    {
      "name": "Loading..",
      "category": [
        "shop.clothes"
      ],
      "lat": 22.3003305,
      "lon": 114.1749715,
      "osm_id": 4850604452,
      "osm_type": "node",
      "address": "\u52a0\u9023\u5a01\u8001\u9053 Granville Road",
      "road_geometry": null
    },
    {
      "name": "Alena",
      "category": [
        "shop.clothes"
      ],
      "lat": 22.3003165,
      "lon": 114.1749821,
      "osm_id": 4850604453,
      "osm_type": "node",
      "address": "\u52a0\u9023\u5a01\u8001\u9053 Granville Road",
      "road_geometry": null
    },
    {
      "name": "Parkland",
      "category": [
        "amenity.music_school"
      ],
      "lat": 22.3003836,
      "lon": 114.1753082,
      "osm_id": 4850604454,
      "osm_type": "node",
      "address": "\u52a0\u9023\u5a01\u8001\u9053 Granville Road",
      "road_geometry": null
    },
    {
      "name": "Bed Head",
      "category": [
        "shop.yes"
      ],
      "lat": 22.3003969,
      "lon": 114.1753712,
      "osm_id": 4850604455,
      "osm_type": "node",
      "address": "\u52a0\u9023\u5a01\u8001\u9053 Granville Road",
      "road_geometry": null
    },
    {
      "name": "5.11",
      "category": [
        "shop.clothes"
      ],
      "lat": 22.3004193,
      "lon": 114.175447,
      "osm_id": 4850604456,
      "osm_type": "node",
      "address": "\u52a0\u9023\u5a01\u8001\u9053 Granville Road",
      "road_geometry": null
    },
    {
      "name": "Noble Station",
      "category": [
        "shop.clothes"
      ],
      "lat": 22.3004516,
      "lon": 114.1755689,
      "osm_id": 4850604457,
      "osm_type": "node",
      "address": "\u52a0\u9023\u5a01\u8001\u9053 Granville Road",
      "road_geometry": null
    },
    {
      "name": "vomFASS",
      "category": [
        "shop.deli"
      ],
      "lat": 22.3004544,
      "lon": 114.1755842,
      "osm_id": 4850604458,
      "osm_type": "node",
      "address": "\u52a0\u9023\u5a01\u8001\u9053 Granville Road",
      "road_geometry": null
    },
    {
      "name": "The Jason's",
      "category": [
        "shop.yes"
      ],
      "lat": 22.3004833,
      "lon": 114.1756862,
      "osm_id": 4850604459,
      "osm_type": "node",
      "address": "\u52a0\u9023\u5a01\u8001\u9053 Granville Road",
      "road_geometry": null
    },
    {
      "name": "Tee Hair Salon",
      "category": [
        "shop.hairdresser"
      ],
      "lat": 22.3004754,
      "lon": 114.1758037,
      "osm_id": 4850604460,
      "osm_type": "node",
      "address": "\u52a0\u9023\u5a01\u8001\u9053 Granville Road",
      "road_geometry": null
    },
    {
      "name": "Kam Cheong Emporium Co.",
      "category": [
        "shop.locksmith"
      ],
      "lat": 22.3005499,
      "lon": 114.1759042,
      "osm_id": 4850604461,
      "osm_type": "node",
      "address": "\u52a0\u9023\u5a01\u8001\u9053 Granville Road",
      "road_geometry": null
    },
    {
      "name": "Grove",
      "category": [
        "amenity.restaurant"
      ],
      "lat": 22.3004895,
      "lon": 114.1760416,
      "osm_id": 4850604462,
      "osm_type": "node",
      "address": "\u52a0\u9023\u5a01\u8001\u9053 Granville Road",
      "road_geometry": null
    },
    {
      "name": "Dabeer",
      "category": [
        "shop.tailor"
      ],
      "lat": 22.300813,
      "lon": 114.1746912,
      "osm_id": 4850730435,
      "osm_type": "node",
      "address": "\u91d1\u5df4\u5229\u9053 Kimberley Road",
      "road_geometry": null
    },
    {
      "name": "Wing Lee Company",
      "category": [
        "shop.yes"
      ],
      "lat": 22.3006536,
      "lon": 114.1746428,
      "osm_id": 4850730443,
      "osm_type": "node",
      "address": "\u91d1\u5df4\u5229\u8857 Kimberley Street",
      "road_geometry": null
    },
    {
      "name": "6ixty8ight",
      "category": [
        "shop.clothes"
      ],
      "lat": 22.3000537,
      "lon": 114.1746999,
      "osm_id": 4850730447,
      "osm_type": "node",
      "address": "\u52a0\u9023\u5a01\u8001\u9053 Granville Road",
      "road_geometry": null
    },
    {
      "name": "Maple",
      "category": [
        "shop.clothes"
      ],
      "lat": 22.3000383,
      "lon": 114.1746357,
      "osm_id": 4850730448,
      "osm_type": "node",
      "address": "\u52a0\u9023\u5a01\u8001\u9053 Granville Road",
      "road_geometry": null
    },
    {
      "name": "\u91d1\u51e1\u6f6e\u6c55\u83dc",
      "category": [
        "amenity.restaurant"
      ],
      "lat": 22.3000746,
      "lon": 114.1747825,
      "osm_id": 4850730449,
      "osm_type": "node",
      "address": "\u52a0\u9023\u5a01\u8001\u9053 Granville Road",
      "road_geometry": null
    },
    {
      "name": "YA",
      "category": [
        "amenity.restaurant"
      ],
      "lat": 22.3001801,
      "lon": 114.1751854,
      "osm_id": 4850740325,
      "osm_type": "node",
      "address": "\u52a0\u9023\u5a01\u8001\u9053 Granville Road",
      "road_geometry": null
    },
    {
      "name": "Alena",
      "category": [
        "shop.clothes"
      ],
      "lat": 22.3002077,
      "lon": 114.1752921,
      "osm_id": 4850740326,
      "osm_type": "node",
      "address": "\u52a0\u9023\u5a01\u8001\u9053 Granville Road",
      "road_geometry": null
    },
    {
      "name": "Apex",
      "category": [
        "shop.shoes"
      ],
      "lat": 22.3002294,
      "lon": 114.1753485,
      "osm_id": 4850740327,
      "osm_type": "node",
      "address": "\u52a0\u9023\u5a01\u8001\u9053 Granville Road",
      "road_geometry": null
    },
    {
      "name": "Starcrossed Tattoo",
      "category": [
        "shop.tattoo"
      ],
      "lat": 22.3002381,
      "lon": 114.175369,
      "osm_id": 4850740328,
      "osm_type": "node",
      "address": "\u52a0\u9023\u5a01\u8001\u9053 Granville Road",
      "road_geometry": null
    },
    {
      "name": "Under Wear",
      "category": [
        "shop.clothes"
      ],
      "lat": 22.3002458,
      "lon": 114.175399,
      "osm_id": 4850740329,
      "osm_type": "node",
      "address": "\u52a0\u9023\u5a01\u8001\u9053 Granville Road",
      "road_geometry": null
    },
    {
      "name": "Indonesia Restaurant",
      "category": [
        "amenity.restaurant"
      ],
      "lat": 22.3002545,
      "lon": 114.1754252,
      "osm_id": 4850740330,
      "osm_type": "node",
      "address": "\u52a0\u9023\u5a01\u8001\u9053 Granville Road",
      "road_geometry": null
    },
    {
      "name": "Kay",
      "category": [
        "shop.clothes"
      ],
      "lat": 22.3002562,
      "lon": 114.1754898,
      "osm_id": 4850740331,
      "osm_type": "node",
      "address": "\u52a0\u9023\u5a01\u8001\u9053 Granville Road",
      "road_geometry": null
    },
    {
      "name": "S. Two",
      "category": [
        "shop.shoes"
      ],
      "lat": 22.3002736,
      "lon": 114.1755272,
      "osm_id": 4850740336,
      "osm_type": "node",
      "address": "\u52a0\u9023\u5a01\u8001\u9053 Granville Road",
      "road_geometry": null
    },
    {
      "name": "HKIT",
      "category": [
        "shop.sports"
      ],
      "lat": 22.3004382,
      "lon": 114.1755271,
      "osm_id": 6766910185,
      "osm_type": "node",
      "address": "\u52a0\u9023\u5a01\u8001\u9053 Granville Road",
      "road_geometry": null
    },
    {
      "name": "\u8a31\u6c0f\u5144\u5f1f",
      "category": [
        "amenity.bureau_de_change"
      ],
      "lat": 22.3005924,
      "lon": 114.1759733,
      "osm_id": 6926725733,
      "osm_type": "node",
      "address": null,
      "road_geometry": null
    },
    {
      "name": "Poke Go",
      "category": [
        "amenity.restaurant"
      ],
      "lat": 22.3009356,
      "lon": 114.1761312,
      "osm_id": 10096313690,
      "osm_type": "node",
      "address": "\u6f06\u54b8\u9053\u5357 Chatham Road South",
      "road_geometry": null
    },
    {
      "name": "\u52a0\u9023\u5a01\u8001\u9053 Granville Road",
      "category": [
        "highway.bus_stop"
      ],
      "lat": 22.2998904,
      "lon": 114.1759058,
      "osm_id": 10289782594,
      "osm_type": "node",
      "address": null,
      "road_geometry": null
    },
    {
      "name": "\u52a0\u9023\u5a01\u8001\u9053 Granville Road",
      "category": [
        "highway.bus_stop"
      ],
      "lat": 22.3000521,
      "lon": 114.175951,
      "osm_id": 10289782595,
      "osm_type": "node",
      "address": null,
      "road_geometry": null
    },
    {
      "name": "\u52a0\u9023\u5a01\u8001\u9053 Granville Road",
      "category": [
        "highway.bus_stop"
      ],
      "lat": 22.3001355,
      "lon": 114.1759743,
      "osm_id": 10289782596,
      "osm_type": "node",
      "address": null,
      "road_geometry": null
    },
    {
      "name": "\u52a0\u9023\u5a01\u8001\u9053 Granville Road",
      "category": [
        "highway.bus_stop"
      ],
      "lat": 22.2999687,
      "lon": 114.1759277,
      "osm_id": 10289782597,
      "osm_type": "node",
      "address": null,
      "road_geometry": null
    },
    {
      "name": "\u9999\u6e2f\u79d1\u5b78\u9928 Hong Kong Science Museum",
      "category": [
        "highway.bus_stop"
      ],
      "lat": 22.3018332,
      "lon": 114.1765212,
      "osm_id": 10291747448,
      "osm_type": "node",
      "address": null,
      "road_geometry": null
    },
    {
      "name": "\u9999\u6e2f\u79d1\u5b78\u9928 Hong Kong Science Museum",
      "category": [
        "highway.bus_stop"
      ],
      "lat": 22.3014313,
      "lon": 114.1763826,
      "osm_id": 10291747451,
      "osm_type": "node",
      "address": null,
      "road_geometry": null
    },
    {
      "name": "\u9999\u6e2f\u79d1\u5b78\u9928 Hong Kong Science Museum",
      "category": [
        "highway.bus_stop"
      ],
      "lat": 22.301367,
      "lon": 114.1763605,
      "osm_id": 10291747452,
      "osm_type": "node",
      "address": null,
      "road_geometry": null
    },
    {
      "name": "\u9999\u6e2f\u79d1\u5b78\u9928 Hong Kong Science Museum",
      "category": [
        "highway.bus_stop"
      ],
      "lat": 22.3010236,
      "lon": 114.176508,
      "osm_id": 10786630469,
      "osm_type": "node",
      "address": null,
      "road_geometry": null
    },
    {
      "name": "\u9999\u6e2f\u79d1\u5b78\u9928 Hong Kong Science Museum",
      "category": [
        "highway.bus_stop"
      ],
      "lat": 22.3010281,
      "lon": 114.1765097,
      "osm_id": 10786630472,
      "osm_type": "node",
      "address": null,
      "road_geometry": null
    },
    {
      "name": "Shari Shari \u6c37\u5c4b Kakigori House",
      "category": [
        "amenity.cafe"
      ],
      "lat": 22.3011508,
      "lon": 114.1762306,
      "osm_id": 11072756792,
      "osm_type": "node",
      "address": "\u6f06\u54b8\u9053\u5357 Chatham Road South",
      "road_geometry": null
    },
    {
      "name": "Doner Kebab Turkish Food",
      "category": [
        "amenity.restaurant"
      ],
      "lat": 22.3019576,
      "lon": 114.1753532,
      "osm_id": 12207103301,
      "osm_type": "node",
      "address": null,
      "road_geometry": null
    },
    {
      "name": "Samso Korean Restaurant",
      "category": [
        "amenity.restaurant"
      ],
      "lat": 22.300965,
      "lon": 114.1760256,
      "osm_id": 12454443675,
      "osm_type": "node",
      "address": null,
      "road_geometry": null
    },
    {
      "name": "Mood Coffee",
      "category": [
        "amenity.cafe"
      ],
      "lat": 22.3009473,
      "lon": 114.1760839,
      "osm_id": 12454443677,
      "osm_type": "node",
      "address": null,
      "road_geometry": null
    },
    {
      "name": "BYD",
      "category": [
        "shop.car"
      ],
      "lat": 22.3012982,
      "lon": 114.1762768,
      "osm_id": 12454443678,
      "osm_type": "node",
      "address": null,
      "road_geometry": null
    },
    {
      "name": "La Vista",
      "category": [
        "amenity.restaurant"
      ],
      "lat": 22.3010819,
      "lon": 114.1756583,
      "osm_id": 12599716599,
      "osm_type": "node",
      "address": null,
      "road_geometry": null
    },
    {
      "name": "Red Chicken",
      "category": [
        "amenity.restaurant"
      ],
      "lat": 22.3013605,
      "lon": 114.1749825,
      "osm_id": 12923063531,
      "osm_type": "node",
      "address": "\u91d1\u5df4\u5229\u9053 Kimberley Road",
      "road_geometry": null
    },
    {
      "name": "\u6f22\u57ce Han Sung",
      "category": [
        "amenity.restaurant"
      ],
      "lat": 22.3018977,
      "lon": 114.175494,
      "osm_id": 12923066071,
      "osm_type": "node",
      "address": "\u91d1\u5df4\u5229\u9053 Kimberley Road",
      "road_geometry": null
    },
    {
      "name": "Soulaud Beauty",
      "category": [
        "shop.beauty"
      ],
      "lat": 22.300419,
      "lon": 114.1746109,
      "osm_id": 12943337242,
      "osm_type": "node",
      "address": "\u91d1\u5df4\u5229\u8857 Kimberley Street",
      "road_geometry": null
    }
  ]
}