{
  "image": "dataset/images/549.png",
  "center_lat": 41.00788288288289,
  "center_lon": 28.976415132119595,
  "bbox": [
    28.97492284738145,
    41.006756756756765,
    28.97790741685774,
    41.00900900900902
  ],
  "unique_categories": [
    "shop.books",
    "shop.musical_instrument",
    "amenity.restaurant",
    "shop.gift",
    "amenity.cafe",
    "amenity.vending_machine",
    "tourism.hostel",
    "amenity.public_bath",
    "shop.art",
    "shop.carpet",
    "leisure.park",
    "amenity.ice_cream",
    "amenity.atm",
    "shop.convenience",
    "highway.bus_stop",
    "amenity.gallery",
    "shop.travel_agency",
    "shop.kiosk",
    "tourism.hotel",
    "shop.clothes",
    "amenity.bureau_de_change",
    "amenity.pub",
    "shop.craft",
    "amenity.post_office",
    "tourism.attraction",
    "shop.furniture",
    "shop.carpet_store",
    "amenity.community_centre",
    "amenity.pharmacy",
    "amenity.library",
    "leisure.sauna",
    "railway.tram_stop",
    "amenity.bench",
    "leisure.turkish_bath",
    "shop.jewelry"
  ],
  "poi_count_per_category": {
    "shop.books": 1,
    "shop.musical_instrument": 1,
    "amenity.restaurant": 46,
    "shop.gift": 2,
    "amenity.cafe": 11,
    "amenity.vending_machine": 1,
    "tourism.hostel": 1,
    "amenity.public_bath": 2,
    "shop.art": 2,
    "shop.carpet": 2,
    "leisure.park": 1,
    "amenity.ice_cream": 1,
    "amenity.atm": 13,
    "shop.convenience": 5,
    "highway.bus_stop": 1,
    "amenity.gallery": 1,
    "shop.travel_agency": 7,
    "shop.kiosk": 1,
    "tourism.hotel": 16,
    "shop.clothes": 3,
    "amenity.bureau_de_change": 2,
    "amenity.pub": 3,
    "shop.craft": 3,
    "amenity.post_office": 2,
    "tourism.attraction": 1,
    "shop.furniture": 1,
    "shop.carpet_store": 1,
    "amenity.community_centre": 1,
    "amenity.pharmacy": 2,
    "amenity.library": 6,
    "leisure.sauna": 1,
    "railway.tram_stop": 2,
    "amenity.bench": 2,
    "leisure.turkish_bath": 2,
    "shop.jewelry": 1
  },
  "poi_count": 146,
  "pois": [
    {
      "name": "T\u00fcrkiye Bankasi",
      "category": [
        "amenity.atm"
      ],
      "lat": 41.0076346,
      "lon": 28.9774411,
      "osm_id": 415158577,
      "osm_type": "node",
      "address": null,
      "road_geometry": null
    },
    {
      "name": "SAH BAR",
      "category": [
        "amenity.pub"
      ],
      "lat": 41.0082746,
      "lon": 28.9765837,
      "osm_id": 1864126223,
      "osm_type": "node",
      "address": "Divanyolu Caddesi, incilivavus Cik.",
      "road_geometry": null
    },
    {
      "name": "Everest Yay\u0131nlar\u0131",
      "category": [
        "shop.books"
      ],
      "lat": 41.0086913,
      "lon": 28.9759305,
      "osm_id": 1912245510,
      "osm_type": "node",
      "address": "Ticarethane Sokak",
      "road_geometry": null
    },
    {
      "name": "Grand Bazaar Jewelers",
      "category": [
        "shop.jewelry"
      ],
      "lat": 41.0087517,
      "lon": 28.9756599,
      "osm_id": 2538075883,
      "osm_type": "node",
      "address": "Divanyolu Caddesi",
      "road_geometry": null
    },
    {
      "name": "istanbul enjoyer",
      "category": [
        "amenity.restaurant"
      ],
      "lat": 41.0081919,
      "lon": 28.9768644,
      "osm_id": 3090816364,
      "osm_type": "node",
      "address": null,
      "road_geometry": null
    },
    {
      "name": "K\u00fc\u00e7\u00fck Ev",
      "category": [
        "amenity.cafe"
      ],
      "lat": 41.0082605,
      "lon": 28.9767967,
      "osm_id": 3090853852,
      "osm_type": "node",
      "address": null,
      "road_geometry": null
    },
    {
      "name": "Masal",
      "category": [
        "amenity.restaurant"
      ],
      "lat": 41.0082304,
      "lon": 28.9765667,
      "osm_id": 3090853854,
      "osm_type": "node",
      "address": null,
      "road_geometry": null
    },
    {
      "name": "Palmiye",
      "category": [
        "amenity.restaurant"
      ],
      "lat": 41.0081218,
      "lon": 28.9775091,
      "osm_id": 3090853857,
      "osm_type": "node",
      "address": null,
      "road_geometry": null
    },
    {
      "name": "Sultanahmet",
      "category": [
        "railway.tram_stop"
      ],
      "lat": 41.0080972,
      "lon": 28.9755138,
      "osm_id": 3282349639,
      "osm_type": "node",
      "address": null,
      "road_geometry": null
    },
    {
      "name": "Sultanahmet",
      "category": [
        "railway.tram_stop"
      ],
      "lat": 41.0081113,
      "lon": 28.9755143,
      "osm_id": 3282349640,
      "osm_type": "node",
      "address": null,
      "road_geometry": null
    },
    {
      "name": "The North Shield Pub",
      "category": [
        "amenity.pub"
      ],
      "lat": 41.0089076,
      "lon": 28.9769555,
      "osm_id": 3452205896,
      "osm_type": "node",
      "address": null,
      "road_geometry": null
    },
    {
      "name": "Sultan Pub",
      "category": [
        "amenity.pub"
      ],
      "lat": 41.0079849,
      "lon": 28.9774114,
      "osm_id": 3457985526,
      "osm_type": "node",
      "address": null,
      "road_geometry": null
    },
    {
      "name": "Sultan Saray",
      "category": [
        "amenity.restaurant"
      ],
      "lat": 41.0085084,
      "lon": 28.9752131,
      "osm_id": 3499040568,
      "osm_type": "node",
      "address": null,
      "road_geometry": null
    },
    {
      "name": "Ayasofya Eczanesi",
      "category": [
        "amenity.pharmacy"
      ],
      "lat": 41.0081387,
      "lon": 28.9759936,
      "osm_id": 3749601843,
      "osm_type": "node",
      "address": null,
      "road_geometry": null
    },
    {
      "name": "Garanti Bankas\u0131",
      "category": [
        "amenity.atm"
      ],
      "lat": 41.0076456,
      "lon": 28.9774568,
      "osm_id": 3749802284,
      "osm_type": "node",
      "address": null,
      "road_geometry": null
    },
    {
      "name": "Akbank",
      "category": [
        "amenity.atm"
      ],
      "lat": 41.0076543,
      "lon": 28.9774711,
      "osm_id": 3749802285,
      "osm_type": "node",
      "address": null,
      "road_geometry": null
    },
    {
      "name": "Karadeniz",
      "category": [
        "amenity.restaurant"
      ],
      "lat": 41.0084807,
      "lon": 28.9750561,
      "osm_id": 4419254702,
      "osm_type": "node",
      "address": null,
      "road_geometry": null
    },
    {
      "name": "Aras (scam place)",
      "category": [
        "amenity.restaurant"
      ],
      "lat": 41.0082844,
      "lon": 28.9755302,
      "osm_id": 4425687570,
      "osm_type": "node",
      "address": null,
      "road_geometry": null
    },
    {
      "name": "Ambassador",
      "category": [
        "tourism.hotel"
      ],
      "lat": 41.008368,
      "lon": 28.9759852,
      "osm_id": 4607420714,
      "osm_type": "node",
      "address": "Divanyolu Ticarethane Sokak",
      "road_geometry": null
    },
    {
      "name": "Nomade Hotel",
      "category": [
        "tourism.hotel"
      ],
      "lat": 41.0083523,
      "lon": 28.9762756,
      "osm_id": 4623531590,
      "osm_type": "node",
      "address": null,
      "road_geometry": null
    },
    {
      "name": "Denizbank",
      "category": [
        "amenity.atm"
      ],
      "lat": 41.0081387,
      "lon": 28.9756045,
      "osm_id": 4747710924,
      "osm_type": "node",
      "address": null,
      "road_geometry": null
    },
    {
      "name": "Akbank",
      "category": [
        "amenity.atm"
      ],
      "lat": 41.0081404,
      "lon": 28.9755559,
      "osm_id": 4747710925,
      "osm_type": "node",
      "address": null,
      "road_geometry": null
    },
    {
      "name": "ING",
      "category": [
        "amenity.atm"
      ],
      "lat": 41.0081404,
      "lon": 28.9755749,
      "osm_id": 4747734122,
      "osm_type": "node",
      "address": null,
      "road_geometry": null
    },
    {
      "name": "Tarihi Sultanahmet K\u00f6ftecisi Selim Usta",
      "category": [
        "amenity.restaurant"
      ],
      "lat": 41.008003,
      "lon": 28.9769669,
      "osm_id": 4790800225,
      "osm_type": "node",
      "address": "Divanyolu Caddesi",
      "road_geometry": null
    },
    {
      "name": "Cihannuma",
      "category": [
        "amenity.restaurant"
      ],
      "lat": 41.0085551,
      "lon": 28.977766,
      "osm_id": 4816553622,
      "osm_type": "node",
      "address": "Yerebatan Caddesi",
      "road_geometry": null
    },
    {
      "name": "zakka",
      "category": [
        "shop.gift"
      ],
      "lat": 41.0081469,
      "lon": 28.9754631,
      "osm_id": 4838893428,
      "osm_type": "node",
      "address": null,
      "road_geometry": null
    },
    {
      "name": "Massa Bistro Turkish Kitchen",
      "category": [
        "amenity.restaurant"
      ],
      "lat": 41.0085928,
      "lon": 28.975164,
      "osm_id": 4990485221,
      "osm_type": "node",
      "address": "Bi\u00e7ki Yurdu Soka\u011f\u0131",
      "road_geometry": null
    },
    {
      "name": "Tan Otel",
      "category": [
        "tourism.hotel"
      ],
      "lat": 41.0087305,
      "lon": 28.9752939,
      "osm_id": 5108843030,
      "osm_type": "node",
      "address": "Dr. Eminpa\u015fa Sokak",
      "road_geometry": null
    },
    {
      "name": "Karadeniz Restaurant",
      "category": [
        "amenity.restaurant"
      ],
      "lat": 41.0084606,
      "lon": 28.9752761,
      "osm_id": 5108843032,
      "osm_type": "node",
      "address": "Doktor Eminpa\u015fa Soka\u011f\u0131",
      "road_geometry": null
    },
    {
      "name": "Arsenal Cafe and Restaurant",
      "category": [
        "amenity.restaurant"
      ],
      "lat": 41.0084483,
      "lon": 28.9754256,
      "osm_id": 5108843033,
      "osm_type": "node",
      "address": "Dr. Eminpa\u015fa Sokak",
      "road_geometry": null
    },
    {
      "name": "Arsenal Hotel",
      "category": [
        "tourism.hotel"
      ],
      "lat": 41.0083876,
      "lon": 28.9754892,
      "osm_id": 5108843034,
      "osm_type": "node",
      "address": "Dr. Eminpa\u015fa Sokak",
      "road_geometry": null
    },
    {
      "name": "Sultan Ahmet Hamami",
      "category": [
        "amenity.public_bath",
        "leisure.turkish_bath"
      ],
      "lat": 41.0084062,
      "lon": 28.9755675,
      "osm_id": 5108843035,
      "osm_type": "node",
      "address": "Dr. Eminpa\u015fa Sokak",
      "road_geometry": null
    },
    {
      "name": "Blue Bath",
      "category": [
        "amenity.public_bath",
        "leisure.turkish_bath"
      ],
      "lat": 41.0083615,
      "lon": 28.9755675,
      "osm_id": 5108843036,
      "osm_type": "node",
      "address": "Dr. Eminpa\u015fa Sokak",
      "road_geometry": null
    },
    {
      "name": "ESRA SULTAN PETROL HOTEL",
      "category": [
        "tourism.hotel"
      ],
      "lat": 41.0082333,
      "lon": 28.975549,
      "osm_id": 5108843037,
      "osm_type": "node",
      "address": "Dr. Eminpa\u015fa Sokak",
      "road_geometry": null
    },
    {
      "name": "Vak\u0131fbank",
      "category": [
        "amenity.atm"
      ],
      "lat": 41.0081443,
      "lon": 28.9755259,
      "osm_id": 5108843038,
      "osm_type": "node",
      "address": "Divan Yolu Caddesi",
      "road_geometry": null
    },
    {
      "name": "T\u00fcrkiye \u0130\u015f Bankas\u0131",
      "category": [
        "amenity.atm"
      ],
      "lat": 41.0081655,
      "lon": 28.9755414,
      "osm_id": 5108843039,
      "osm_type": "node",
      "address": "Divan Yolu Caddesi",
      "road_geometry": null
    },
    {
      "name": "Denizbank",
      "category": [
        "amenity.atm"
      ],
      "lat": 41.0081347,
      "lon": 28.9755809,
      "osm_id": 5108843040,
      "osm_type": "node",
      "address": "Divan Yolu Caddesi",
      "road_geometry": null
    },
    {
      "name": "Four Seasons",
      "category": [
        "shop.travel_agency"
      ],
      "lat": 41.0081697,
      "lon": 28.9757172,
      "osm_id": 5108843041,
      "osm_type": "node",
      "address": "Divan Yolu Caddesi",
      "road_geometry": null
    },
    {
      "name": "Bosphorus Tours",
      "category": [
        "shop.travel_agency"
      ],
      "lat": 41.0081545,
      "lon": 28.9756494,
      "osm_id": 5108843042,
      "osm_type": "node",
      "address": "Divan Yolu Caddesi",
      "road_geometry": null
    },
    {
      "name": "Arkent Doviz",
      "category": [
        "amenity.bureau_de_change"
      ],
      "lat": 41.0081838,
      "lon": 28.9757767,
      "osm_id": 5108843043,
      "osm_type": "node",
      "address": "Divan Yolu Caddesi",
      "road_geometry": null
    },
    {
      "name": "\u0130BO CRUISE and TOURS",
      "category": [
        "shop.travel_agency"
      ],
      "lat": 41.0081211,
      "lon": 28.9758821,
      "osm_id": 5108843044,
      "osm_type": "node",
      "address": "Divan Yolu Caddesi",
      "road_geometry": null
    },
    {
      "name": "Eczane Ayasofya",
      "category": [
        "amenity.pharmacy"
      ],
      "lat": 41.0081693,
      "lon": 28.9759197,
      "osm_id": 5108843045,
      "osm_type": "node",
      "address": "Divan Yolu Caddesi",
      "road_geometry": null
    },
    {
      "name": "Sultanahmet Halkin Koftecisi",
      "category": [
        "amenity.restaurant"
      ],
      "lat": 41.0081518,
      "lon": 28.9758841,
      "osm_id": 5108843046,
      "osm_type": "node",
      "address": "Divan Yolu Caddesi",
      "road_geometry": null
    },
    {
      "name": "Mado",
      "category": [
        "amenity.cafe"
      ],
      "lat": 41.0081087,
      "lon": 28.9760254,
      "osm_id": 5108843047,
      "osm_type": "node",
      "address": "Divanyolu Caddesi",
      "road_geometry": null
    },
    {
      "name": "Firuz Aga Restaurant",
      "category": [
        "amenity.restaurant"
      ],
      "lat": 41.0081212,
      "lon": 28.9760831,
      "osm_id": 5108843048,
      "osm_type": "node",
      "address": "Divan Yolu Caddesi",
      "road_geometry": null
    },
    {
      "name": "Change Office",
      "category": [
        "amenity.bureau_de_change"
      ],
      "lat": 41.0080914,
      "lon": 28.9761536,
      "osm_id": 5108843050,
      "osm_type": "node",
      "address": "Divan Yolu Caddesi",
      "road_geometry": null
    },
    {
      "name": "Semazen Cafe and Restaurant",
      "category": [
        "amenity.restaurant"
      ],
      "lat": 41.0081302,
      "lon": 28.9762758,
      "osm_id": 5108843051,
      "osm_type": "node",
      "address": "Ticarethane Sokak",
      "road_geometry": null
    },
    {
      "name": "Hotel Million Old City",
      "category": [
        "tourism.hotel"
      ],
      "lat": 41.0082848,
      "lon": 28.9761032,
      "osm_id": 5108843052,
      "osm_type": "node",
      "address": "Ticarethane Sokak",
      "road_geometry": null
    },
    {
      "name": "Cantas Yayinlari",
      "category": [
        "amenity.library"
      ],
      "lat": 41.0082495,
      "lon": 28.976102,
      "osm_id": 5108843053,
      "osm_type": "node",
      "address": "Ticarethane Sokak",
      "road_geometry": null
    },
    {
      "name": "Istanbul Hotels Nomade",
      "category": [
        "tourism.hotel"
      ],
      "lat": 41.0083232,
      "lon": 28.9761259,
      "osm_id": 5108843054,
      "osm_type": "node",
      "address": "Ticarethane Sokak",
      "road_geometry": null
    },
    {
      "name": "The Ambassador Hotel",
      "category": [
        "tourism.hotel"
      ],
      "lat": 41.0083949,
      "lon": 28.9758852,
      "osm_id": 5108843055,
      "osm_type": "node",
      "address": "Ticarethane Sokak",
      "road_geometry": null
    },
    {
      "name": "Ta\u015fk\u0131n Giyim Beyaz Aslan",
      "category": [
        "shop.clothes"
      ],
      "lat": 41.0083855,
      "lon": 28.9759908,
      "osm_id": 5108843056,
      "osm_type": "node",
      "address": "Ticarethane Sokak",
      "road_geometry": null
    },
    {
      "name": "Nar Steak ve Doner Kebab Restaurant",
      "category": [
        "amenity.restaurant"
      ],
      "lat": 41.0084527,
      "lon": 28.9761034,
      "osm_id": 5108843057,
      "osm_type": "node",
      "address": "Ticarethane Sokak",
      "road_geometry": null
    },
    {
      "name": "Harabbe Cafe",
      "category": [
        "amenity.cafe"
      ],
      "lat": 41.0084375,
      "lon": 28.9761921,
      "osm_id": 5108843058,
      "osm_type": "node",
      "address": "Ticarethane Sokak",
      "road_geometry": null
    },
    {
      "name": "Khorasani Restaurant",
      "category": [
        "amenity.restaurant"
      ],
      "lat": 41.008548,
      "lon": 28.9760744,
      "osm_id": 5108843059,
      "osm_type": "node",
      "address": "Ticarethane Sokak",
      "road_geometry": null
    },
    {
      "name": "Semazen Restaurant",
      "category": [
        "amenity.restaurant"
      ],
      "lat": 41.0086618,
      "lon": 28.9759816,
      "osm_id": 5108843060,
      "osm_type": "node",
      "address": "Ticarethane Sokak",
      "road_geometry": null
    },
    {
      "name": "Sura Design Hotel and Suites",
      "category": [
        "tourism.hotel"
      ],
      "lat": 41.0086121,
      "lon": 28.9759195,
      "osm_id": 5108843061,
      "osm_type": "node",
      "address": "Ticarethane Sokak",
      "road_geometry": null
    },
    {
      "name": "Sura Restaurant",
      "category": [
        "amenity.restaurant"
      ],
      "lat": 41.0087207,
      "lon": 28.9758638,
      "osm_id": 5108843062,
      "osm_type": "node",
      "address": "Ticarethane Sokak",
      "road_geometry": null
    },
    {
      "name": "N Terrace Restaurant",
      "category": [
        "amenity.restaurant"
      ],
      "lat": 41.0087087,
      "lon": 28.9758893,
      "osm_id": 5108843063,
      "osm_type": "node",
      "address": "Ticarethane Sokak",
      "road_geometry": null
    },
    {
      "name": "Dilek ve Bora tak\u0131 tasar\u0131m\u0131",
      "category": [
        "shop.craft"
      ],
      "lat": 41.0087952,
      "lon": 28.9752676,
      "osm_id": 5108843064,
      "osm_type": "node",
      "address": "Ticarethane Sokak",
      "road_geometry": null
    },
    {
      "name": "Enjoyer cafe correcto Restaurant",
      "category": [
        "amenity.restaurant"
      ],
      "lat": 41.0089648,
      "lon": 28.9755708,
      "osm_id": 5108843065,
      "osm_type": "node",
      "address": "Ticarethane Sokak",
      "road_geometry": null
    },
    {
      "name": "Meydan Market",
      "category": [
        "shop.convenience"
      ],
      "lat": 41.0089511,
      "lon": 28.9754514,
      "osm_id": 5108843066,
      "osm_type": "node",
      "address": "\u00c7atal\u00e7e\u015fme Sokak",
      "road_geometry": null
    },
    {
      "name": "Shop Market",
      "category": [
        "shop.convenience"
      ],
      "lat": 41.0089974,
      "lon": 28.9757186,
      "osm_id": 5108843073,
      "osm_type": "node",
      "address": "Ticarethane Sokak",
      "road_geometry": null
    },
    {
      "name": "Deraliye Ottoman Cuisine Restaurant",
      "category": [
        "amenity.restaurant"
      ],
      "lat": 41.0088429,
      "lon": 28.9759095,
      "osm_id": 5108843074,
      "osm_type": "node",
      "address": "Ticarethane Sokak",
      "road_geometry": null
    },
    {
      "name": "Sura Hagia Sophia Hotel and Spa",
      "category": [
        "tourism.hotel"
      ],
      "lat": 41.0087202,
      "lon": 28.9761783,
      "osm_id": 5108843075,
      "osm_type": "node",
      "address": "Ticarethane Sokak",
      "road_geometry": null
    },
    {
      "name": "NAR restaurant",
      "category": [
        "amenity.restaurant"
      ],
      "lat": 41.0085912,
      "lon": 28.9761089,
      "osm_id": 5108843076,
      "osm_type": "node",
      "address": "Ticarethane Sokak",
      "road_geometry": null
    },
    {
      "name": "Buyulu Fener Yayinlari",
      "category": [
        "amenity.library"
      ],
      "lat": 41.0084683,
      "lon": 28.9763645,
      "osm_id": 5108843077,
      "osm_type": "node",
      "address": "Ticarethane Sokak",
      "road_geometry": null
    },
    {
      "name": "Million Restaurant",
      "category": [
        "amenity.restaurant"
      ],
      "lat": 41.0083292,
      "lon": 28.9762902,
      "osm_id": 5108843078,
      "osm_type": "node",
      "address": "Ticarethane Sokak",
      "road_geometry": null
    },
    {
      "name": "Mozaik Cafe and Restaurant",
      "category": [
        "amenity.restaurant"
      ],
      "lat": 41.0082715,
      "lon": 28.9763915,
      "osm_id": 5108843079,
      "osm_type": "node",
      "address": "Ticarethane Sokak",
      "road_geometry": null
    },
    {
      "name": "Rumeli Cafe Restaurant",
      "category": [
        "amenity.restaurant"
      ],
      "lat": 41.0083099,
      "lon": 28.976387,
      "osm_id": 5108843080,
      "osm_type": "node",
      "address": "\u0130ncili \u00c7avu\u015f Sokak",
      "road_geometry": null
    },
    {
      "name": "Kucuk Ev Cafe and Restaurant",
      "category": [
        "amenity.restaurant"
      ],
      "lat": 41.0082677,
      "lon": 28.9764928,
      "osm_id": 5108843081,
      "osm_type": "node",
      "address": "\u0130ncili \u00c7avu\u015f Sokak",
      "road_geometry": null
    },
    {
      "name": "Fazilet Nesriyat",
      "category": [
        "amenity.library"
      ],
      "lat": 41.0082916,
      "lon": 28.9767362,
      "osm_id": 5108843082,
      "osm_type": "node",
      "address": "\u0130ncili \u00c7avu\u015f Sokak",
      "road_geometry": null
    },
    {
      "name": "Masal Restaurant",
      "category": [
        "amenity.restaurant"
      ],
      "lat": 41.0083358,
      "lon": 28.9769019,
      "osm_id": 5108843083,
      "osm_type": "node",
      "address": "\u0130ncili \u00c7avu\u015f Sokak",
      "road_geometry": null
    },
    {
      "name": "Casa Pedro",
      "category": [
        "shop.clothes"
      ],
      "lat": 41.0082341,
      "lon": 28.9774002,
      "osm_id": 5108843084,
      "osm_type": "node",
      "address": "\u0130ncili \u00c7avu\u015f Sokak",
      "road_geometry": null
    },
    {
      "name": "G\u00fcven Market",
      "category": [
        "shop.convenience"
      ],
      "lat": 41.0082425,
      "lon": 28.9771667,
      "osm_id": 5108843085,
      "osm_type": "node",
      "address": "\u0130ncili \u00c7avu\u015f Sokak",
      "road_geometry": null
    },
    {
      "name": "Pride Travel Istanbul",
      "category": [
        "shop.travel_agency"
      ],
      "lat": 41.0082629,
      "lon": 28.9772302,
      "osm_id": 5108843086,
      "osm_type": "node",
      "address": "\u0130ncili \u00c7avu\u015f Sokak",
      "road_geometry": null
    },
    {
      "name": "Ares Hotel Sultanahmet",
      "category": [
        "tourism.hotel"
      ],
      "lat": 41.0082952,
      "lon": 28.9772392,
      "osm_id": 5108843087,
      "osm_type": "node",
      "address": "\u0130ncili \u00c7avu\u015f Sokak",
      "road_geometry": null
    },
    {
      "name": "Bodrum Cafe and Restaurant",
      "category": [
        "amenity.restaurant"
      ],
      "lat": 41.008222,
      "lon": 28.9773126,
      "osm_id": 5108843088,
      "osm_type": "node",
      "address": "\u015eeftali Sokak",
      "road_geometry": null
    },
    {
      "name": "Dubb Indian Restaurant",
      "category": [
        "amenity.restaurant"
      ],
      "lat": 41.0081859,
      "lon": 28.9771238,
      "osm_id": 5108843089,
      "osm_type": "node",
      "address": "\u0130ncili \u00c7avu\u015f Sokak",
      "road_geometry": null
    },
    {
      "name": "Fuego Restaurant",
      "category": [
        "amenity.restaurant"
      ],
      "lat": 41.0082114,
      "lon": 28.9769409,
      "osm_id": 5108843090,
      "osm_type": "node",
      "address": "\u0130ncili \u00c7avu\u015f Sokak",
      "road_geometry": null
    },
    {
      "name": "The Terrace Restaurant",
      "category": [
        "amenity.restaurant"
      ],
      "lat": 41.0081444,
      "lon": 28.976446,
      "osm_id": 5108843091,
      "osm_type": "node",
      "address": "Divan Yolu Caddesi",
      "road_geometry": null
    },
    {
      "name": "Yurdan Carpet and Jewelery",
      "category": [
        "shop.carpet"
      ],
      "lat": 41.0080536,
      "lon": 28.9765008,
      "osm_id": 5108843092,
      "osm_type": "node",
      "address": "Divan Yolu Caddesi",
      "road_geometry": null
    },
    {
      "name": "Turista Travel Agency",
      "category": [
        "shop.travel_agency"
      ],
      "lat": 41.008044,
      "lon": 28.9766253,
      "osm_id": 5108843093,
      "osm_type": "node",
      "address": "Divan Yolu Caddesi",
      "road_geometry": null
    },
    {
      "name": "Sultanahmet Travel",
      "category": [
        "shop.travel_agency"
      ],
      "lat": 41.0080819,
      "lon": 28.9764157,
      "osm_id": 5108843094,
      "osm_type": "node",
      "address": "Divan Yolu Caddesi",
      "road_geometry": null
    },
    {
      "name": "Cevri Hatun S\u0131byan Mektebi",
      "category": [
        "amenity.library"
      ],
      "lat": 41.0080271,
      "lon": 28.9765876,
      "osm_id": 5108843096,
      "osm_type": "node",
      "address": "Divan Yolu Caddesi",
      "road_geometry": null
    },
    {
      "name": "Haf\u0131z Mustafa Edebiyat K\u0131raathanesi",
      "category": [
        "amenity.cafe"
      ],
      "lat": 41.0080447,
      "lon": 28.9765845,
      "osm_id": 5108843097,
      "osm_type": "node",
      "address": "Divan Yolu Caddesi",
      "road_geometry": null
    },
    {
      "name": "Cevri Kalfa \u00c7e\u015fmesi",
      "category": [
        "tourism.attraction"
      ],
      "lat": 41.0080019,
      "lon": 28.9767691,
      "osm_id": 5108843098,
      "osm_type": "node",
      "address": "Divan Yolu Caddesi",
      "road_geometry": null
    },
    {
      "name": "Star Holiday Hotel",
      "category": [
        "tourism.hotel"
      ],
      "lat": 41.007999,
      "lon": 28.9769882,
      "osm_id": 5108843100,
      "osm_type": "node",
      "address": "Divan Yolu Caddesi",
      "road_geometry": null
    },
    {
      "name": "Can Restoran",
      "category": [
        "amenity.restaurant"
      ],
      "lat": 41.0080089,
      "lon": 28.9768918,
      "osm_id": 5108843101,
      "osm_type": "node",
      "address": "Divan Yolu Caddesi",
      "road_geometry": null
    },
    {
      "name": "Haf\u0131z Mustafa",
      "category": [
        "amenity.restaurant"
      ],
      "lat": 41.0079827,
      "lon": 28.9769079,
      "osm_id": 5108843102,
      "osm_type": "node",
      "address": "Divan Yolu Caddesi",
      "road_geometry": null
    },
    {
      "name": "Pudding Shop Lale Restaurant",
      "category": [
        "amenity.restaurant"
      ],
      "lat": 41.0080246,
      "lon": 28.9770388,
      "osm_id": 5108843103,
      "osm_type": "node",
      "address": "Divan Yolu Caddesi",
      "road_geometry": null
    },
    {
      "name": "Me\u015fhur Sultanahmet K\u00f6ftecisi",
      "category": [
        "amenity.restaurant"
      ],
      "lat": 41.0080081,
      "lon": 28.9771617,
      "osm_id": 5108843104,
      "osm_type": "node",
      "address": "Divan Yolu Caddesi",
      "road_geometry": null
    },
    {
      "name": "Sultan Restoran",
      "category": [
        "amenity.restaurant"
      ],
      "lat": 41.0079917,
      "lon": 28.9772285,
      "osm_id": 5108843105,
      "osm_type": "node",
      "address": "\u015eeftali Sokak",
      "road_geometry": null
    },
    {
      "name": "Hilal B\u00fcfe",
      "category": [
        "shop.convenience"
      ],
      "lat": 41.0079302,
      "lon": 28.9775902,
      "osm_id": 5108843106,
      "osm_type": "node",
      "address": "Divan Yolu Caddesi",
      "road_geometry": null
    },
    {
      "name": "Gallery Les Arts Turcs",
      "category": [
        "amenity.gallery"
      ],
      "lat": 41.0083065,
      "lon": 28.9772888,
      "osm_id": 5108843111,
      "osm_type": "node",
      "address": "\u015eeftali Sokak",
      "road_geometry": null
    },
    {
      "name": "Palmiye Cafe",
      "category": [
        "amenity.cafe"
      ],
      "lat": 41.0084835,
      "lon": 28.9775176,
      "osm_id": 5108843112,
      "osm_type": "node",
      "address": "\u015eeftali Sokak",
      "road_geometry": null
    },
    {
      "name": "Omar Cafe and Restaurant",
      "category": [
        "amenity.restaurant"
      ],
      "lat": 41.0084509,
      "lon": 28.9776292,
      "osm_id": 5108843113,
      "osm_type": "node",
      "address": "\u015eeftali Sokak",
      "road_geometry": null
    },
    {
      "name": "Galeri Tuna",
      "category": [
        "shop.craft"
      ],
      "lat": 41.0084934,
      "lon": 28.9775978,
      "osm_id": 5108843114,
      "osm_type": "node",
      "address": "Yerebatan Caddesi",
      "road_geometry": null
    },
    {
      "name": "Altin Kupa Restaurant",
      "category": [
        "amenity.restaurant"
      ],
      "lat": 41.0085872,
      "lon": 28.9777365,
      "osm_id": 5108843115,
      "osm_type": "node",
      "address": "Yerebatan Caddesi",
      "road_geometry": null
    },
    {
      "name": "Art House Carpet ve Kilims",
      "category": [
        "shop.carpet"
      ],
      "lat": 41.0085668,
      "lon": 28.9769548,
      "osm_id": 5108843116,
      "osm_type": "node",
      "address": "Muhterem Efendi Sokak",
      "road_geometry": null
    },
    {
      "name": "DHL Express",
      "category": [
        "amenity.post_office"
      ],
      "lat": 41.0085673,
      "lon": 28.9775991,
      "osm_id": 5108843119,
      "osm_type": "node",
      "address": "Yerebatan Caddesi",
      "road_geometry": null
    },
    {
      "name": "Alfombras De Estambul",
      "category": [
        "shop.furniture"
      ],
      "lat": 41.0086831,
      "lon": 28.9774913,
      "osm_id": 5108843120,
      "osm_type": "node",
      "address": "Yerebatan Caddesi",
      "road_geometry": null
    },
    {
      "name": "El Rincon De Fehmi",
      "category": [
        "shop.carpet_store"
      ],
      "lat": 41.0085722,
      "lon": 28.9773648,
      "osm_id": 5108843521,
      "osm_type": "node",
      "address": "Yerebatan Caddesi",
      "road_geometry": null
    },
    {
      "name": "\u00d6zel Ayasofya Y\u00fcksek \u00d6\u011frenim Erkek \u00d6\u011frenci Yurdu",
      "category": [
        "tourism.hostel"
      ],
      "lat": 41.0085233,
      "lon": 28.9771034,
      "osm_id": 5108843522,
      "osm_type": "node",
      "address": "Muhterem Efendi Sokak",
      "road_geometry": null
    },
    {
      "name": "The Million Stone Hotel",
      "category": [
        "tourism.hotel"
      ],
      "lat": 41.0086773,
      "lon": 28.9772297,
      "osm_id": 5108843523,
      "osm_type": "node",
      "address": "Muhterem Efendi Sokak",
      "road_geometry": null
    },
    {
      "name": "Murat Gida Shop",
      "category": [
        "shop.convenience"
      ],
      "lat": 41.0087653,
      "lon": 28.9775137,
      "osm_id": 5108843524,
      "osm_type": "node",
      "address": "Yerebatan Caddesi",
      "road_geometry": null
    },
    {
      "name": "House of Medusa",
      "category": [
        "amenity.restaurant"
      ],
      "lat": 41.0087639,
      "lon": 28.9772212,
      "osm_id": 5108843525,
      "osm_type": "node",
      "address": "Yerebatan Caddesi",
      "road_geometry": null
    },
    {
      "name": "Sahre Et Kebap Restaurant",
      "category": [
        "amenity.restaurant"
      ],
      "lat": 41.0089914,
      "lon": 28.9772707,
      "osm_id": 5108843526,
      "osm_type": "node",
      "address": "Yerebatan Caddesi",
      "road_geometry": null
    },
    {
      "name": "Denizbank",
      "category": [
        "amenity.atm"
      ],
      "lat": 41.0088717,
      "lon": 28.9774429,
      "osm_id": 5108843559,
      "osm_type": "node",
      "address": "Yerebatan Caddesi",
      "road_geometry": null
    },
    {
      "name": "Boterra",
      "category": [
        "amenity.restaurant"
      ],
      "lat": 41.0089049,
      "lon": 28.9773974,
      "osm_id": 5108843560,
      "osm_type": "node",
      "address": "Yerebatan Caddesi",
      "road_geometry": null
    },
    {
      "name": "Barbeku House",
      "category": [
        "amenity.restaurant"
      ],
      "lat": 41.0086074,
      "lon": 28.9777141,
      "osm_id": 5108843562,
      "osm_type": "node",
      "address": "Yerebatan Caddesi",
      "road_geometry": null
    },
    {
      "name": "Mvt Yay\u0131nc\u0131l\u0131k Kitabevi",
      "category": [
        "amenity.library"
      ],
      "lat": 41.0087977,
      "lon": 28.974944,
      "osm_id": 5108843737,
      "osm_type": "node",
      "address": "\u00c7atal\u00e7e\u015fme Sokak",
      "road_geometry": null
    },
    {
      "name": "Antusa Palace Hotel",
      "category": [
        "tourism.hotel"
      ],
      "lat": 41.008762,
      "lon": 28.9750558,
      "osm_id": 5108843738,
      "osm_type": "node",
      "address": "\u00c7atal\u00e7e\u015fme Sokak",
      "road_geometry": null
    },
    {
      "name": "Anthemis Hotel",
      "category": [
        "tourism.hotel"
      ],
      "lat": 41.0086374,
      "lon": 28.9752644,
      "osm_id": 5108843739,
      "osm_type": "node",
      "address": "Bi\u00e7ki Yurdu Sokak",
      "road_geometry": null
    },
    {
      "name": "KitapStore.com",
      "category": [
        "amenity.library"
      ],
      "lat": 41.0085364,
      "lon": 28.9750768,
      "osm_id": 5108843741,
      "osm_type": "node",
      "address": "Bi\u00e7ki Yudru Sokak",
      "road_geometry": null
    },
    {
      "name": "Cafe Grande",
      "category": [
        "amenity.cafe"
      ],
      "lat": 41.0082187,
      "lon": 28.9749876,
      "osm_id": 5108843755,
      "osm_type": "node",
      "address": "Divanyolu Caddesi",
      "road_geometry": null
    },
    {
      "name": "Akdeniz Hotel",
      "category": [
        "tourism.hotel"
      ],
      "lat": 41.0084,
      "lon": 28.9749883,
      "osm_id": 5108843758,
      "osm_type": "node",
      "address": "Hac\u0131 Tahsin Bey Sokak",
      "road_geometry": null
    },
    {
      "name": "Karadeniz Aile Pide and Kebab Restaurant",
      "category": [
        "amenity.restaurant"
      ],
      "lat": 41.0084424,
      "lon": 28.974963,
      "osm_id": 5108843759,
      "osm_type": "node",
      "address": "Bi\u00e7ki Yudru Sokak",
      "road_geometry": null
    },
    {
      "name": "dbp\u0131rlanta",
      "category": [
        "shop.craft"
      ],
      "lat": 41.0084902,
      "lon": 28.9751313,
      "osm_id": 5108843760,
      "osm_type": "node",
      "address": "Hac\u0131 Tahsin Bey Sokak",
      "road_geometry": null
    },
    {
      "name": "Ayasofya \u00c7er\u00e7eve Hediyelik E\u015fya",
      "category": [
        "shop.gift"
      ],
      "lat": 41.0085372,
      "lon": 28.9752285,
      "osm_id": 5108843761,
      "osm_type": "node",
      "address": "Bi\u00e7ki Yudru Sokak",
      "road_geometry": null
    },
    {
      "name": "Arsenals wash",
      "category": [
        "shop.clothes"
      ],
      "lat": 41.0083712,
      "lon": 28.9751704,
      "osm_id": 5108843762,
      "osm_type": "node",
      "address": "Dr. Eminpa\u015fa Sokak",
      "road_geometry": null
    },
    {
      "name": "Alaturka Cuisine Cafe and Restaurant",
      "category": [
        "amenity.restaurant"
      ],
      "lat": 41.0083043,
      "lon": 28.9754064,
      "osm_id": 5108843763,
      "osm_type": "node",
      "address": "Dr. Eminpa\u015fa Sokak",
      "road_geometry": null
    },
    {
      "name": "Hop On Hop Off",
      "category": [
        "shop.travel_agency"
      ],
      "lat": 41.0081922,
      "lon": 28.975144,
      "osm_id": 5108843764,
      "osm_type": "node",
      "address": "Divan Yolu Caddesi",
      "road_geometry": null
    },
    {
      "name": "Ersoy B\u00fcfe",
      "category": [
        "shop.kiosk"
      ],
      "lat": 41.0070123,
      "lon": 28.9760525,
      "osm_id": 5113500727,
      "osm_type": "node",
      "address": "Atmeydan\u0131 caddesi",
      "road_geometry": null
    },
    {
      "name": "Mahmiye",
      "category": [
        "amenity.restaurant"
      ],
      "lat": 41.0085546,
      "lon": 28.9761558,
      "osm_id": 5625137021,
      "osm_type": "node",
      "address": "Ticarethane Sokak",
      "road_geometry": null
    },
    {
      "name": "Sultanahmet Kahvesi",
      "category": [
        "amenity.cafe"
      ],
      "lat": 41.0083358,
      "lon": 28.975348,
      "osm_id": 6274260488,
      "osm_type": "node",
      "address": null,
      "road_geometry": null
    },
    {
      "name": "Poika Coffee",
      "category": [
        "amenity.cafe"
      ],
      "lat": 41.0083399,
      "lon": 28.9750209,
      "osm_id": 6329932085,
      "osm_type": "node",
      "address": null,
      "road_geometry": null
    },
    {
      "name": "Sultanahamet K\u00f6ftecisi",
      "category": [
        "amenity.restaurant"
      ],
      "lat": 41.0079643,
      "lon": 28.9773096,
      "osm_id": 6356489886,
      "osm_type": "node",
      "address": null,
      "road_geometry": null
    },
    {
      "name": "Mado",
      "category": [
        "amenity.cafe"
      ],
      "lat": 41.0081483,
      "lon": 28.9757831,
      "osm_id": 6394219985,
      "osm_type": "node",
      "address": null,
      "road_geometry": null
    },
    {
      "name": "Sultanahmet",
      "category": [
        "highway.bus_stop"
      ],
      "lat": 41.0076165,
      "lon": 28.9778923,
      "osm_id": 6429528486,
      "osm_type": "node",
      "address": null,
      "road_geometry": null
    },
    {
      "name": "Mado",
      "category": [
        "amenity.cafe"
      ],
      "lat": 41.008316,
      "lon": 28.9754601,
      "osm_id": 7878317494,
      "osm_type": "node",
      "address": null,
      "road_geometry": null
    },
    {
      "name": "Do Re Mi",
      "category": [
        "shop.musical_instrument"
      ],
      "lat": 41.0089219,
      "lon": 28.9755829,
      "osm_id": 8361146200,
      "osm_type": "node",
      "address": null,
      "road_geometry": null
    },
    {
      "name": "Mehmet Akif Ersoy Park\u0131",
      "category": [
        "leisure.park"
      ],
      "lat": 41.0077677,
      "lon": 28.9754453,
      "osm_id": 8735018410,
      "osm_type": "node",
      "address": null,
      "road_geometry": null
    },
    {
      "name": "Art House",
      "category": [
        "shop.art"
      ],
      "lat": 41.0086347,
      "lon": 28.9775478,
      "osm_id": 11010244829,
      "osm_type": "node",
      "address": null,
      "road_geometry": null
    },
    {
      "name": "El Rincon De Fehmi Original Art",
      "category": [
        "shop.art"
      ],
      "lat": 41.0087472,
      "lon": 28.9775767,
      "osm_id": 11010246092,
      "osm_type": "node",
      "address": null,
      "road_geometry": null
    },
    {
      "name": "DHL",
      "category": [
        "amenity.post_office"
      ],
      "lat": 41.0086537,
      "lon": 28.9776593,
      "osm_id": 11010255143,
      "osm_type": "node",
      "address": null,
      "road_geometry": null
    },
    {
      "name": "Istanbul Dervish Ceremony",
      "category": [
        "amenity.community_centre"
      ],
      "lat": 41.008313,
      "lon": 28.9775156,
      "osm_id": 11286456569,
      "osm_type": "node",
      "address": null,
      "road_geometry": null
    },
    {
      "name": "Fatih Belediyesi Sosyal Tesisleri Sultanahmet",
      "category": [
        "amenity.cafe"
      ],
      "lat": 41.0069455,
      "lon": 28.9754395,
      "osm_id": 11790117569,
      "osm_type": "node",
      "address": "Binbirdirek Meydan\u0131 Soka\u011f\u0131",
      "road_geometry": null
    },
    {
      "name": "Yap\u0131 Kredi",
      "category": [
        "amenity.atm"
      ],
      "lat": 41.007825,
      "lon": 28.977191,
      "osm_id": 11908036087,
      "osm_type": "node",
      "address": null,
      "road_geometry": null
    },
    {
      "name": "Yap\u0131 Kredi",
      "category": [
        "amenity.atm"
      ],
      "lat": 41.008917,
      "lon": 28.977599,
      "osm_id": 11908036096,
      "osm_type": "node",
      "address": null,
      "road_geometry": null
    },
    {
      "name": "Yap\u0131 Kredi",
      "category": [
        "amenity.atm"
      ],
      "lat": 41.0075654,
      "lon": 28.9773613,
      "osm_id": 11908036098,
      "osm_type": "node",
      "address": null,
      "road_geometry": null
    },
    {
      "name": "Istanbulkart",
      "category": [
        "amenity.vending_machine"
      ],
      "lat": 41.0080407,
      "lon": 28.9757694,
      "osm_id": 12206601167,
      "osm_type": "node",
      "address": null,
      "road_geometry": null
    },
    {
      "name": "Sultan S\u00fcleyman Hamam Traditional Turkish Bath - Antusa Palace",
      "category": [
        "leisure.sauna"
      ],
      "lat": 41.0088152,
      "lon": 28.9753151,
      "osm_id": 12954682201,
      "osm_type": "node",
      "address": "Doktor Eminpa\u015fa Soka\u011f\u0131",
      "road_geometry": null
    },
    {
      "name": "Sah Sultan",
      "category": [
        "amenity.ice_cream"
      ],
      "lat": 41.0080019,
      "lon": 28.9770044,
      "osm_id": 13186922865,
      "osm_type": "node",
      "address": null,
      "road_geometry": null
    },
    {
      "name": "Banc public",
      "category": [
        "amenity.bench"
      ],
      "lat": 41.0069277,
      "lon": 28.9765388,
      "osm_id": 13633321736,
      "osm_type": "node",
      "address": null,
      "road_geometry": null
    },
    {
      "name": "Banc public",
      "category": [
        "amenity.bench"
      ],
      "lat": 41.0069456,
      "lon": 28.9765613,
      "osm_id": 13633323911,
      "osm_type": "node",
      "address": null,
      "road_geometry": null
    }
  ]
}