{
  "image": "dataset/images/557.png",
  "center_lat": 41.010135135135144,
  "center_lon": 28.96746167873011,
  "bbox": [
    28.96596934298409,
    41.00900900900902,
    28.968954014476132,
    41.011261261261275
  ],
  "unique_categories": [
    "shop.books",
    "tourism.motel",
    "amenity.restaurant",
    "shop.gift",
    "amenity.cafe",
    "shop.dessert",
    "shop.optician",
    "shop.leather",
    "amenity.police",
    "amenity.atm",
    "shop.confectionery",
    "amenity.fast_food",
    "shop.clothes",
    "amenity.bureau_de_change",
    "tourism.artwork",
    "shop.spices",
    "shop.watches",
    "shop.beauty",
    "shop.bakery",
    "railway.tram_stop",
    "shop.department_store",
    "shop.jewelry"
  ],
  "poi_count_per_category": {
    "shop.books": 1,
    "tourism.motel": 1,
    "amenity.restaurant": 22,
    "shop.gift": 2,
    "amenity.cafe": 7,
    "shop.dessert": 1,
    "shop.optician": 1,
    "shop.leather": 1,
    "amenity.police": 1,
    "amenity.atm": 3,
    "shop.confectionery": 1,
    "amenity.fast_food": 1,
    "shop.clothes": 3,
    "amenity.bureau_de_change": 2,
    "tourism.artwork": 2,
    "shop.spices": 1,
    "shop.watches": 1,
    "shop.beauty": 1,
    "shop.bakery": 1,
    "railway.tram_stop": 1,
    "shop.department_store": 1,
    "shop.jewelry": 13
  },
  "poi_count": 68,
  "pois": [
    {
      "name": "Sark Kahvesi",
      "category": [
        "amenity.cafe"
      ],
      "lat": 41.0105668,
      "lon": 28.967536,
      "osm_id": 3746916685,
      "osm_type": "node",
      "address": null,
      "road_geometry": null
    },
    {
      "name": "Erenler Nargile",
      "category": [
        "amenity.cafe"
      ],
      "lat": 41.0090611,
      "lon": 28.9685767,
      "osm_id": 3802274673,
      "osm_type": "node",
      "address": null,
      "road_geometry": null
    },
    {
      "name": "Kuma\u015fci Atilla",
      "category": [
        "shop.department_store"
      ],
      "lat": 41.0111682,
      "lon": 28.967608,
      "osm_id": 4452480289,
      "osm_type": "node",
      "address": "Par\u00e7ac\u0131lar Sokak",
      "road_geometry": null
    },
    {
      "name": "Godiva",
      "category": [
        "amenity.cafe"
      ],
      "lat": 41.0108355,
      "lon": 28.9684651,
      "osm_id": 4674290489,
      "osm_type": "node",
      "address": null,
      "road_geometry": null
    },
    {
      "name": "Beyaz\u0131t - Kapal\u0131 \u00c7ar\u015f\u0131",
      "category": [
        "railway.tram_stop"
      ],
      "lat": 41.0090816,
      "lon": 28.9666522,
      "osm_id": 4776796390,
      "osm_type": "node",
      "address": null,
      "road_geometry": null
    },
    {
      "name": "authentic lamp",
      "category": [
        "shop.gift"
      ],
      "lat": 41.0102333,
      "lon": 28.967973,
      "osm_id": 4838893429,
      "osm_type": "node",
      "address": null,
      "road_geometry": null
    },
    {
      "name": "Pa\u015fazade Lokum",
      "category": [
        "shop.confectionery"
      ],
      "lat": 41.0093417,
      "lon": 28.9673139,
      "osm_id": 5105398125,
      "osm_type": "node",
      "address": "Yeni\u00e7eriler Caddesi",
      "road_geometry": null
    },
    {
      "name": "Sahaflar \u00c7ar\u015f\u0131s\u0131",
      "category": [
        "shop.books"
      ],
      "lat": 41.0103818,
      "lon": 28.9662483,
      "osm_id": 5115929105,
      "osm_type": "node",
      "address": "\u00c7adircilar Caddesi",
      "road_geometry": null
    },
    {
      "name": "Zab\u0131ta Amirli\u011fi",
      "category": [
        "amenity.police"
      ],
      "lat": 41.009648,
      "lon": 28.9662256,
      "osm_id": 5115929106,
      "osm_type": "node",
      "address": "\u00c7ad\u0131rc\u0131lar Caddesi",
      "road_geometry": null
    },
    {
      "name": "T\u00fcrkiye \u0130\u015f Bankas\u0131",
      "category": [
        "amenity.atm"
      ],
      "lat": 41.0096299,
      "lon": 28.9661464,
      "osm_id": 5115929108,
      "osm_type": "node",
      "address": "Beyaz\u0131t Mektep Sokak",
      "road_geometry": null
    },
    {
      "name": "Doce Kebap",
      "category": [
        "amenity.restaurant"
      ],
      "lat": 41.0095615,
      "lon": 28.9664858,
      "osm_id": 5115929109,
      "osm_type": "node",
      "address": "\u00c7ad\u0131rc\u0131lar Caddesi",
      "road_geometry": null
    },
    {
      "name": "Azim Collection",
      "category": [
        "shop.watches"
      ],
      "lat": 41.0094142,
      "lon": 28.9665589,
      "osm_id": 5115929110,
      "osm_type": "node",
      "address": "Yeni\u00e7eriler Caddesi",
      "road_geometry": null
    },
    {
      "name": "\u00d6z Yumak",
      "category": [
        "amenity.restaurant"
      ],
      "lat": 41.0093945,
      "lon": 28.96666,
      "osm_id": 5115929111,
      "osm_type": "node",
      "address": "Makas\u00e7\u0131lar Caddesi",
      "road_geometry": null
    },
    {
      "name": "Osmanl\u0131zade",
      "category": [
        "amenity.restaurant"
      ],
      "lat": 41.0092964,
      "lon": 28.9671804,
      "osm_id": 5115929112,
      "osm_type": "node",
      "address": "Yeni\u00e7eriler Caddesi",
      "road_geometry": null
    },
    {
      "name": "Denizbank",
      "category": [
        "amenity.atm"
      ],
      "lat": 41.0094871,
      "lon": 28.9664174,
      "osm_id": 5115929114,
      "osm_type": "node",
      "address": "Yeni\u00e7eriler Caddesi",
      "road_geometry": null
    },
    {
      "name": "Beyaz\u0131t D\u00f6viz",
      "category": [
        "amenity.bureau_de_change"
      ],
      "lat": 41.0094669,
      "lon": 28.9664952,
      "osm_id": 5115929115,
      "osm_type": "node",
      "address": "Makas\u00e7\u0131lar Caddesi",
      "road_geometry": null
    },
    {
      "name": "Seos Cafe Restaurant",
      "category": [
        "amenity.restaurant"
      ],
      "lat": 41.0096045,
      "lon": 28.9665299,
      "osm_id": 5115929116,
      "osm_type": "node",
      "address": "Yeni\u00e7eriler Caddesi",
      "road_geometry": null
    },
    {
      "name": "Pa\u015fa D\u00f6ner",
      "category": [
        "amenity.restaurant"
      ],
      "lat": 41.0093961,
      "lon": 28.9666078,
      "osm_id": 5115929117,
      "osm_type": "node",
      "address": "Yeni\u00e7eriler Caddesi",
      "road_geometry": null
    },
    {
      "name": "Kelkit D\u00f6neri",
      "category": [
        "amenity.restaurant"
      ],
      "lat": 41.0093045,
      "lon": 28.9670695,
      "osm_id": 5115929118,
      "osm_type": "node",
      "address": "Yeni\u00e7eriler Caddesi",
      "road_geometry": null
    },
    {
      "name": "Ramazan Canbaz",
      "category": [
        "shop.spices"
      ],
      "lat": 41.009349,
      "lon": 28.9669005,
      "osm_id": 5115929119,
      "osm_type": "node",
      "address": "\u00c7ar\u015f\u0131kap\u0131 Caddesi",
      "road_geometry": null
    },
    {
      "name": "Cihan Derya Bal\u0131k",
      "category": [
        "amenity.restaurant"
      ],
      "lat": 41.0095836,
      "lon": 28.9672009,
      "osm_id": 5115929120,
      "osm_type": "node",
      "address": "\u00c7ar\u015f\u0131kap\u0131 Caddesi",
      "road_geometry": null
    },
    {
      "name": "Ekspres Leder Deri Giyim",
      "category": [
        "shop.leather"
      ],
      "lat": 41.0095988,
      "lon": 28.9671276,
      "osm_id": 5115939921,
      "osm_type": "node",
      "address": "Sepet\u00e7i Han",
      "road_geometry": null
    },
    {
      "name": "Meshur \u00dcsk\u00fcp K\u00f6ftecisi",
      "category": [
        "amenity.restaurant"
      ],
      "lat": 41.0090423,
      "lon": 28.968745,
      "osm_id": 5244806511,
      "osm_type": "node",
      "address": "Bileyciler Sokak",
      "road_geometry": null
    },
    {
      "name": "Anadolu Silver",
      "category": [
        "shop.jewelry"
      ],
      "lat": 41.0090665,
      "lon": 28.9687366,
      "osm_id": 5244806512,
      "osm_type": "node",
      "address": "Bileyciler Sokak",
      "road_geometry": null
    },
    {
      "name": "\u00c7ar\u015f\u0131 Kap\u0131",
      "category": [
        "shop.bakery"
      ],
      "lat": 41.0091015,
      "lon": 28.9688703,
      "osm_id": 5244806514,
      "osm_type": "node",
      "address": "Bileyciler Sokak",
      "road_geometry": null
    },
    {
      "name": "Dragon",
      "category": [
        "shop.jewelry"
      ],
      "lat": 41.0091538,
      "lon": 28.9688926,
      "osm_id": 5244806515,
      "osm_type": "node",
      "address": "Bileyciler Sokak",
      "road_geometry": null
    },
    {
      "name": "G\u00fclaylar",
      "category": [
        "shop.jewelry"
      ],
      "lat": 41.0099503,
      "lon": 28.9684724,
      "osm_id": 5244807946,
      "osm_type": "node",
      "address": "Kalpak\u00e7\u0131lar Caddesi",
      "road_geometry": null
    },
    {
      "name": "Co\u015fkun",
      "category": [
        "shop.jewelry"
      ],
      "lat": 41.0099639,
      "lon": 28.9686057,
      "osm_id": 5244807947,
      "osm_type": "node",
      "address": "Kalpak\u00e7\u0131lar Caddesi",
      "road_geometry": null
    },
    {
      "name": "Doydukmu",
      "category": [
        "amenity.restaurant"
      ],
      "lat": 41.0094376,
      "lon": 28.9678736,
      "osm_id": 5244807948,
      "osm_type": "node",
      "address": "\u0130skender Bo\u011faz\u0131 Sokak",
      "road_geometry": null
    },
    {
      "name": "Ula\u015f Deri",
      "category": [
        "shop.clothes"
      ],
      "lat": 41.0093524,
      "lon": 28.9677337,
      "osm_id": 5244807949,
      "osm_type": "node",
      "address": "\u0130skender Bo\u011faz\u0131 Sokak",
      "road_geometry": null
    },
    {
      "name": "Beyazit Sarayi Restorant",
      "category": [
        "amenity.restaurant"
      ],
      "lat": 41.0093912,
      "lon": 28.9674726,
      "osm_id": 5244807950,
      "osm_type": "node",
      "address": "Sipahi Caddesi",
      "road_geometry": null
    },
    {
      "name": "Aspendos",
      "category": [
        "shop.jewelry"
      ],
      "lat": 41.0094344,
      "lon": 28.9674871,
      "osm_id": 5244807951,
      "osm_type": "node",
      "address": "\u0130skender Bo\u011faz\u0131 Sokak",
      "road_geometry": null
    },
    {
      "name": "Lamoda Collect\u0131on",
      "category": [
        "shop.clothes"
      ],
      "lat": 41.009613,
      "lon": 28.9675246,
      "osm_id": 5244807952,
      "osm_type": "node",
      "address": "\u0130skender Bo\u011faz\u0131 Sokak",
      "road_geometry": null
    },
    {
      "name": "Saint Fur and Leather",
      "category": [
        "shop.clothes"
      ],
      "lat": 41.0097779,
      "lon": 28.9675621,
      "osm_id": 5244807953,
      "osm_type": "node",
      "address": "\u0130skender Bo\u011faz\u0131 Sokak",
      "road_geometry": null
    },
    {
      "name": "Miranda",
      "category": [
        "shop.jewelry"
      ],
      "lat": 41.0097727,
      "lon": 28.9676296,
      "osm_id": 5244807954,
      "osm_type": "node",
      "address": "\u0130skender Bo\u011faz\u0131 Sokak",
      "road_geometry": null
    },
    {
      "name": "Saaf-\u0130 Kebap Salonu",
      "category": [
        "amenity.restaurant"
      ],
      "lat": 41.0097765,
      "lon": 28.9677991,
      "osm_id": 5244807955,
      "osm_type": "node",
      "address": "\u0130skender Bo\u011faz\u0131 Sokak",
      "road_geometry": null
    },
    {
      "name": "Gelg\u00f6r Kebap Salonu",
      "category": [
        "amenity.restaurant"
      ],
      "lat": 41.0098149,
      "lon": 28.9681472,
      "osm_id": 5244807956,
      "osm_type": "node",
      "address": "\u0130skender Bo\u011faz\u0131 Sokak",
      "road_geometry": null
    },
    {
      "name": "Mardin Et Ve Kebap Salonu",
      "category": [
        "amenity.restaurant"
      ],
      "lat": 41.0098371,
      "lon": 28.9686074,
      "osm_id": 5244807957,
      "osm_type": "node",
      "address": "\u0130skender Bo\u011faz\u0131 Sokak",
      "road_geometry": null
    },
    {
      "name": "Eyl\u00fcl Alyans",
      "category": [
        "shop.jewelry"
      ],
      "lat": 41.0097333,
      "lon": 28.9683418,
      "osm_id": 5244807958,
      "osm_type": "node",
      "address": "\u0130skender Bo\u011faz\u0131 Sokak",
      "road_geometry": null
    },
    {
      "name": "Hatem Silver",
      "category": [
        "shop.jewelry"
      ],
      "lat": 41.0096858,
      "lon": 28.9681033,
      "osm_id": 5244807959,
      "osm_type": "node",
      "address": "H\u00fcseyin A\u011fa Cami Sokak",
      "road_geometry": null
    },
    {
      "name": "Bolca K\u00f6fte Ve Pili\u00e7 \u00c7evirme",
      "category": [
        "amenity.restaurant"
      ],
      "lat": 41.0096676,
      "lon": 28.9682524,
      "osm_id": 5244807960,
      "osm_type": "node",
      "address": "H\u00fcseyin A\u011fa Cami Sokak",
      "road_geometry": null
    },
    {
      "name": "Karadeniz K\u00f6fte ve Yemek Salonu",
      "category": [
        "amenity.restaurant"
      ],
      "lat": 41.0096694,
      "lon": 28.9684553,
      "osm_id": 5244807961,
      "osm_type": "node",
      "address": "H\u00fcseyin A\u011fa Cami Sokak",
      "road_geometry": null
    },
    {
      "name": "Mercan Silver",
      "category": [
        "shop.jewelry"
      ],
      "lat": 41.0097107,
      "lon": 28.9685595,
      "osm_id": 5244807962,
      "osm_type": "node",
      "address": "K\u00fcrk\u00e7\u00fcler Kap\u0131s\u0131 Sokak",
      "road_geometry": null
    },
    {
      "name": "Ak Ayar Evi",
      "category": [
        "shop.jewelry"
      ],
      "lat": 41.0097105,
      "lon": 28.9687666,
      "osm_id": 5244807963,
      "osm_type": "node",
      "address": "K\u00fcrk\u00e7\u00fcler Kap\u0131s\u0131 Sokak",
      "road_geometry": null
    },
    {
      "name": "Cennet Ev Yemekleri",
      "category": [
        "amenity.restaurant"
      ],
      "lat": 41.0097248,
      "lon": 28.9689342,
      "osm_id": 5244807964,
      "osm_type": "node",
      "address": "K\u00fcrk\u00e7\u00fcler Kap\u0131s\u0131 Sokak",
      "road_geometry": null
    },
    {
      "name": "D\u00f6ner Bank",
      "category": [
        "amenity.fast_food"
      ],
      "lat": 41.0092963,
      "lon": 28.9688893,
      "osm_id": 5244807969,
      "osm_type": "node",
      "address": "H\u00fcseyin A\u011fa Cami Sokak",
      "road_geometry": null
    },
    {
      "name": "Ci\u011ferci \u00dc\u00e7leri",
      "category": [
        "amenity.restaurant"
      ],
      "lat": 41.0095151,
      "lon": 28.9685724,
      "osm_id": 5244807970,
      "osm_type": "node",
      "address": "H\u00fcseyin A\u011fa Cami Sokak",
      "road_geometry": null
    },
    {
      "name": "Orhan Usta Et Lokantas\u0131",
      "category": [
        "amenity.restaurant"
      ],
      "lat": 41.0095789,
      "lon": 28.9684679,
      "osm_id": 5244807971,
      "osm_type": "node",
      "address": "H\u00fcseyin A\u011fa Cami Sokak",
      "road_geometry": null
    },
    {
      "name": "Unsal Kebap",
      "category": [
        "amenity.restaurant"
      ],
      "lat": 41.0095899,
      "lon": 28.9683238,
      "osm_id": 5244807972,
      "osm_type": "node",
      "address": "H\u00fcseyin A\u011fa Cami Sokak",
      "road_geometry": null
    },
    {
      "name": "Ghetto",
      "category": [
        "shop.jewelry"
      ],
      "lat": 41.0096195,
      "lon": 28.9680648,
      "osm_id": 5244807973,
      "osm_type": "node",
      "address": "H\u00fcseyin A\u011fa Cami Sokak",
      "road_geometry": null
    },
    {
      "name": "Cebeci Silver",
      "category": [
        "shop.jewelry"
      ],
      "lat": 41.0096059,
      "lon": 28.9681435,
      "osm_id": 5244807974,
      "osm_type": "node",
      "address": "H\u00fcseyin A\u011fa Cami Sokak",
      "road_geometry": null
    },
    {
      "name": "Tarihi Kapal\u0131 \u00c7ars\u0131 Day Day Pastanesi",
      "category": [
        "shop.dessert"
      ],
      "lat": 41.0095757,
      "lon": 28.9680649,
      "osm_id": 5244807975,
      "osm_type": "node",
      "address": "\u0130skender Bo\u011faz\u0131 Sokak",
      "road_geometry": null
    },
    {
      "name": "Y\u0131ld\u0131z Kebap",
      "category": [
        "amenity.restaurant"
      ],
      "lat": 41.0092653,
      "lon": 28.9679397,
      "osm_id": 5244807976,
      "osm_type": "node",
      "address": "\u0130skender Bo\u011faz\u0131 Sokak",
      "road_geometry": null
    },
    {
      "name": "Tad\u0131m K\u00f6fte Salonu",
      "category": [
        "amenity.restaurant"
      ],
      "lat": 41.0092346,
      "lon": 28.9676869,
      "osm_id": 5244807977,
      "osm_type": "node",
      "address": "\u0130skender Bo\u011faz\u0131 Sokak",
      "road_geometry": null
    },
    {
      "name": "Al Rayan Restoran",
      "category": [
        "amenity.restaurant"
      ],
      "lat": 41.0091458,
      "lon": 28.9675026,
      "osm_id": 5244807978,
      "osm_type": "node",
      "address": "\u00c7ar\u015f\u0131kap\u0131 Caddesi",
      "road_geometry": null
    },
    {
      "name": "Turkuaz Bote",
      "category": [
        "shop.optician"
      ],
      "lat": 41.0090189,
      "lon": 28.9683208,
      "osm_id": 5244807984,
      "osm_type": "node",
      "address": "Bileyciler Sokak",
      "road_geometry": null
    },
    {
      "name": "\u0130nan Tesbih",
      "category": [
        "shop.gift"
      ],
      "lat": 41.0093094,
      "lon": 28.9685772,
      "osm_id": 5244807987,
      "osm_type": "node",
      "address": "Medrese \u00c7\u0131kmaz\u0131 Sokak",
      "road_geometry": null
    },
    {
      "name": "Elit Silver",
      "category": [
        "shop.jewelry"
      ],
      "lat": 41.0093366,
      "lon": 28.968519,
      "osm_id": 5244807988,
      "osm_type": "node",
      "address": "Medrese \u00c7\u0131kmaz\u0131 Sokak",
      "road_geometry": null
    },
    {
      "name": "Zincirli Han",
      "category": [
        "tourism.motel"
      ],
      "lat": 41.0111788,
      "lon": 28.9688911,
      "osm_id": 5244811474,
      "osm_type": "node",
      "address": "T\u0131\u011fc\u0131lar Soka\u011f\u0131",
      "road_geometry": null
    },
    {
      "name": "Kahvesi Ethem Tezcakar",
      "category": [
        "amenity.cafe"
      ],
      "lat": 41.0106086,
      "lon": 28.9682234,
      "osm_id": 5680097921,
      "osm_type": "node",
      "address": "Hal\u0131c\u0131lar Caddesi",
      "road_geometry": null
    },
    {
      "name": "\u00dcnsal Lamba",
      "category": [
        "tourism.artwork"
      ],
      "lat": 41.0112205,
      "lon": 28.9675064,
      "osm_id": 6168853485,
      "osm_type": "node",
      "address": null,
      "road_geometry": null
    },
    {
      "name": "Lonca",
      "category": [
        "shop.beauty"
      ],
      "lat": 41.0109026,
      "lon": 28.9681941,
      "osm_id": 6168853486,
      "osm_type": "node",
      "address": null,
      "road_geometry": null
    },
    {
      "name": "Akin B\u00fcfe",
      "category": [
        "amenity.cafe"
      ],
      "lat": 41.0095668,
      "lon": 28.9662949,
      "osm_id": 6354022385,
      "osm_type": "node",
      "address": null,
      "road_geometry": null
    },
    {
      "name": "Change Office",
      "category": [
        "amenity.bureau_de_change"
      ],
      "lat": 41.0090917,
      "lon": 28.9675708,
      "osm_id": 9293970196,
      "osm_type": "node",
      "address": null,
      "road_geometry": null
    },
    {
      "name": "quedada",
      "category": [
        "amenity.cafe"
      ],
      "lat": 41.0109722,
      "lon": 28.9687227,
      "osm_id": 9585484817,
      "osm_type": "node",
      "address": null,
      "road_geometry": null
    },
    {
      "name": "Akbank",
      "category": [
        "amenity.atm"
      ],
      "lat": 41.0096154,
      "lon": 28.9661074,
      "osm_id": 10178410591,
      "osm_type": "node",
      "address": null,
      "road_geometry": null
    },
    {
      "name": "\u0130brahim M\u00fcteferrika",
      "category": [
        "tourism.artwork"
      ],
      "lat": 41.0103257,
      "lon": 28.9660572,
      "osm_id": 11812158198,
      "osm_type": "node",
      "address": null,
      "road_geometry": null
    },
    {
      "name": "Espresso Lab",
      "category": [
        "amenity.cafe"
      ],
      "lat": 41.0106543,
      "lon": 28.9674793,
      "osm_id": 13396860931,
      "osm_type": "node",
      "address": null,
      "road_geometry": null
    }
  ]
}