{
  "image": "dataset/images/558.png",
  "center_lat": 41.010135135135144,
  "center_lon": 28.970446350222154,
  "bbox": [
    28.968954014476132,
    41.00900900900902,
    28.971938685968176,
    41.011261261261275
  ],
  "unique_categories": [
    "shop.yes",
    "tourism.museum",
    "amenity.restaurant",
    "amenity.cafe",
    "shop.jewelry",
    "shop.toys",
    "tourism.information",
    "shop.computer",
    "shop.carpet",
    "shop.leather",
    "amenity.ice_cream",
    "amenity.atm",
    "shop.confectionery",
    "amenity.fast_food",
    "tourism.hotel",
    "shop.clothes",
    "amenity.bureau_de_change",
    "amenity.money_transfer",
    "shop.spices",
    "shop.home_good_store",
    "shop.carpet_store",
    "shop.bag",
    "shop.watches",
    "shop.electronics",
    "amenity.pharmacy",
    "amenity.library",
    "amenity.place_of_worship",
    "amenity.bank",
    "shop.mall"
  ],
  "poi_count_per_category": {
    "shop.yes": 1,
    "tourism.museum": 1,
    "amenity.restaurant": 22,
    "amenity.cafe": 3,
    "shop.jewelry": 79,
    "shop.toys": 1,
    "tourism.information": 1,
    "shop.computer": 1,
    "shop.carpet": 1,
    "shop.leather": 1,
    "amenity.ice_cream": 1,
    "amenity.atm": 1,
    "shop.confectionery": 1,
    "amenity.fast_food": 7,
    "tourism.hotel": 1,
    "shop.clothes": 13,
    "amenity.bureau_de_change": 6,
    "amenity.money_transfer": 1,
    "shop.spices": 1,
    "shop.home_good_store": 1,
    "shop.carpet_store": 1,
    "shop.bag": 2,
    "shop.watches": 1,
    "shop.electronics": 1,
    "amenity.pharmacy": 1,
    "amenity.library": 1,
    "amenity.place_of_worship": 1,
    "amenity.bank": 4,
    "shop.mall": 1
  },
  "poi_count": 157,
  "pois": [
    {
      "name": "Tyrkiye Finans",
      "category": [
        "amenity.atm"
      ],
      "lat": 41.0112011,
      "lon": 28.9696026,
      "osm_id": 3188738221,
      "osm_type": "node",
      "address": null,
      "road_geometry": null
    },
    {
      "name": "Fes Cafe",
      "category": [
        "amenity.cafe"
      ],
      "lat": 41.0099745,
      "lon": 28.9716771,
      "osm_id": 3658723809,
      "osm_type": "node",
      "address": null,
      "road_geometry": null
    },
    {
      "name": "D\u00f6nerci Sahin Usta",
      "category": [
        "amenity.fast_food"
      ],
      "lat": 41.0106999,
      "lon": 28.9701014,
      "osm_id": 4369636425,
      "osm_type": "node",
      "address": null,
      "road_geometry": null
    },
    {
      "name": "Ra\u0131f \u00fcsta",
      "category": [
        "amenity.restaurant"
      ],
      "lat": 41.0109798,
      "lon": 28.9710317,
      "osm_id": 4447856189,
      "osm_type": "node",
      "address": null,
      "road_geometry": null
    },
    {
      "name": "Kapali Carsi",
      "category": [
        "tourism.museum"
      ],
      "lat": 41.0101095,
      "lon": 28.969963,
      "osm_id": 4721808990,
      "osm_type": "node",
      "address": null,
      "road_geometry": null
    },
    {
      "name": "\u0130peki\u015f Silver",
      "category": [
        "shop.jewelry"
      ],
      "lat": 41.0097554,
      "lon": 28.9696718,
      "osm_id": 5115939922,
      "osm_type": "node",
      "address": "Tavuk Pazar\u0131 Sokak",
      "road_geometry": null
    },
    {
      "name": "TEB",
      "category": [
        "amenity.bank"
      ],
      "lat": 41.009691,
      "lon": 28.9698938,
      "osm_id": 5115939923,
      "osm_type": "node",
      "address": "Nuruosmaniye Caddesi",
      "road_geometry": null
    },
    {
      "name": "T\u00fcrkiye Finans",
      "category": [
        "amenity.bank"
      ],
      "lat": 41.0096728,
      "lon": 28.969981,
      "osm_id": 5115939924,
      "osm_type": "node",
      "address": "Tavuk Pazar\u0131 Sokak",
      "road_geometry": null
    },
    {
      "name": "Zeyy Jewelry",
      "category": [
        "shop.jewelry"
      ],
      "lat": 41.0099222,
      "lon": 28.969973,
      "osm_id": 5115939925,
      "osm_type": "node",
      "address": "Nuruosmaniye Caddesi",
      "road_geometry": null
    },
    {
      "name": "\u00c7ar\u015f\u0131kap\u0131 Muhallebicisi 1984",
      "category": [
        "amenity.restaurant"
      ],
      "lat": 41.0099667,
      "lon": 28.9699649,
      "osm_id": 5115939926,
      "osm_type": "node",
      "address": "Nuruosmaniye Caddesi",
      "road_geometry": null
    },
    {
      "name": "Y\u0131ld\u0131z D\u00f6viz",
      "category": [
        "amenity.bureau_de_change"
      ],
      "lat": 41.0101633,
      "lon": 28.9699066,
      "osm_id": 5115939927,
      "osm_type": "node",
      "address": "Nuruosmaniye Caddesi",
      "road_geometry": null
    },
    {
      "name": "Sa\u011flamo\u011flu Alt\u0131n",
      "category": [
        "shop.jewelry"
      ],
      "lat": 41.0102893,
      "lon": 28.9698999,
      "osm_id": 5115939928,
      "osm_type": "node",
      "address": "Nuruosmaniye Caddesi",
      "road_geometry": null
    },
    {
      "name": "Favori",
      "category": [
        "shop.jewelry"
      ],
      "lat": 41.010261,
      "lon": 28.9699052,
      "osm_id": 5115939929,
      "osm_type": "node",
      "address": "Nuruosmaniye Caddesi",
      "road_geometry": null
    },
    {
      "name": "Gilan",
      "category": [
        "shop.jewelry"
      ],
      "lat": 41.0103141,
      "lon": 28.9698936,
      "osm_id": 5115939930,
      "osm_type": "node",
      "address": "Nuruosmaniye Caddesi",
      "road_geometry": null
    },
    {
      "name": "Cetas Kuyumculuk",
      "category": [
        "shop.jewelry"
      ],
      "lat": 41.010374,
      "lon": 28.9698811,
      "osm_id": 5115939932,
      "osm_type": "node",
      "address": "Nuruosmaniye Caddesi",
      "road_geometry": null
    },
    {
      "name": "Ligori GOLD",
      "category": [
        "shop.jewelry"
      ],
      "lat": 41.0106856,
      "lon": 28.9698195,
      "osm_id": 5115939933,
      "osm_type": "node",
      "address": "\u00c7uhac\u0131 Han\u0131 Soka\u011f\u0131",
      "road_geometry": null
    },
    {
      "name": "Baykar",
      "category": [
        "shop.clothes"
      ],
      "lat": 41.0107817,
      "lon": 28.9697739,
      "osm_id": 5115939934,
      "osm_type": "node",
      "address": "\u00c7uhac\u0131 Han\u0131 Soka\u011f\u0131",
      "road_geometry": null
    },
    {
      "name": "Borsa Gold",
      "category": [
        "amenity.bureau_de_change"
      ],
      "lat": 41.0108652,
      "lon": 28.9697289,
      "osm_id": 5115939935,
      "osm_type": "node",
      "address": "\u00c7uhac\u0131 Han\u0131 Soka\u011f\u0131",
      "road_geometry": null
    },
    {
      "name": "Guven Doviz",
      "category": [
        "amenity.bureau_de_change"
      ],
      "lat": 41.0110139,
      "lon": 28.9697055,
      "osm_id": 5115939936,
      "osm_type": "node",
      "address": "\u00c7uhac\u0131 Han\u0131 Soka\u011f\u0131",
      "road_geometry": null
    },
    {
      "name": "Kahraman Silver",
      "category": [
        "shop.jewelry"
      ],
      "lat": 41.0092089,
      "lon": 28.96896,
      "osm_id": 5244806516,
      "osm_type": "node",
      "address": "Bileyciler Sokak",
      "road_geometry": null
    },
    {
      "name": "Ipek Yolu",
      "category": [
        "shop.jewelry"
      ],
      "lat": 41.0091422,
      "lon": 28.9690332,
      "osm_id": 5244806517,
      "osm_type": "node",
      "address": "Bileyciler Sokak",
      "road_geometry": null
    },
    {
      "name": "Ortak Silver",
      "category": [
        "shop.jewelry"
      ],
      "lat": 41.0092922,
      "lon": 28.9690626,
      "osm_id": 5244806518,
      "osm_type": "node",
      "address": "Bileyciler Sokak",
      "road_geometry": null
    },
    {
      "name": "Metin Ayar Evi",
      "category": [
        "shop.jewelry"
      ],
      "lat": 41.0092503,
      "lon": 28.9691341,
      "osm_id": 5244806519,
      "osm_type": "node",
      "address": "Bileyciler Sokak",
      "road_geometry": null
    },
    {
      "name": "Seher Kuyumculuk",
      "category": [
        "shop.jewelry"
      ],
      "lat": 41.0093579,
      "lon": 28.9692271,
      "osm_id": 5244806520,
      "osm_type": "node",
      "address": "Bileyciler Sokak",
      "road_geometry": null
    },
    {
      "name": "Misha Silver",
      "category": [
        "shop.jewelry"
      ],
      "lat": 41.0093878,
      "lon": 28.9691295,
      "osm_id": 5244806721,
      "osm_type": "node",
      "address": "Bileyciler Sokak",
      "road_geometry": null
    },
    {
      "name": "mypatsilver",
      "category": [
        "shop.yes"
      ],
      "lat": 41.0094368,
      "lon": 28.9692872,
      "osm_id": 5244806722,
      "osm_type": "node",
      "address": "Bileyciler Sokak",
      "road_geometry": null
    },
    {
      "name": "K\u0131yam S\u0131lver",
      "category": [
        "shop.jewelry"
      ],
      "lat": 41.0094895,
      "lon": 28.9692168,
      "osm_id": 5244806723,
      "osm_type": "node",
      "address": "Bileyciler Sokak",
      "road_geometry": null
    },
    {
      "name": "Bair Stone",
      "category": [
        "shop.jewelry"
      ],
      "lat": 41.0095891,
      "lon": 28.9692998,
      "osm_id": 5244806724,
      "osm_type": "node",
      "address": "Bileyciler Sokak",
      "road_geometry": null
    },
    {
      "name": "Y\u00fccel B\u00fcfe",
      "category": [
        "amenity.fast_food"
      ],
      "lat": 41.0096964,
      "lon": 28.9693332,
      "osm_id": 5244806725,
      "osm_type": "node",
      "address": "Bileyciler Sokak",
      "road_geometry": null
    },
    {
      "name": "Cmt S\u0131lver",
      "category": [
        "shop.jewelry"
      ],
      "lat": 41.0097443,
      "lon": 28.9694206,
      "osm_id": 5244806726,
      "osm_type": "node",
      "address": "Tavuk Pazar\u0131 Sokak",
      "road_geometry": null
    },
    {
      "name": "\u0130yi Silver Jewelry Store",
      "category": [
        "shop.jewelry"
      ],
      "lat": 41.0096919,
      "lon": 28.969538,
      "osm_id": 5244806727,
      "osm_type": "node",
      "address": "Tavuk Pazar\u0131 Sokak",
      "road_geometry": null
    },
    {
      "name": "R\u00fczgar \u0130nci",
      "category": [
        "shop.jewelry"
      ],
      "lat": 41.0096034,
      "lon": 28.9694207,
      "osm_id": 5244806728,
      "osm_type": "node",
      "address": "K\u00fcrk\u00e7\u00fcler Pazar\u0131 Sokak",
      "road_geometry": null
    },
    {
      "name": "Ci\u011ferci Basri",
      "category": [
        "amenity.fast_food"
      ],
      "lat": 41.0095963,
      "lon": 28.9694795,
      "osm_id": 5244806729,
      "osm_type": "node",
      "address": "K\u00fcrk\u00e7\u00fcler Pazar\u0131 Sokak",
      "road_geometry": null
    },
    {
      "name": "Y\u0131lmaz Ticaret Kuyumcu Malzemeleri",
      "category": [
        "shop.jewelry"
      ],
      "lat": 41.0094419,
      "lon": 28.9694717,
      "osm_id": 5244806730,
      "osm_type": "node",
      "address": "K\u00fcrk\u00e7\u00fcler Pazar\u0131 Sokak",
      "road_geometry": null
    },
    {
      "name": "Isra Silver",
      "category": [
        "shop.jewelry"
      ],
      "lat": 41.0094142,
      "lon": 28.9695301,
      "osm_id": 5244806731,
      "osm_type": "node",
      "address": "K\u00fcrk\u00e7\u00fcler Pazar\u0131 Sokak",
      "road_geometry": null
    },
    {
      "name": "Karde\u015fler K\u00f6ftecisi",
      "category": [
        "amenity.restaurant"
      ],
      "lat": 41.0093304,
      "lon": 28.9694647,
      "osm_id": 5244806732,
      "osm_type": "node",
      "address": "K\u00fcrk\u00e7\u00fcler Pazar\u0131 Sokak",
      "road_geometry": null
    },
    {
      "name": "Akg\u00fcn Silver",
      "category": [
        "shop.jewelry"
      ],
      "lat": 41.0091025,
      "lon": 28.9694333,
      "osm_id": 5244806734,
      "osm_type": "node",
      "address": "K\u00fcrk\u00e7\u00fcler Pazar\u0131 Soka\u011f\u0131",
      "road_geometry": null
    },
    {
      "name": "Sevdik",
      "category": [
        "shop.jewelry"
      ],
      "lat": 41.0092583,
      "lon": 28.9699062,
      "osm_id": 5244806735,
      "osm_type": "node",
      "address": "Mesih Mehmet Pa\u015fa Sokak",
      "road_geometry": null
    },
    {
      "name": "W\u0131ngs S\u0131lver",
      "category": [
        "shop.jewelry"
      ],
      "lat": 41.009156,
      "lon": 28.9699086,
      "osm_id": 5244806736,
      "osm_type": "node",
      "address": "Mesih Mehmet Pa\u015fa Sokak",
      "road_geometry": null
    },
    {
      "name": "Kvs Silver",
      "category": [
        "shop.jewelry"
      ],
      "lat": 41.0091547,
      "lon": 28.9698619,
      "osm_id": 5244806737,
      "osm_type": "node",
      "address": "Mesih Mehmet Pa\u015fa Sokak",
      "road_geometry": null
    },
    {
      "name": "Kutuay Ayarevi",
      "category": [
        "shop.jewelry"
      ],
      "lat": 41.0091873,
      "lon": 28.9696402,
      "osm_id": 5244806738,
      "osm_type": "node",
      "address": "Mesih Mehmet Pa\u015fa Sokak",
      "road_geometry": null
    },
    {
      "name": "arad",
      "category": [
        "shop.jewelry"
      ],
      "lat": 41.0092587,
      "lon": 28.9697798,
      "osm_id": 5244806739,
      "osm_type": "node",
      "address": "Mesih Mehmet Pa\u015fa Sokak",
      "road_geometry": null
    },
    {
      "name": "Ako Silver",
      "category": [
        "shop.jewelry"
      ],
      "lat": 41.009299,
      "lon": 28.9696136,
      "osm_id": 5244806740,
      "osm_type": "node",
      "address": "Mesih Mehmet Pa\u015fa Sokak",
      "road_geometry": null
    },
    {
      "name": "Fehmi Soydan \u00c7ay Oca\u011f\u0131",
      "category": [
        "amenity.cafe"
      ],
      "lat": 41.0094155,
      "lon": 28.9696489,
      "osm_id": 5244806741,
      "osm_type": "node",
      "address": "K\u00fcrk\u00e7\u00fcler Pazar\u0131 Sokak",
      "road_geometry": null
    },
    {
      "name": "Arm P\u0131rlanta",
      "category": [
        "shop.jewelry"
      ],
      "lat": 41.0094941,
      "lon": 28.9696669,
      "osm_id": 5244806742,
      "osm_type": "node",
      "address": "Tavuk Pazar\u0131 Sokak",
      "road_geometry": null
    },
    {
      "name": "Ortaklar",
      "category": [
        "shop.jewelry"
      ],
      "lat": 41.0095582,
      "lon": 28.9696741,
      "osm_id": 5244806743,
      "osm_type": "node",
      "address": "Tavuk Pazar\u0131 Sokak",
      "road_geometry": null
    },
    {
      "name": "Tez ayar evi",
      "category": [
        "shop.electronics"
      ],
      "lat": 41.0095463,
      "lon": 28.9697099,
      "osm_id": 5244806744,
      "osm_type": "node",
      "address": "Tavuk Pazar\u0131 Sokak",
      "road_geometry": null
    },
    {
      "name": "Best Cila",
      "category": [
        "shop.jewelry"
      ],
      "lat": 41.0095445,
      "lon": 28.9698281,
      "osm_id": 5244806745,
      "osm_type": "node",
      "address": "Tavuk Pazar\u0131 Sokak",
      "road_geometry": null
    },
    {
      "name": "Kebap\u00e7\u0131 \u015eahin Usta",
      "category": [
        "amenity.restaurant"
      ],
      "lat": 41.0095262,
      "lon": 28.9699586,
      "osm_id": 5244806746,
      "osm_type": "node",
      "address": "Tavuk Pazar\u0131 Sokak",
      "road_geometry": null
    },
    {
      "name": "Sezer Cila Rodaj",
      "category": [
        "shop.jewelry"
      ],
      "lat": 41.0090874,
      "lon": 28.970421,
      "osm_id": 5244806748,
      "osm_type": "node",
      "address": "Tavuk Pazar\u0131 Sokak",
      "road_geometry": null
    },
    {
      "name": "Karadeniz Pide Salonu",
      "category": [
        "amenity.restaurant"
      ],
      "lat": 41.0091572,
      "lon": 28.9704719,
      "osm_id": 5244806749,
      "osm_type": "node",
      "address": "Tavuk Pazar\u0131 Sokak",
      "road_geometry": null
    },
    {
      "name": "Karamer",
      "category": [
        "shop.jewelry"
      ],
      "lat": 41.0092248,
      "lon": 28.9704774,
      "osm_id": 5244806750,
      "osm_type": "node",
      "address": "Tavuk Pazar\u0131 Sokak",
      "road_geometry": null
    },
    {
      "name": "Kasap Kebap",
      "category": [
        "amenity.restaurant"
      ],
      "lat": 41.0093902,
      "lon": 28.9704379,
      "osm_id": 5244806751,
      "osm_type": "node",
      "address": "Tavuk Pazar\u0131 Sokak",
      "road_geometry": null
    },
    {
      "name": "EHLI KEBAP",
      "category": [
        "amenity.restaurant"
      ],
      "lat": 41.0094467,
      "lon": 28.9703145,
      "osm_id": 5244806752,
      "osm_type": "node",
      "address": "Tavuk Pazar\u0131 Sokak",
      "road_geometry": null
    },
    {
      "name": "Utku Eczanesi",
      "category": [
        "amenity.pharmacy"
      ],
      "lat": 41.0094756,
      "lon": 28.9701742,
      "osm_id": 5244806753,
      "osm_type": "node",
      "address": "Tavuk Pazar\u0131 Sokak",
      "road_geometry": null
    },
    {
      "name": "Jack Pierre",
      "category": [
        "shop.watches"
      ],
      "lat": 41.0093219,
      "lon": 28.9701394,
      "osm_id": 5244806754,
      "osm_type": "node",
      "address": "Atik Ali Pa\u015fa Sokak",
      "road_geometry": null
    },
    {
      "name": "Nusrettaki",
      "category": [
        "shop.jewelry"
      ],
      "lat": 41.0091863,
      "lon": 28.9702451,
      "osm_id": 5244806755,
      "osm_type": "node",
      "address": "Atik Ali Pa\u015fa Sokak",
      "road_geometry": null
    },
    {
      "name": "ASSOS",
      "category": [
        "shop.jewelry"
      ],
      "lat": 41.0090935,
      "lon": 28.9702091,
      "osm_id": 5244806756,
      "osm_type": "node",
      "address": "Atik Ali Pa\u015fa Sokak",
      "road_geometry": null
    },
    {
      "name": "valentine diamond",
      "category": [
        "shop.jewelry"
      ],
      "lat": 41.0090708,
      "lon": 28.9700237,
      "osm_id": 5244806757,
      "osm_type": "node",
      "address": "Atik Ali Pa\u015fa Sokak",
      "road_geometry": null
    },
    {
      "name": "My Dream Silver",
      "category": [
        "shop.jewelry"
      ],
      "lat": 41.0090256,
      "lon": 28.9696712,
      "osm_id": 5244806761,
      "osm_type": "node",
      "address": "Atik Ali Pa\u015fa Sokak",
      "road_geometry": null
    },
    {
      "name": "TAKIDASANAT AT\u00d6LYE",
      "category": [
        "shop.mall"
      ],
      "lat": 41.0092695,
      "lon": 28.9718013,
      "osm_id": 5244806779,
      "osm_type": "node",
      "address": "Vezirhan Caddesi",
      "road_geometry": null
    },
    {
      "name": "Ey\u00fcbo\u011flu",
      "category": [
        "shop.jewelry"
      ],
      "lat": 41.0091083,
      "lon": 28.9713147,
      "osm_id": 5244806782,
      "osm_type": "node",
      "address": "Vezirhan Caddesi",
      "road_geometry": null
    },
    {
      "name": "Dehliz Restaurant",
      "category": [
        "amenity.restaurant"
      ],
      "lat": 41.0092411,
      "lon": 28.9712879,
      "osm_id": 5244806783,
      "osm_type": "node",
      "address": "Vezirhan Caddesi",
      "road_geometry": null
    },
    {
      "name": "KOSEM",
      "category": [
        "amenity.restaurant"
      ],
      "lat": 41.0093688,
      "lon": 28.9712883,
      "osm_id": 5244806784,
      "osm_type": "node",
      "address": "Ali Baba T\u00fcrbe Sokak",
      "road_geometry": null
    },
    {
      "name": "Mescgur Sariyer B\u00f6rek\u00e7isi",
      "category": [
        "amenity.restaurant"
      ],
      "lat": 41.0094124,
      "lon": 28.9712693,
      "osm_id": 5244806785,
      "osm_type": "node",
      "address": "Vezirhan Caddesi",
      "road_geometry": null
    },
    {
      "name": "Prens Leather",
      "category": [
        "shop.clothes"
      ],
      "lat": 41.0094958,
      "lon": 28.971281,
      "osm_id": 5244806786,
      "osm_type": "node",
      "address": "Vezirhan Caddesi",
      "road_geometry": null
    },
    {
      "name": "Bursa G\u00fcl Lokantas\u0131",
      "category": [
        "amenity.restaurant"
      ],
      "lat": 41.0095292,
      "lon": 28.9712379,
      "osm_id": 5244806787,
      "osm_type": "node",
      "address": "Vezirhan Caddesi",
      "road_geometry": null
    },
    {
      "name": "Sirius P\u0131rlanta",
      "category": [
        "shop.jewelry"
      ],
      "lat": 41.0096504,
      "lon": 28.9712532,
      "osm_id": 5244806788,
      "osm_type": "node",
      "address": "Piyer Loti Caddesi",
      "road_geometry": null
    },
    {
      "name": "Somoro",
      "category": [
        "shop.jewelry"
      ],
      "lat": 41.0097086,
      "lon": 28.9712782,
      "osm_id": 5244806789,
      "osm_type": "node",
      "address": "Vezirhan Caddesi",
      "road_geometry": null
    },
    {
      "name": "Regold",
      "category": [
        "shop.jewelry"
      ],
      "lat": 41.0097934,
      "lon": 28.9712475,
      "osm_id": 5244806790,
      "osm_type": "node",
      "address": "Vezirhan Caddesi",
      "road_geometry": null
    },
    {
      "name": "Aslan",
      "category": [
        "amenity.restaurant"
      ],
      "lat": 41.0098134,
      "lon": 28.9712918,
      "osm_id": 5244806791,
      "osm_type": "node",
      "address": "Vezirhan Caddesi",
      "road_geometry": null
    },
    {
      "name": "Hemera",
      "category": [
        "shop.jewelry"
      ],
      "lat": 41.0098994,
      "lon": 28.9712996,
      "osm_id": 5244806792,
      "osm_type": "node",
      "address": "Vezirhan Caddesi",
      "road_geometry": null
    },
    {
      "name": "Fiore Doro",
      "category": [
        "shop.jewelry"
      ],
      "lat": 41.0100754,
      "lon": 28.9713628,
      "osm_id": 5244806793,
      "osm_type": "node",
      "address": "Vezirhan Caddesi",
      "road_geometry": null
    },
    {
      "name": "Ar Y\u0131ld\u0131z",
      "category": [
        "shop.home_good_store"
      ],
      "lat": 41.010055,
      "lon": 28.9715818,
      "osm_id": 5244806794,
      "osm_type": "node",
      "address": "Ali Baba T\u00fcrbe Sokak",
      "road_geometry": null
    },
    {
      "name": "DNR P\u0131rlanta",
      "category": [
        "shop.jewelry"
      ],
      "lat": 41.0100895,
      "lon": 28.9717834,
      "osm_id": 5244806795,
      "osm_type": "node",
      "address": "Nuru Osmaniye Caddesi",
      "road_geometry": null
    },
    {
      "name": "Diamond risus / Istanbul Han",
      "category": [
        "shop.jewelry"
      ],
      "lat": 41.0100554,
      "lon": 28.9717046,
      "osm_id": 5244806796,
      "osm_type": "node",
      "address": "Ali Baba T\u00fcrbe Sokak",
      "road_geometry": null
    },
    {
      "name": "Arma / Istanbul Han",
      "category": [
        "shop.jewelry"
      ],
      "lat": 41.0100055,
      "lon": 28.971689,
      "osm_id": 5244806797,
      "osm_type": "node",
      "address": "Ali Baba T\u00fcrbe Sokak",
      "road_geometry": null
    },
    {
      "name": "By \u0130con",
      "category": [
        "shop.clothes"
      ],
      "lat": 41.0099531,
      "lon": 28.9716725,
      "osm_id": 5244806798,
      "osm_type": "node",
      "address": "Ali Baba T\u00fcrbe Sokak",
      "road_geometry": null
    },
    {
      "name": "Vault karakoy",
      "category": [
        "tourism.hotel"
      ],
      "lat": 41.0098095,
      "lon": 28.9716576,
      "osm_id": 5244806799,
      "osm_type": "node",
      "address": "Ali Baba T\u00fcrbe Sokak",
      "road_geometry": null
    },
    {
      "name": "Punto Hal\u0131",
      "category": [
        "shop.carpet_store"
      ],
      "lat": 41.0096663,
      "lon": 28.9716578,
      "osm_id": 5244806800,
      "osm_type": "node",
      "address": "Gazi Sinan Pa\u015fa Sokak",
      "road_geometry": null
    },
    {
      "name": "Azra Nur",
      "category": [
        "shop.jewelry"
      ],
      "lat": 41.0096959,
      "lon": 28.9718534,
      "osm_id": 5244806801,
      "osm_type": "node",
      "address": "Gazi Sinan Pa\u015fa Sokak",
      "road_geometry": null
    },
    {
      "name": "MAS",
      "category": [
        "shop.jewelry"
      ],
      "lat": 41.0097896,
      "lon": 28.9718474,
      "osm_id": 5244806802,
      "osm_type": "node",
      "address": "Gazi Sinan Pa\u015fa Sokak",
      "road_geometry": null
    },
    {
      "name": "Carina",
      "category": [
        "shop.clothes"
      ],
      "lat": 41.0099814,
      "lon": 28.971345,
      "osm_id": 5244807388,
      "osm_type": "node",
      "address": "Vezirhan Caddesi",
      "road_geometry": null
    },
    {
      "name": "Franco Fontana Jewelry",
      "category": [
        "shop.jewelry"
      ],
      "lat": 41.0096959,
      "lon": 28.9712751,
      "osm_id": 5244807389,
      "osm_type": "node",
      "address": "Vezirhan Caddesi",
      "road_geometry": null
    },
    {
      "name": "ALB D\u00f6viz",
      "category": [
        "amenity.bureau_de_change"
      ],
      "lat": 41.009594,
      "lon": 28.9712684,
      "osm_id": 5244807390,
      "osm_type": "node",
      "address": "Vezirhan Caddesi",
      "road_geometry": null
    },
    {
      "name": "Tahir-\u00f6zden",
      "category": [
        "shop.jewelry"
      ],
      "lat": 41.0094144,
      "lon": 28.9704059,
      "osm_id": 5244807391,
      "osm_type": "node",
      "address": "Tavuk Pazar\u0131 sokak",
      "road_geometry": null
    },
    {
      "name": "Ottoman et Mangal",
      "category": [
        "amenity.restaurant"
      ],
      "lat": 41.0096823,
      "lon": 28.9701504,
      "osm_id": 5244807392,
      "osm_type": "node",
      "address": "\u00c7ar\u015f\u0131kap\u0131 Nuruosmaniye Caddesi",
      "road_geometry": null
    },
    {
      "name": "Tarihi Sof\u00e7uhan Muhallebicisi",
      "category": [
        "amenity.restaurant"
      ],
      "lat": 41.0097996,
      "lon": 28.9699626,
      "osm_id": 5244807393,
      "osm_type": "node",
      "address": "\u00c7ar\u015f\u0131kap\u0131 Nuruosmaniye Caddesi",
      "road_geometry": null
    },
    {
      "name": "S\u00fcti\u015f Special",
      "category": [
        "amenity.restaurant"
      ],
      "lat": 41.0099544,
      "lon": 28.9700533,
      "osm_id": 5244807394,
      "osm_type": "node",
      "address": "\u00c7ar\u015f\u0131kap\u0131 Nuruosmaniye Caddesi",
      "road_geometry": null
    },
    {
      "name": "Y\u0131ld\u0131z D\u00f6viz",
      "category": [
        "amenity.bureau_de_change"
      ],
      "lat": 41.0102361,
      "lon": 28.9698893,
      "osm_id": 5244807396,
      "osm_type": "node",
      "address": "\u00c7ar\u015f\u0131kap\u0131 Nuruosmaniye Caddesi",
      "road_geometry": null
    },
    {
      "name": "Suulin M\u00fccevherat",
      "category": [
        "shop.jewelry"
      ],
      "lat": 41.0104029,
      "lon": 28.9698751,
      "osm_id": 5244807398,
      "osm_type": "node",
      "address": "\u00c7ar\u015f\u0131kap\u0131 Nuruosmaniye Caddesi",
      "road_geometry": null
    },
    {
      "name": "Sade Art M\u00f6nt\u00fcr",
      "category": [
        "shop.jewelry"
      ],
      "lat": 41.0108414,
      "lon": 28.9707102,
      "osm_id": 5244807399,
      "osm_type": "node",
      "address": "K\u0131l\u0131\u00e7c\u0131lar Soka\u011f\u0131",
      "road_geometry": null
    },
    {
      "name": "meshur kokorecci erding usta",
      "category": [
        "shop.jewelry"
      ],
      "lat": 41.0108336,
      "lon": 28.9706054,
      "osm_id": 5244807400,
      "osm_type": "node",
      "address": "K\u0131l\u0131\u00e7c\u0131lar Soka\u011f\u0131",
      "road_geometry": null
    },
    {
      "name": "Melek Devli",
      "category": [
        "shop.jewelry"
      ],
      "lat": 41.0107994,
      "lon": 28.970546,
      "osm_id": 5244807401,
      "osm_type": "node",
      "address": "K\u0131l\u0131\u00e7c\u0131lar Soka\u011f\u0131",
      "road_geometry": null
    },
    {
      "name": "Vejetaryen Mutfak",
      "category": [
        "amenity.restaurant"
      ],
      "lat": 41.0107748,
      "lon": 28.9703903,
      "osm_id": 5244807402,
      "osm_type": "node",
      "address": "K\u0131l\u0131\u00e7c\u0131lar Soka\u011f\u0131",
      "road_geometry": null
    },
    {
      "name": "Tarihi Suba\u015f\u0131 Lokantas\u0131",
      "category": [
        "amenity.restaurant"
      ],
      "lat": 41.0106207,
      "lon": 28.9699663,
      "osm_id": 5244807403,
      "osm_type": "node",
      "address": "\u00c7ar\u015f\u0131kap\u0131 Nuruosmaniye Caddesi",
      "road_geometry": null
    },
    {
      "name": "Deniz Babu\u00e7 P\u0131rlanta",
      "category": [
        "shop.jewelry"
      ],
      "lat": 41.0107168,
      "lon": 28.9700933,
      "osm_id": 5244807404,
      "osm_type": "node",
      "address": "K\u0131l\u0131\u00e7c\u0131lar Soka\u011f\u0131",
      "road_geometry": null
    },
    {
      "name": "D\u00f6nerci \u015eahin Usta",
      "category": [
        "amenity.restaurant"
      ],
      "lat": 41.010689,
      "lon": 28.9700096,
      "osm_id": 5244807405,
      "osm_type": "node",
      "address": "K\u0131l\u0131\u00e7c\u0131lar Soka\u011f\u0131",
      "road_geometry": null
    },
    {
      "name": "Ligori GOLD",
      "category": [
        "shop.jewelry"
      ],
      "lat": 41.0106783,
      "lon": 28.9698814,
      "osm_id": 5244807406,
      "osm_type": "node",
      "address": "\u00c7uhac\u0131 Han\u0131 Soka\u011f\u0131",
      "road_geometry": null
    },
    {
      "name": "\u0130\u011fneci Hac\u0131 Hasana\u011fa \u00c7uhac\u0131 Han Mescidi",
      "category": [
        "amenity.place_of_worship"
      ],
      "lat": 41.0108394,
      "lon": 28.9699449,
      "osm_id": 5244807407,
      "osm_type": "node",
      "address": "\u00c7uhac\u0131 Han\u0131 Soka\u011f\u0131",
      "road_geometry": null
    },
    {
      "name": "Yusuf Baysal Kuyumculuk",
      "category": [
        "shop.jewelry"
      ],
      "lat": 41.0108308,
      "lon": 28.9697955,
      "osm_id": 5244807408,
      "osm_type": "node",
      "address": "\u00c7uhac\u0131 Han\u0131 Soka\u011f\u0131",
      "road_geometry": null
    },
    {
      "name": "Ekol Kuyumculuk",
      "category": [
        "shop.jewelry"
      ],
      "lat": 41.0109182,
      "lon": 28.969776,
      "osm_id": 5244807409,
      "osm_type": "node",
      "address": "\u00c7uhac\u0131 Han\u0131 Soka\u011f\u0131",
      "road_geometry": null
    },
    {
      "name": "Kuveyt T\u00fcrk",
      "category": [
        "amenity.bank"
      ],
      "lat": 41.0111881,
      "lon": 28.9697492,
      "osm_id": 5244807410,
      "osm_type": "node",
      "address": "Mahmutpa\u015fa Yoku\u015fu",
      "road_geometry": null
    },
    {
      "name": "D\u00fcr\u00fcmc\u00fc \u00d6mer Usta",
      "category": [
        "amenity.restaurant"
      ],
      "lat": 41.0111933,
      "lon": 28.9707987,
      "osm_id": 5244807923,
      "osm_type": "node",
      "address": "K\u00fc\u00e7\u00fcky\u0131ld\u0131z Han\u0131 Soka\u011f\u0131",
      "road_geometry": null
    },
    {
      "name": "I\u015f\u0131klar Etek",
      "category": [
        "shop.clothes"
      ],
      "lat": 41.0112302,
      "lon": 28.9706815,
      "osm_id": 5244807924,
      "osm_type": "node",
      "address": "K\u00fc\u00e7\u00fcky\u0131ld\u0131z Han\u0131 Soka\u011f\u0131",
      "road_geometry": null
    },
    {
      "name": "Halis Giyim",
      "category": [
        "shop.clothes"
      ],
      "lat": 41.011117,
      "lon": 28.9707233,
      "osm_id": 5244807925,
      "osm_type": "node",
      "address": "K\u00fc\u00e7\u00fcky\u0131ld\u0131z Han\u0131 Soka\u011f\u0131",
      "road_geometry": null
    },
    {
      "name": "Cottonh\u0131ll",
      "category": [
        "shop.clothes"
      ],
      "lat": 41.0111137,
      "lon": 28.9708284,
      "osm_id": 5244807926,
      "osm_type": "node",
      "address": "K\u00fc\u00e7\u00fcky\u0131ld\u0131z Han\u0131 Soka\u011f\u0131",
      "road_geometry": null
    },
    {
      "name": "Sercan Jewelry",
      "category": [
        "shop.jewelry"
      ],
      "lat": 41.0109097,
      "lon": 28.9704674,
      "osm_id": 5244807927,
      "osm_type": "node",
      "address": "K\u00fc\u00e7\u00fckY\u0131ld\u0131z Han Sokak",
      "road_geometry": null
    },
    {
      "name": "Kent Alyans",
      "category": [
        "shop.jewelry"
      ],
      "lat": 41.0108963,
      "lon": 28.970595,
      "osm_id": 5244807928,
      "osm_type": "node",
      "address": "K\u00fc\u00e7\u00fckY\u0131ld\u0131z Han Sokak",
      "road_geometry": null
    },
    {
      "name": "\u00d6ks\u00fczler",
      "category": [
        "shop.clothes"
      ],
      "lat": 41.0110294,
      "lon": 28.9708795,
      "osm_id": 5244807929,
      "osm_type": "node",
      "address": "K\u00fc\u00e7\u00fcky\u0131ld\u0131z Han\u0131 Soka\u011f\u0131",
      "road_geometry": null
    },
    {
      "name": "Baha Tekstil",
      "category": [
        "shop.clothes"
      ],
      "lat": 41.0109513,
      "lon": 28.970813,
      "osm_id": 5244807930,
      "osm_type": "node",
      "address": "K\u00fc\u00e7\u00fcky\u0131ld\u0131z Han\u0131 Soka\u011f\u0131",
      "road_geometry": null
    },
    {
      "name": "Angels Story",
      "category": [
        "shop.clothes"
      ],
      "lat": 41.0108953,
      "lon": 28.9708388,
      "osm_id": 5244807931,
      "osm_type": "node",
      "address": "K\u00fc\u00e7\u00fcky\u0131ld\u0131z Han\u0131 Soka\u011f\u0131",
      "road_geometry": null
    },
    {
      "name": "D\u00fcr\u00fcmc\u00fc Raif Usta",
      "category": [
        "amenity.restaurant"
      ],
      "lat": 41.0109619,
      "lon": 28.9709452,
      "osm_id": 5244807932,
      "osm_type": "node",
      "address": "K\u00fc\u00e7\u00fcky\u0131ld\u0131z Han\u0131 Soka\u011f\u0131",
      "road_geometry": null
    },
    {
      "name": "Roberto Bravo",
      "category": [
        "shop.jewelry"
      ],
      "lat": 41.0108905,
      "lon": 28.9709636,
      "osm_id": 5244807933,
      "osm_type": "node",
      "address": "Vezirhan Caddesi",
      "road_geometry": null
    },
    {
      "name": "Gianni Diamond",
      "category": [
        "shop.jewelry"
      ],
      "lat": 41.0107083,
      "lon": 28.9711689,
      "osm_id": 5244807934,
      "osm_type": "node",
      "address": "\u015eerefefendi Soka\u011f\u0131",
      "road_geometry": null
    },
    {
      "name": "Kilisli D\u00f6nerci",
      "category": [
        "amenity.fast_food"
      ],
      "lat": 41.0108667,
      "lon": 28.9707809,
      "osm_id": 5244807935,
      "osm_type": "node",
      "address": "K\u0131l\u0131\u00e7c\u0131lar Soka\u011f\u0131",
      "road_geometry": null
    },
    {
      "name": "Inan Kuyumculuk",
      "category": [
        "shop.jewelry"
      ],
      "lat": 41.010726,
      "lon": 28.9711406,
      "osm_id": 5244807936,
      "osm_type": "node",
      "address": "Vezirhan Caddesi",
      "road_geometry": null
    },
    {
      "name": "Kamer B\u00fcfe 2",
      "category": [
        "amenity.fast_food"
      ],
      "lat": 41.0106757,
      "lon": 28.9712106,
      "osm_id": 5244807937,
      "osm_type": "node",
      "address": "Vezirhan Caddesi",
      "road_geometry": null
    },
    {
      "name": "Nuruosmaniye Kutuphanesi",
      "category": [
        "amenity.library"
      ],
      "lat": 41.0105893,
      "lon": 28.9710102,
      "osm_id": 5244807938,
      "osm_type": "node",
      "address": "Vezirhan Caddesi",
      "road_geometry": null
    },
    {
      "name": "B\u00f6rekci Cemil Usta",
      "category": [
        "amenity.fast_food"
      ],
      "lat": 41.0104164,
      "lon": 28.9713494,
      "osm_id": 5244807939,
      "osm_type": "node",
      "address": "Vezirhan Caddesi",
      "road_geometry": null
    },
    {
      "name": "\u0130HSAN BAKIR JEWELLERY",
      "category": [
        "shop.jewelry"
      ],
      "lat": 41.0105369,
      "lon": 28.9712434,
      "osm_id": 5244807940,
      "osm_type": "node",
      "address": "\u015eerefefendi Soka\u011f\u0131",
      "road_geometry": null
    },
    {
      "name": "Teknosis Bili\u015fim ve Yaz\u0131c\u0131 Bak\u0131m Onar\u0131m Hizmetleri",
      "category": [
        "shop.computer"
      ],
      "lat": 41.0105397,
      "lon": 28.9714113,
      "osm_id": 5244807941,
      "osm_type": "node",
      "address": "\u015eerefefendi Soka\u011f\u0131",
      "road_geometry": null
    },
    {
      "name": "Figaro",
      "category": [
        "shop.jewelry"
      ],
      "lat": 41.0105537,
      "lon": 28.9715173,
      "osm_id": 5244807942,
      "osm_type": "node",
      "address": "\u015eerefefendi Soka\u011f\u0131",
      "road_geometry": null
    },
    {
      "name": "Karis Mucevherat",
      "category": [
        "shop.jewelry"
      ],
      "lat": 41.0105504,
      "lon": 28.9716944,
      "osm_id": 5244807943,
      "osm_type": "node",
      "address": "\u015eerefefendi Soka\u011f\u0131",
      "road_geometry": null
    },
    {
      "name": "Am Diamond",
      "category": [
        "shop.jewelry"
      ],
      "lat": 41.0105664,
      "lon": 28.9718853,
      "osm_id": 5244807945,
      "osm_type": "node",
      "address": "\u015eerefefendi Soka\u011f\u0131",
      "road_geometry": null
    },
    {
      "name": "Alrayan Restaurant",
      "category": [
        "amenity.restaurant"
      ],
      "lat": 41.0096924,
      "lon": 28.9691233,
      "osm_id": 5244807965,
      "osm_type": "node",
      "address": "K\u00fcrk\u00e7\u00fcler Kap\u0131s\u0131 Sokak",
      "road_geometry": null
    },
    {
      "name": "Marco Shain Leather",
      "category": [
        "shop.clothes"
      ],
      "lat": 41.0094954,
      "lon": 28.9691417,
      "osm_id": 5244807966,
      "osm_type": "node",
      "address": "K\u00fcrk\u00e7\u00fcler Kap\u0131s\u0131 Sokak",
      "road_geometry": null
    },
    {
      "name": "Erdal Yald\u0131z",
      "category": [
        "shop.jewelry"
      ],
      "lat": 41.0095926,
      "lon": 28.969216,
      "osm_id": 5244807967,
      "osm_type": "node",
      "address": "K\u00fcrk\u00e7\u00fcler Kap\u0131s\u0131 Sokak",
      "road_geometry": null
    },
    {
      "name": "G\u00fclsal",
      "category": [
        "shop.clothes"
      ],
      "lat": 41.0112181,
      "lon": 28.9696961,
      "osm_id": 5244811469,
      "osm_type": "node",
      "address": "Mahmutpa\u015fa Yoku\u015fu",
      "road_geometry": null
    },
    {
      "name": "Fahri Usta",
      "category": [
        "amenity.restaurant"
      ],
      "lat": 41.0111857,
      "lon": 28.9693503,
      "osm_id": 5244811471,
      "osm_type": "node",
      "address": "Mahmutpa\u015fa Yoku\u015fu",
      "road_geometry": null
    },
    {
      "name": "Nadir D\u00f6viz",
      "category": [
        "amenity.bureau_de_change"
      ],
      "lat": 41.0111536,
      "lon": 28.9691176,
      "osm_id": 5244811473,
      "osm_type": "node",
      "address": "Mahmutpa\u015fa Yoku\u015fu",
      "road_geometry": null
    },
    {
      "name": "KOKORE\u00c7\u00c7\u0130",
      "category": [
        "amenity.fast_food"
      ],
      "lat": 41.0106711,
      "lon": 28.9704631,
      "osm_id": 5340499425,
      "osm_type": "node",
      "address": null,
      "road_geometry": null
    },
    {
      "name": "Denizbank",
      "category": [
        "amenity.bank"
      ],
      "lat": 41.0102629,
      "lon": 28.9719262,
      "osm_id": 5489351425,
      "osm_type": "node",
      "address": null,
      "road_geometry": null
    },
    {
      "name": "cat",
      "category": [
        "shop.toys"
      ],
      "lat": 41.0091961,
      "lon": 28.9713694,
      "osm_id": 6753771086,
      "osm_type": "node",
      "address": null,
      "road_geometry": null
    },
    {
      "name": "Lida Diamond",
      "category": [
        "shop.jewelry"
      ],
      "lat": 41.0101129,
      "lon": 28.9718739,
      "osm_id": 8411437690,
      "osm_type": "node",
      "address": "Nur-u Osmaniye Caddesi",
      "road_geometry": null
    },
    {
      "name": "Jival",
      "category": [
        "shop.jewelry"
      ],
      "lat": 41.009396,
      "lon": 28.9713193,
      "osm_id": 8482221310,
      "osm_type": "node",
      "address": "Vezirhan Caddesi",
      "road_geometry": null
    },
    {
      "name": "D\u00fcr\u00fcmc\u00fc Mustafa",
      "category": [
        "amenity.cafe"
      ],
      "lat": 41.010671,
      "lon": 28.9710149,
      "osm_id": 9322091018,
      "osm_type": "node",
      "address": "Vezirhan\u0131 Caddesi",
      "road_geometry": null
    },
    {
      "name": "Erse Teknik",
      "category": [
        "shop.jewelry"
      ],
      "lat": 41.0094483,
      "lon": 28.969194,
      "osm_id": 10996440905,
      "osm_type": "node",
      "address": "Bileyciler Soka\u011f\u0131",
      "road_geometry": null
    },
    {
      "name": "Tanatar Jean Guise",
      "category": [
        "shop.leather"
      ],
      "lat": 41.0099534,
      "lon": 28.9692364,
      "osm_id": 11193904101,
      "osm_type": "node",
      "address": "Terziba\u015f\u0131 Soka\u011f\u0131",
      "road_geometry": null
    },
    {
      "name": "Bena Ice Cream",
      "category": [
        "amenity.ice_cream"
      ],
      "lat": 41.0091245,
      "lon": 28.9702155,
      "osm_id": 11212829444,
      "osm_type": "node",
      "address": null,
      "road_geometry": null
    },
    {
      "name": "Sirius Coin",
      "category": [
        "amenity.money_transfer"
      ],
      "lat": 41.0101016,
      "lon": 28.9711748,
      "osm_id": 11377657571,
      "osm_type": "node",
      "address": null,
      "road_geometry": null
    },
    {
      "name": "NURUOSMAN\u0130YE K\u00dcLL\u0130YES\u0130",
      "category": [
        "tourism.information"
      ],
      "lat": 41.0101002,
      "lon": 28.9701339,
      "osm_id": 11812158197,
      "osm_type": "node",
      "address": null,
      "road_geometry": null
    },
    {
      "name": "916 Plus",
      "category": [
        "shop.jewelry"
      ],
      "lat": 41.0098007,
      "lon": 28.9717192,
      "osm_id": 12110313478,
      "osm_type": "node",
      "address": "Gazi Sinanpa\u015fa Soka\u011f\u0131",
      "road_geometry": null
    },
    {
      "name": "Naksiler",
      "category": [
        "shop.jewelry"
      ],
      "lat": 41.010075,
      "lon": 28.9696034,
      "osm_id": 13186922860,
      "osm_type": "node",
      "address": null,
      "road_geometry": null
    },
    {
      "name": "Nur",
      "category": [
        "shop.carpet"
      ],
      "lat": 41.0102391,
      "lon": 28.9711726,
      "osm_id": 13186922868,
      "osm_type": "node",
      "address": null,
      "road_geometry": null
    },
    {
      "name": "Nevi",
      "category": [
        "shop.confectionery"
      ],
      "lat": 41.0100726,
      "lon": 28.9696556,
      "osm_id": 13186922869,
      "osm_type": "node",
      "address": null,
      "road_geometry": null
    },
    {
      "name": "Liebe",
      "category": [
        "shop.jewelry"
      ],
      "lat": 41.0100783,
      "lon": 28.9695786,
      "osm_id": 13186922870,
      "osm_type": "node",
      "address": null,
      "road_geometry": null
    },
    {
      "name": "Zeki",
      "category": [
        "shop.clothes"
      ],
      "lat": 41.010087,
      "lon": 28.9695169,
      "osm_id": 13186922872,
      "osm_type": "node",
      "address": null,
      "road_geometry": null
    },
    {
      "name": "Select Silver",
      "category": [
        "shop.jewelry"
      ],
      "lat": 41.0100908,
      "lon": 28.9694839,
      "osm_id": 13186922873,
      "osm_type": "node",
      "address": null,
      "road_geometry": null
    },
    {
      "name": "Cappuccino",
      "category": [
        "shop.bag"
      ],
      "lat": 41.0100922,
      "lon": 28.9694406,
      "osm_id": 13186922874,
      "osm_type": "node",
      "address": null,
      "road_geometry": null
    },
    {
      "name": "Levent",
      "category": [
        "shop.jewelry"
      ],
      "lat": 41.0100836,
      "lon": 28.9695456,
      "osm_id": 13186922875,
      "osm_type": "node",
      "address": null,
      "road_geometry": null
    },
    {
      "name": "Ramazan Canbaz",
      "category": [
        "shop.spices"
      ],
      "lat": 41.0100937,
      "lon": 28.9693853,
      "osm_id": 13186922876,
      "osm_type": "node",
      "address": null,
      "road_geometry": null
    },
    {
      "name": "Tolga Silver",
      "category": [
        "shop.jewelry"
      ],
      "lat": 41.0101566,
      "lon": 28.9693802,
      "osm_id": 13186922877,
      "osm_type": "node",
      "address": null,
      "road_geometry": null
    },
    {
      "name": "SiM",
      "category": [
        "shop.jewelry"
      ],
      "lat": 41.0101028,
      "lon": 28.9692657,
      "osm_id": 13186922878,
      "osm_type": "node",
      "address": null,
      "road_geometry": null
    },
    {
      "name": "SiM gold",
      "category": [
        "shop.jewelry"
      ],
      "lat": 41.010183,
      "lon": 28.9693401,
      "osm_id": 13186922879,
      "osm_type": "node",
      "address": null,
      "road_geometry": null
    },
    {
      "name": "Cappuccino",
      "category": [
        "shop.bag"
      ],
      "lat": 41.0101004,
      "lon": 28.9691213,
      "osm_id": 13186922880,
      "osm_type": "node",
      "address": null,
      "road_geometry": null
    },
    {
      "name": "Borsa Gold",
      "category": [
        "shop.jewelry"
      ],
      "lat": 41.0101782,
      "lon": 28.9690457,
      "osm_id": 13186922881,
      "osm_type": "node",
      "address": null,
      "road_geometry": null
    }
  ]
}