{
  "image": "dataset/images/570.png",
  "center_lat": 41.0123873873874,
  "center_lon": 28.973431480837224,
  "bbox": [
    28.971939094077534,
    41.011261261261275,
    28.974923867596917,
    41.01351351351353
  ],
  "unique_categories": [
    "shop.library",
    "shop.shipment",
    "amenity.restaurant",
    "amenity.school",
    "shop.electronics",
    "amenity.cafe",
    "shop.copyshop",
    "shop.craft",
    "amenity.fast_food",
    "tourism.viewpoint",
    "tourism.hotel",
    "shop.clothes"
  ],
  "poi_count_per_category": {
    "shop.library": 1,
    "shop.shipment": 2,
    "amenity.restaurant": 1,
    "amenity.school": 3,
    "shop.electronics": 1,
    "amenity.cafe": 1,
    "shop.copyshop": 2,
    "shop.craft": 1,
    "amenity.fast_food": 2,
    "tourism.viewpoint": 1,
    "tourism.hotel": 2,
    "shop.clothes": 58
  },
  "poi_count": 75,
  "pois": [
    {
      "name": "\u0130stanbul \u00c7a\u011fda\u015f Okul / Hasan KARADEN\u0130Z",
      "category": [
        "amenity.school"
      ],
      "lat": 41.0133247,
      "lon": 28.9746699,
      "osm_id": 5108838356,
      "osm_type": "node",
      "address": "Ankara Caddesi",
      "road_geometry": null
    },
    {
      "name": "Zawa fashion",
      "category": [
        "shop.clothes"
      ],
      "lat": 41.0129855,
      "lon": 28.9749173,
      "osm_id": 5110345097,
      "osm_type": "node",
      "address": "\u00c7akalo\u011flu yk\u015f",
      "road_geometry": null
    },
    {
      "name": "Serhend kitabevi",
      "category": [
        "shop.library"
      ],
      "lat": 41.0130968,
      "lon": 28.9748026,
      "osm_id": 5110345098,
      "osm_type": "node",
      "address": "\u00c7akalo\u011flu yk\u015f",
      "road_geometry": null
    },
    {
      "name": "Ozalp k\u0131rtasiye",
      "category": [
        "shop.copyshop"
      ],
      "lat": 41.0131834,
      "lon": 28.9747862,
      "osm_id": 5110345099,
      "osm_type": "node",
      "address": "\u00c7akalo\u011flu yk\u015f",
      "road_geometry": null
    },
    {
      "name": "Meyvex",
      "category": [
        "amenity.fast_food"
      ],
      "lat": 41.0132823,
      "lon": 28.9747042,
      "osm_id": 5110345100,
      "osm_type": "node",
      "address": "\u00c7akalo\u011flu yk\u015f",
      "road_geometry": null
    },
    {
      "name": "Ak han",
      "category": [
        "shop.clothes"
      ],
      "lat": 41.0134818,
      "lon": 28.9726084,
      "osm_id": 5110345373,
      "osm_type": "node",
      "address": "Hoca Hani Soka\u011f\u0131",
      "road_geometry": null
    },
    {
      "name": "Elfaro",
      "category": [
        "shop.clothes"
      ],
      "lat": 41.0134394,
      "lon": 28.9726459,
      "osm_id": 5110345374,
      "osm_type": "node",
      "address": "Hoca Hani Soka\u011f\u0131",
      "road_geometry": null
    },
    {
      "name": "Ajn",
      "category": [
        "shop.clothes"
      ],
      "lat": 41.0134253,
      "lon": 28.9726646,
      "osm_id": 5110345375,
      "osm_type": "node",
      "address": "Hoca Hani Soka\u011f\u0131",
      "road_geometry": null
    },
    {
      "name": "Baharo\u011flu \u00fcniforma",
      "category": [
        "shop.clothes"
      ],
      "lat": 41.0134041,
      "lon": 28.9727208,
      "osm_id": 5110345376,
      "osm_type": "node",
      "address": "Hoca Hani Soka\u011f\u0131",
      "road_geometry": null
    },
    {
      "name": "Baby nedo",
      "category": [
        "shop.clothes"
      ],
      "lat": 41.0133758,
      "lon": 28.9727769,
      "osm_id": 5110345377,
      "osm_type": "node",
      "address": "Hoca Hani Soka\u011f\u0131",
      "road_geometry": null
    },
    {
      "name": "Pembe boncuk",
      "category": [
        "shop.clothes"
      ],
      "lat": 41.0133405,
      "lon": 28.9728143,
      "osm_id": 5110345378,
      "osm_type": "node",
      "address": "Hoca Hani Soka\u011f\u0131",
      "road_geometry": null
    },
    {
      "name": "\u015eura",
      "category": [
        "shop.clothes"
      ],
      "lat": 41.0132911,
      "lon": 28.9728518,
      "osm_id": 5110345379,
      "osm_type": "node",
      "address": "Hoca Hani Soka\u011f\u0131",
      "road_geometry": null
    },
    {
      "name": "Melek i\u015f han\u0131",
      "category": [
        "shop.clothes"
      ],
      "lat": 41.0133052,
      "lon": 28.9727769,
      "osm_id": 5110345380,
      "osm_type": "node",
      "address": "Hoca Hani Soka\u011f\u0131",
      "road_geometry": null
    },
    {
      "name": "Baki",
      "category": [
        "shop.clothes"
      ],
      "lat": 41.0133572,
      "lon": 28.9728141,
      "osm_id": 5110345381,
      "osm_type": "node",
      "address": "Hoca Hani Soka\u011f\u0131",
      "road_geometry": null
    },
    {
      "name": "Alt\u0131nlar",
      "category": [
        "shop.clothes"
      ],
      "lat": 41.0132277,
      "lon": 28.9728999,
      "osm_id": 5110345382,
      "osm_type": "node",
      "address": "Hoca Hani Soka\u011f\u0131",
      "road_geometry": null
    },
    {
      "name": "Mng kargo",
      "category": [
        "shop.shipment"
      ],
      "lat": 41.0132251,
      "lon": 28.9739341,
      "osm_id": 5110345625,
      "osm_type": "node",
      "address": "Cemal nadir sokak",
      "road_geometry": null
    },
    {
      "name": "Aras kargo",
      "category": [
        "shop.shipment"
      ],
      "lat": 41.0131559,
      "lon": 28.9740371,
      "osm_id": 5110345626,
      "osm_type": "node",
      "address": "Cemal nadir sokak",
      "road_geometry": null
    },
    {
      "name": "\u0130elev \u00f6zel ortaokul",
      "category": [
        "amenity.school"
      ],
      "lat": 41.0127723,
      "lon": 28.9741796,
      "osm_id": 5110345627,
      "osm_type": "node",
      "address": "Cemal nadir sokak",
      "road_geometry": null
    },
    {
      "name": "Y\u00fcksel kuma\u015f",
      "category": [
        "shop.clothes"
      ],
      "lat": 41.0127929,
      "lon": 28.9743705,
      "osm_id": 5110345628,
      "osm_type": "node",
      "address": "Cemal nadir sokak",
      "road_geometry": null
    },
    {
      "name": "Yazar hotel",
      "category": [
        "tourism.hotel"
      ],
      "lat": 41.0127105,
      "lon": 28.9745342,
      "osm_id": 5110345629,
      "osm_type": "node",
      "address": "Cemal nadir sokak",
      "road_geometry": null
    },
    {
      "name": "Ayd\u0131nlar elektrik",
      "category": [
        "shop.electronics"
      ],
      "lat": 41.0120931,
      "lon": 28.974916,
      "osm_id": 5110345631,
      "osm_type": "node",
      "address": "\u00c7akalo\u011flu yk\u015f",
      "road_geometry": null
    },
    {
      "name": "\u00d6z \u00e7\u0131pa fotokopi",
      "category": [
        "shop.copyshop"
      ],
      "lat": 41.0118461,
      "lon": 28.9749024,
      "osm_id": 5110345633,
      "osm_type": "node",
      "address": "\u00c7akalo\u011flu yk\u015f",
      "road_geometry": null
    },
    {
      "name": "Zirve b\u00fcfe",
      "category": [
        "amenity.cafe"
      ],
      "lat": 41.0119079,
      "lon": 28.9748069,
      "osm_id": 5110345634,
      "osm_type": "node",
      "address": "\u00c7akalo\u011flu yk\u015f",
      "road_geometry": null
    },
    {
      "name": "Huma",
      "category": [
        "shop.clothes"
      ],
      "lat": 41.0131306,
      "lon": 28.9719772,
      "osm_id": 5111212241,
      "osm_type": "node",
      "address": "Necip Efendi Soka\u011f\u0131",
      "road_geometry": null
    },
    {
      "name": "Berrak",
      "category": [
        "shop.clothes"
      ],
      "lat": 41.012912,
      "lon": 28.9720631,
      "osm_id": 5111212242,
      "osm_type": "node",
      "address": "Necip Efendi Soka\u011f\u0131",
      "road_geometry": null
    },
    {
      "name": "Mimcorap",
      "category": [
        "shop.clothes"
      ],
      "lat": 41.0126934,
      "lon": 28.9720416,
      "osm_id": 5111212243,
      "osm_type": "node",
      "address": "Necip Efendi Soka\u011f\u0131",
      "road_geometry": null
    },
    {
      "name": "Bersel underwear",
      "category": [
        "shop.clothes"
      ],
      "lat": 41.0125315,
      "lon": 28.9721274,
      "osm_id": 5111212244,
      "osm_type": "node",
      "address": "Necip Efendi Soka\u011f\u0131",
      "road_geometry": null
    },
    {
      "name": "Ozkan underwear",
      "category": [
        "shop.clothes"
      ],
      "lat": 41.0124343,
      "lon": 28.9720845,
      "osm_id": 5111212245,
      "osm_type": "node",
      "address": "Necip Efendi Soka\u011f\u0131",
      "road_geometry": null
    },
    {
      "name": "Ak giyim",
      "category": [
        "shop.clothes"
      ],
      "lat": 41.0123048,
      "lon": 28.9726156,
      "osm_id": 5111212246,
      "osm_type": "node",
      "address": "Sultan Mektebi Soka\u011f\u0131",
      "road_geometry": null
    },
    {
      "name": "\u0130lke",
      "category": [
        "shop.clothes"
      ],
      "lat": 41.0123169,
      "lon": 28.9723313,
      "osm_id": 5111212247,
      "osm_type": "node",
      "address": "Sultan Mektebi Soka\u011f\u0131",
      "road_geometry": null
    },
    {
      "name": "Cottonhill",
      "category": [
        "shop.clothes"
      ],
      "lat": 41.0122805,
      "lon": 28.972106,
      "osm_id": 5111212248,
      "osm_type": "node",
      "address": "Sultan Mektebi Soka\u011f\u0131",
      "road_geometry": null
    },
    {
      "name": "Cesme",
      "category": [
        "tourism.viewpoint"
      ],
      "lat": 41.0116571,
      "lon": 28.9719397,
      "osm_id": 5111212264,
      "osm_type": "node",
      "address": "Bezciler Soka\u011f\u0131",
      "road_geometry": null
    },
    {
      "name": "Ymz",
      "category": [
        "shop.clothes"
      ],
      "lat": 41.0117057,
      "lon": 28.9720631,
      "osm_id": 5111212265,
      "osm_type": "node",
      "address": "Bezciler Soka\u011f\u0131",
      "road_geometry": null
    },
    {
      "name": "Arzu",
      "category": [
        "shop.clothes"
      ],
      "lat": 41.0116652,
      "lon": 28.9722562,
      "osm_id": 5111212266,
      "osm_type": "node",
      "address": "Celal Ferdi G\u00f6k\u00e7ay Soka\u011f\u0131",
      "road_geometry": null
    },
    {
      "name": "Furcu",
      "category": [
        "shop.clothes"
      ],
      "lat": 41.0116571,
      "lon": 28.97246,
      "osm_id": 5111212267,
      "osm_type": "node",
      "address": "Celal Ferdi G\u00f6k\u00e7ay Soka\u011f\u0131",
      "road_geometry": null
    },
    {
      "name": "Farel",
      "category": [
        "shop.clothes"
      ],
      "lat": 41.0116571,
      "lon": 28.9726371,
      "osm_id": 5111212268,
      "osm_type": "node",
      "address": "Celal Ferdi G\u00f6k\u00e7ay Soka\u011f\u0131",
      "road_geometry": null
    },
    {
      "name": "Seher yildizi",
      "category": [
        "shop.clothes"
      ],
      "lat": 41.011645,
      "lon": 28.9728731,
      "osm_id": 5111212269,
      "osm_type": "node",
      "address": "Celal Ferdi G\u00f6k\u00e7ay Soka\u011f\u0131",
      "road_geometry": null
    },
    {
      "name": "\u0130krem",
      "category": [
        "shop.clothes"
      ],
      "lat": 41.0115681,
      "lon": 28.9734793,
      "osm_id": 5111212270,
      "osm_type": "node",
      "address": "Celal Ferdi G\u00f6k\u00e7ay Soka\u011f\u0131",
      "road_geometry": null
    },
    {
      "name": "Baymatas",
      "category": [
        "shop.clothes"
      ],
      "lat": 41.0115924,
      "lon": 28.9735222,
      "osm_id": 5111212272,
      "osm_type": "node",
      "address": "Turk ocagi caddesi",
      "road_geometry": null
    },
    {
      "name": "Sarihan",
      "category": [
        "shop.clothes"
      ],
      "lat": 41.0118152,
      "lon": 28.9733529,
      "osm_id": 5111212273,
      "osm_type": "node",
      "address": "Turk ocagi caddesi",
      "road_geometry": null
    },
    {
      "name": "Safa",
      "category": [
        "shop.clothes"
      ],
      "lat": 41.0119687,
      "lon": 28.9731645,
      "osm_id": 5111212274,
      "osm_type": "node",
      "address": "Turk ocagi caddesi",
      "road_geometry": null
    },
    {
      "name": "Asorti",
      "category": [
        "shop.clothes"
      ],
      "lat": 41.012151,
      "lon": 28.9730716,
      "osm_id": 5111212275,
      "osm_type": "node",
      "address": "Turk ocagi caddesi",
      "road_geometry": null
    },
    {
      "name": "Elegans",
      "category": [
        "shop.clothes"
      ],
      "lat": 41.0123858,
      "lon": 28.9729214,
      "osm_id": 5111212276,
      "osm_type": "node",
      "address": "Turk ocagi caddesi",
      "road_geometry": null
    },
    {
      "name": "Samamra nil",
      "category": [
        "shop.clothes"
      ],
      "lat": 41.0125153,
      "lon": 28.9729214,
      "osm_id": 5111212277,
      "osm_type": "node",
      "address": "Hoca hani sokak",
      "road_geometry": null
    },
    {
      "name": "Guler Bebe",
      "category": [
        "shop.clothes"
      ],
      "lat": 41.0126934,
      "lon": 28.9729643,
      "osm_id": 5111212278,
      "osm_type": "node",
      "address": "Hoca hani sokak",
      "road_geometry": null
    },
    {
      "name": "Soymen",
      "category": [
        "shop.clothes"
      ],
      "lat": 41.0128877,
      "lon": 28.9729643,
      "osm_id": 5111212279,
      "osm_type": "node",
      "address": "Hoca hani sokak",
      "road_geometry": null
    },
    {
      "name": "Digil kids",
      "category": [
        "shop.clothes"
      ],
      "lat": 41.0131872,
      "lon": 28.9728355,
      "osm_id": 5111212280,
      "osm_type": "node",
      "address": "Hoca hani sokak",
      "road_geometry": null
    },
    {
      "name": "Rustem pasa medresesi",
      "category": [
        "amenity.school"
      ],
      "lat": 41.0130496,
      "lon": 28.9725995,
      "osm_id": 5111212281,
      "osm_type": "node",
      "address": null,
      "road_geometry": null
    },
    {
      "name": "Altinlar",
      "category": [
        "shop.clothes"
      ],
      "lat": 41.0133006,
      "lon": 28.9728141,
      "osm_id": 5111212283,
      "osm_type": "node",
      "address": "Hoca hani sokak",
      "road_geometry": null
    },
    {
      "name": "Baharoglu",
      "category": [
        "shop.clothes"
      ],
      "lat": 41.013422,
      "lon": 28.9726853,
      "osm_id": 5111212284,
      "osm_type": "node",
      "address": "Hoca hani sokak",
      "road_geometry": null
    },
    {
      "name": "Ajn",
      "category": [
        "shop.clothes"
      ],
      "lat": 41.0134787,
      "lon": 28.972621,
      "osm_id": 5111212285,
      "osm_type": "node",
      "address": "Hoca hani sokak",
      "road_geometry": null
    },
    {
      "name": "\u00c7e\u015fme D\u00f6ner B\u00fcfe",
      "category": [
        "amenity.restaurant"
      ],
      "lat": 41.0114936,
      "lon": 28.9720578,
      "osm_id": 5244805710,
      "osm_type": "node",
      "address": "Bezciler Soka\u011f\u0131",
      "road_geometry": null
    },
    {
      "name": "Sezici Giyim Etek",
      "category": [
        "shop.clothes"
      ],
      "lat": 41.0112883,
      "lon": 28.9724111,
      "osm_id": 5244805829,
      "osm_type": "node",
      "address": "Adem Yavuz Soka\u011f\u0131",
      "road_geometry": null
    },
    {
      "name": "G\u00fcl Beria Giy\u0131m",
      "category": [
        "shop.clothes"
      ],
      "lat": 41.0113681,
      "lon": 28.9723866,
      "osm_id": 5244805830,
      "osm_type": "node",
      "address": "Adem Yavuz Soka\u011f\u0131",
      "road_geometry": null
    },
    {
      "name": "N\u0130HLE G\u0130Y\u0130M",
      "category": [
        "shop.clothes"
      ],
      "lat": 41.011547,
      "lon": 28.972595,
      "osm_id": 5244805831,
      "osm_type": "node",
      "address": "Celal Ferdi G\u00f6k\u00e7ay Soka\u011f\u0131",
      "road_geometry": null
    },
    {
      "name": "Kurt \u0130\u015f Han\u0131",
      "category": [
        "shop.clothes"
      ],
      "lat": 41.0115438,
      "lon": 28.9728994,
      "osm_id": 5244805832,
      "osm_type": "node",
      "address": "Celal Ferdi G\u00f6k\u00e7ay Soka\u011f\u0131",
      "road_geometry": null
    },
    {
      "name": "Miss Alize",
      "category": [
        "shop.clothes"
      ],
      "lat": 41.0112934,
      "lon": 28.9729673,
      "osm_id": 5244805833,
      "osm_type": "node",
      "address": "Arif Pa\u015fa Sokak",
      "road_geometry": null
    },
    {
      "name": "Arda B\u00fcfe",
      "category": [
        "amenity.fast_food"
      ],
      "lat": 41.0113682,
      "lon": 28.9727263,
      "osm_id": 5244805834,
      "osm_type": "node",
      "address": "Arif Pa\u015fa Sokak",
      "road_geometry": null
    },
    {
      "name": "\u00d6z \u0130klim Collection",
      "category": [
        "shop.clothes"
      ],
      "lat": 41.0113742,
      "lon": 28.9728881,
      "osm_id": 5244805835,
      "osm_type": "node",
      "address": "Arif Pa\u015fa Sokak",
      "road_geometry": null
    },
    {
      "name": "Mersa Triko",
      "category": [
        "shop.clothes"
      ],
      "lat": 41.011286,
      "lon": 28.9728016,
      "osm_id": 5244805836,
      "osm_type": "node",
      "address": "Arif Pa\u015fa Sokak",
      "road_geometry": null
    },
    {
      "name": "Moda Perfect",
      "category": [
        "shop.clothes"
      ],
      "lat": 41.0112916,
      "lon": 28.9732053,
      "osm_id": 5244805847,
      "osm_type": "node",
      "address": "Selvili Mescid Soka\u011f\u0131",
      "road_geometry": null
    },
    {
      "name": "Telvin",
      "category": [
        "shop.clothes"
      ],
      "lat": 41.0113498,
      "lon": 28.9731933,
      "osm_id": 5244805848,
      "osm_type": "node",
      "address": "Selvili Mescid Soka\u011f\u0131",
      "road_geometry": null
    },
    {
      "name": "Lisse",
      "category": [
        "shop.clothes"
      ],
      "lat": 41.0114335,
      "lon": 28.9731816,
      "osm_id": 5244805849,
      "osm_type": "node",
      "address": "Selvili Mescid Soka\u011f\u0131",
      "road_geometry": null
    },
    {
      "name": "Dimaz",
      "category": [
        "shop.clothes"
      ],
      "lat": 41.0113122,
      "lon": 28.9731017,
      "osm_id": 5244805850,
      "osm_type": "node",
      "address": "Selvili Mescid Soka\u011f\u0131",
      "road_geometry": null
    },
    {
      "name": "Ege Triko",
      "category": [
        "shop.clothes"
      ],
      "lat": 41.0113757,
      "lon": 28.9730861,
      "osm_id": 5244805851,
      "osm_type": "node",
      "address": "Selvili Mescid Soka\u011f\u0131",
      "road_geometry": null
    },
    {
      "name": "Do\u011fa Triko",
      "category": [
        "shop.clothes"
      ],
      "lat": 41.0115039,
      "lon": 28.9730806,
      "osm_id": 5244805852,
      "osm_type": "node",
      "address": "Selvili Mescid Soka\u011f\u0131",
      "road_geometry": null
    },
    {
      "name": "Hac\u0131lar Miss H\u00fcrrem",
      "category": [
        "shop.clothes"
      ],
      "lat": 41.011574,
      "lon": 28.9732277,
      "osm_id": 5244805853,
      "osm_type": "node",
      "address": "Celal Ferdi G\u00f6k\u00e7ay Soka\u011f\u0131",
      "road_geometry": null
    },
    {
      "name": "Miss Ya\u011fmur Giyim",
      "category": [
        "shop.clothes"
      ],
      "lat": 41.0115555,
      "lon": 28.9734423,
      "osm_id": 5244805854,
      "osm_type": "node",
      "address": "Celal Ferdi G\u00f6k\u00e7ay Soka\u011f\u0131",
      "road_geometry": null
    },
    {
      "name": "Tiken Giyim",
      "category": [
        "shop.clothes"
      ],
      "lat": 41.0115435,
      "lon": 28.9735348,
      "osm_id": 5244805855,
      "osm_type": "node",
      "address": "Celal Ferdi G\u00f6k\u00e7ay Soka\u011f\u0131",
      "road_geometry": null
    },
    {
      "name": "Elegance Fam",
      "category": [
        "shop.clothes"
      ],
      "lat": 41.0114649,
      "lon": 28.9735907,
      "osm_id": 5244805856,
      "osm_type": "node",
      "address": "T\u00fcrk Oca\u011f\u0131 Caddesi",
      "road_geometry": null
    },
    {
      "name": "Mis Mira",
      "category": [
        "shop.clothes"
      ],
      "lat": 41.0114449,
      "lon": 28.9737173,
      "osm_id": 5244805857,
      "osm_type": "node",
      "address": "T\u00fcrk Oca\u011f\u0131 Caddesi",
      "road_geometry": null
    },
    {
      "name": "Basdes Jewellery",
      "category": [
        "shop.craft"
      ],
      "lat": 41.0113938,
      "lon": 28.9738022,
      "osm_id": 5244805859,
      "osm_type": "node",
      "address": "T\u00fcrk Oca\u011f\u0131 Caddesi",
      "road_geometry": null
    },
    {
      "name": "Kesire",
      "category": [
        "shop.clothes"
      ],
      "lat": 41.0112965,
      "lon": 28.9739224,
      "osm_id": 5244805860,
      "osm_type": "node",
      "address": "T\u00fcrk Oca\u011f\u0131 Caddesi",
      "road_geometry": null
    },
    {
      "name": "Moda Feyza",
      "category": [
        "shop.clothes"
      ],
      "lat": 41.0112663,
      "lon": 28.9739816,
      "osm_id": 5244805861,
      "osm_type": "node",
      "address": "T\u00fcrk Oca\u011f\u0131 Caddesi",
      "road_geometry": null
    },
    {
      "name": "Central Hotel",
      "category": [
        "tourism.hotel"
      ],
      "lat": 41.0126215,
      "lon": 28.9747971,
      "osm_id": 12338777501,
      "osm_type": "node",
      "address": "Cemal Nadir Soka\u011f\u0131",
      "road_geometry": null
    }
  ]
}