{
  "image": "dataset/images/577.png",
  "center_lat": 41.014639639639654,
  "center_lon": 28.961492437779157,
  "bbox": [
    28.96,
    41.01351351351353,
    28.962984875558313,
    41.015765765765785
  ],
  "unique_categories": [
    "shop.tailor",
    "amenity.restaurant",
    "amenity.pharmacy",
    "amenity.library",
    "shop.bakery",
    "amenity.cafe",
    "amenity.university",
    "shop.copyshop",
    "shop.travel_agency",
    "amenity.fast_food",
    "shop.supermarket",
    "shop.hairdresser",
    "tourism.hotel",
    "amenity.dormitory",
    "shop.clothes",
    "amenity.language_school"
  ],
  "poi_count_per_category": {
    "shop.tailor": 1,
    "amenity.restaurant": 1,
    "amenity.pharmacy": 1,
    "amenity.library": 3,
    "shop.bakery": 1,
    "amenity.cafe": 5,
    "amenity.university": 3,
    "shop.copyshop": 1,
    "shop.travel_agency": 1,
    "amenity.fast_food": 1,
    "shop.supermarket": 2,
    "shop.hairdresser": 1,
    "tourism.hotel": 1,
    "amenity.dormitory": 1,
    "shop.clothes": 5,
    "amenity.language_school": 1
  },
  "poi_count": 29,
  "pois": [
    {
      "name": "\u00dcniversite Eczanesi",
      "category": [
        "amenity.pharmacy"
      ],
      "lat": 41.0146823,
      "lon": 28.9627066,
      "osm_id": 4828993454,
      "osm_type": "node",
      "address": "S\u00fcleymaniye Caddesi",
      "road_geometry": null
    },
    {
      "name": "Vefakar",
      "category": [
        "amenity.cafe"
      ],
      "lat": 41.0135176,
      "lon": 28.9605379,
      "osm_id": 5053701523,
      "osm_type": "node",
      "address": "Cemal Yener Tosyal\u0131 Caddesi",
      "road_geometry": null
    },
    {
      "name": "Istanbul foreign student affairs",
      "category": [
        "amenity.university"
      ],
      "lat": 41.0135642,
      "lon": 28.9613307,
      "osm_id": 5100116239,
      "osm_type": "node",
      "address": null,
      "road_geometry": null
    },
    {
      "name": "k\u0131smet g\u0131da",
      "category": [
        "shop.bakery"
      ],
      "lat": 41.0143445,
      "lon": 28.9600445,
      "osm_id": 5110342144,
      "osm_type": "node",
      "address": "Ta\u015ftekneler Soka\u011f\u0131",
      "road_geometry": null
    },
    {
      "name": "Anit kafe",
      "category": [
        "amenity.cafe"
      ],
      "lat": 41.0147983,
      "lon": 28.9604124,
      "osm_id": 5110342145,
      "osm_type": "node",
      "address": "Kayserili Ahmetpa\u015fa Soka\u011f\u0131",
      "road_geometry": null
    },
    {
      "name": "S\u00fcleymaniye K\u0131z Yurdu",
      "category": [
        "amenity.dormitory"
      ],
      "lat": 41.0135535,
      "lon": 28.9608667,
      "osm_id": 5110342146,
      "osm_type": "node",
      "address": null,
      "road_geometry": null
    },
    {
      "name": "pide cafe bestro",
      "category": [
        "amenity.cafe"
      ],
      "lat": 41.0135413,
      "lon": 28.9611351,
      "osm_id": 5110342153,
      "osm_type": "node",
      "address": "Kirazl\u0131 Mescit Soka\u011f\u0131",
      "road_geometry": null
    },
    {
      "name": "S\u00fcleymaniye cicim kuaf\u00f6r",
      "category": [
        "shop.hairdresser"
      ],
      "lat": 41.0135811,
      "lon": 28.9611615,
      "osm_id": 5110342154,
      "osm_type": "node",
      "address": "Kirazl\u0131 Mescit Soka\u011f\u0131",
      "road_geometry": null
    },
    {
      "name": "Okerler teksitle",
      "category": [
        "shop.clothes"
      ],
      "lat": 41.0136508,
      "lon": 28.9611615,
      "osm_id": 5110342155,
      "osm_type": "node",
      "address": "Kirazl\u0131 Mescit Soka\u011f\u0131",
      "road_geometry": null
    },
    {
      "name": "Song\u00fcl giyim",
      "category": [
        "shop.clothes"
      ],
      "lat": 41.0146859,
      "lon": 28.9611879,
      "osm_id": 5110342156,
      "osm_type": "node",
      "address": "Kirazl\u0131 Mescit Soka\u011f\u0131",
      "road_geometry": null
    },
    {
      "name": "mordem",
      "category": [
        "shop.copyshop"
      ],
      "lat": 41.0147555,
      "lon": 28.9611879,
      "osm_id": 5110342157,
      "osm_type": "node",
      "address": "Kirazl\u0131 Mescit Soka\u011f\u0131",
      "road_geometry": null
    },
    {
      "name": "\u0130stanbul \u00fcniversitesi yabanc\u0131 diller okulu",
      "category": [
        "amenity.language_school"
      ],
      "lat": 41.0153726,
      "lon": 28.9608977,
      "osm_id": 5110342158,
      "osm_type": "node",
      "address": "Kirazl\u0131 mescit sokak",
      "road_geometry": null
    },
    {
      "name": "Mimari Rota Turizm",
      "category": [
        "shop.travel_agency"
      ],
      "lat": 41.0156589,
      "lon": 28.9614169,
      "osm_id": 5111205408,
      "osm_type": "node",
      "address": "\u015eifahane Caddesi",
      "road_geometry": null
    },
    {
      "name": "Eslina",
      "category": [
        "shop.clothes"
      ],
      "lat": 41.0148522,
      "lon": 28.9620235,
      "osm_id": 5113486797,
      "osm_type": "node",
      "address": "Ay\u015fekad\u0131n Hamam\u0131 Soka\u011f\u0131",
      "road_geometry": null
    },
    {
      "name": "Ad\u0131yaman gida",
      "category": [
        "shop.supermarket"
      ],
      "lat": 41.0149151,
      "lon": 28.9619901,
      "osm_id": 5113486798,
      "osm_type": "node",
      "address": "Ay\u015fekad\u0131n Hamam\u0131 Soka\u011f\u0131",
      "road_geometry": null
    },
    {
      "name": "S\u00fcleymaniye gida",
      "category": [
        "shop.supermarket"
      ],
      "lat": 41.0151667,
      "lon": 28.9623256,
      "osm_id": 5113486799,
      "osm_type": "node",
      "address": "Ay\u015fekad\u0131n Hamam\u0131 Soka\u011f\u0131",
      "road_geometry": null
    },
    {
      "name": "Eka kuma\u015f",
      "category": [
        "shop.clothes"
      ],
      "lat": 41.0152154,
      "lon": 28.9624761,
      "osm_id": 5113486801,
      "osm_type": "node",
      "address": "Ay\u015fekad\u0131n Hamam\u0131 Soka\u011f\u0131",
      "road_geometry": null
    },
    {
      "name": "Hasan o\u011flu",
      "category": [
        "amenity.fast_food"
      ],
      "lat": 41.0147268,
      "lon": 28.9627436,
      "osm_id": 5113486802,
      "osm_type": "node",
      "address": "S\u00fcleymaniye Caddesi",
      "road_geometry": null
    },
    {
      "name": "Coffee Gutta",
      "category": [
        "amenity.cafe"
      ],
      "lat": 41.0145877,
      "lon": 28.9625912,
      "osm_id": 5113486804,
      "osm_type": "node",
      "address": "S\u00fcleymaniye Caddesi",
      "road_geometry": null
    },
    {
      "name": "\u0130stanbul \u00fcniversitesi sa\u011fl\u0131k k\u00fclt\u00fcr ve spor daire ba\u015fkanl\u0131\u011f\u0131",
      "category": [
        "amenity.university"
      ],
      "lat": 41.0142547,
      "lon": 28.962058,
      "osm_id": 5113486805,
      "osm_type": "node",
      "address": "S\u00fcleymaniye Caddesi",
      "road_geometry": null
    },
    {
      "name": "Nazl\u0131 g\u00fcl",
      "category": [
        "shop.clothes"
      ],
      "lat": 41.0139018,
      "lon": 28.9617479,
      "osm_id": 5113486806,
      "osm_type": "node",
      "address": "S\u00fcleymaniye Caddesi",
      "road_geometry": null
    },
    {
      "name": "\u00d6zen",
      "category": [
        "amenity.library"
      ],
      "lat": 41.0136428,
      "lon": 28.9615015,
      "osm_id": 5113486807,
      "osm_type": "node",
      "address": "S\u00fcleymaniye Caddesi",
      "road_geometry": null
    },
    {
      "name": "Ahmet kitap evi",
      "category": [
        "amenity.library"
      ],
      "lat": 41.0135897,
      "lon": 28.9614135,
      "osm_id": 5113486808,
      "osm_type": "node",
      "address": "S\u00fcleymaniye Caddesi",
      "road_geometry": null
    },
    {
      "name": "Geylani tekstil",
      "category": [
        "shop.tailor"
      ],
      "lat": 41.0142113,
      "lon": 28.9613208,
      "osm_id": 5113487033,
      "osm_type": "node",
      "address": "Kirazl\u0131 Mescit Soka\u011f\u0131",
      "road_geometry": null
    },
    {
      "name": "\u0130stanbul yabanc\u0131 diller b\u00f6l\u00fcm\u00fc",
      "category": [
        "amenity.university"
      ],
      "lat": 41.0154953,
      "lon": 28.9613724,
      "osm_id": 5348257413,
      "osm_type": "node",
      "address": null,
      "road_geometry": null
    },
    {
      "name": "S\u00fcleymaniye Coffee House",
      "category": [
        "amenity.cafe"
      ],
      "lat": 41.0157504,
      "lon": 28.9619763,
      "osm_id": 6939653172,
      "osm_type": "node",
      "address": null,
      "road_geometry": null
    },
    {
      "name": "Beydagi",
      "category": [
        "amenity.restaurant"
      ],
      "lat": 41.0157263,
      "lon": 28.9628873,
      "osm_id": 6939659398,
      "osm_type": "node",
      "address": null,
      "road_geometry": null
    },
    {
      "name": "S\u00fcleymaniye K\u00fct\u00fcphanesi",
      "category": [
        "amenity.library"
      ],
      "lat": 41.0155414,
      "lon": 28.9627011,
      "osm_id": 10936628562,
      "osm_type": "node",
      "address": null,
      "road_geometry": null
    },
    {
      "name": "Solomon's Mansion Hotel",
      "category": [
        "tourism.hotel"
      ],
      "lat": 41.0148626,
      "lon": 28.9611668,
      "osm_id": 12769362201,
      "osm_type": "node",
      "address": "Kirazl\u0131 Mescit Soka\u011f\u0131",
      "road_geometry": null
    }
  ]
}