{
  "image": "dataset/images/583.png",
  "center_lat": 41.014639639639654,
  "center_lon": 28.979401691129027,
  "bbox": [
    28.97790925334987,
    41.01351351351353,
    28.980894128908183,
    41.015765765765785
  ],
  "unique_categories": [
    "shop.bag",
    "shop.convenience",
    "railway.subway_entrance",
    "shop.beauty",
    "amenity.restaurant",
    "shop.gift",
    "shop.electronics",
    "amenity.cafe",
    "railway.stop",
    "shop.travel_agency",
    "railway.station",
    "shop.car_repair",
    "tourism.hostel",
    "amenity.fast_food",
    "tourism.hotel",
    "tourism.attraction",
    "shop.art",
    "amenity.police"
  ],
  "poi_count_per_category": {
    "shop.bag": 1,
    "shop.convenience": 1,
    "railway.subway_entrance": 1,
    "shop.beauty": 1,
    "amenity.restaurant": 6,
    "shop.gift": 2,
    "shop.electronics": 1,
    "amenity.cafe": 5,
    "railway.stop": 2,
    "shop.travel_agency": 1,
    "railway.station": 1,
    "shop.car_repair": 1,
    "tourism.hostel": 1,
    "amenity.fast_food": 1,
    "tourism.hotel": 15,
    "tourism.attraction": 1,
    "shop.art": 1,
    "amenity.police": 1
  },
  "poi_count": 42,
  "pois": [
    {
      "name": "Orka Royal Hotel",
      "category": [
        "tourism.hotel"
      ],
      "lat": 41.0142537,
      "lon": 28.9781493,
      "osm_id": 2927878650,
      "osm_type": "node",
      "address": "Dar\u00fcssade Sokak",
      "road_geometry": null
    },
    {
      "name": "Belta\u015f Cafe and Restaurant",
      "category": [
        "amenity.cafe"
      ],
      "lat": 41.0140481,
      "lon": 28.9806118,
      "osm_id": 3499179015,
      "osm_type": "node",
      "address": null,
      "road_geometry": null
    },
    {
      "name": "Gulhanepark Hotel",
      "category": [
        "tourism.hotel"
      ],
      "lat": 41.013855,
      "lon": 28.9789993,
      "osm_id": 3556260143,
      "osm_type": "node",
      "address": null,
      "road_geometry": null
    },
    {
      "name": "Can Restaurant ve Cafe",
      "category": [
        "amenity.cafe"
      ],
      "lat": 41.0139195,
      "lon": 28.977935,
      "osm_id": 5108828626,
      "osm_type": "node",
      "address": "N\u00f6bethane caddesi",
      "road_geometry": null
    },
    {
      "name": "Yeni Hotel",
      "category": [
        "tourism.hotel"
      ],
      "lat": 41.0139806,
      "lon": 28.9780062,
      "osm_id": 5108828627,
      "osm_type": "node",
      "address": "Dervisler Soka\u011f\u0131",
      "road_geometry": null
    },
    {
      "name": "Ney Ocakba\u015f\u0131",
      "category": [
        "amenity.restaurant"
      ],
      "lat": 41.0137778,
      "lon": 28.9783775,
      "osm_id": 5108828631,
      "osm_type": "node",
      "address": "Dar\u00fcssade Sokak",
      "road_geometry": null
    },
    {
      "name": "G\u00fclhane Park Hotel",
      "category": [
        "tourism.hotel"
      ],
      "lat": 41.0138488,
      "lon": 28.9786593,
      "osm_id": 5108828633,
      "osm_type": "node",
      "address": "N\u00f6bethane caddesi",
      "road_geometry": null
    },
    {
      "name": "Hotel Amara Old City",
      "category": [
        "tourism.hotel"
      ],
      "lat": 41.0141036,
      "lon": 28.9781094,
      "osm_id": 5108828634,
      "osm_type": "node",
      "address": "N\u00f6bethane caddesi",
      "road_geometry": null
    },
    {
      "name": "Asko\u00e7",
      "category": [
        "tourism.hotel"
      ],
      "lat": 41.0145493,
      "lon": 28.9780214,
      "osm_id": 5108828657,
      "osm_type": "node",
      "address": "\u0130stasyon Arkas\u0131 Soka\u011f\u0131",
      "road_geometry": null
    },
    {
      "name": "Felicity spa",
      "category": [
        "shop.beauty"
      ],
      "lat": 41.0145001,
      "lon": 28.9779362,
      "osm_id": 5108828658,
      "osm_type": "node",
      "address": "\u0130stasyon Arkas\u0131 Soka\u011f\u0131",
      "road_geometry": null
    },
    {
      "name": "Barbera Boutique Hotel",
      "category": [
        "tourism.hotel"
      ],
      "lat": 41.0144901,
      "lon": 28.9782251,
      "osm_id": 5108828659,
      "osm_type": "node",
      "address": null,
      "road_geometry": null
    },
    {
      "name": "Old City Garden Restaurant",
      "category": [
        "amenity.restaurant"
      ],
      "lat": 41.0141767,
      "lon": 28.9784254,
      "osm_id": 5108828662,
      "osm_type": "node",
      "address": "Dar\u00fcssade Sokak",
      "road_geometry": null
    },
    {
      "name": "Dream Bosphorus",
      "category": [
        "tourism.hotel"
      ],
      "lat": 41.0147245,
      "lon": 28.9791489,
      "osm_id": 5108828663,
      "osm_type": "node",
      "address": "Kum meydan\u0131 Sokak",
      "road_geometry": null
    },
    {
      "name": "Hotel Emek",
      "category": [
        "tourism.hotel"
      ],
      "lat": 41.0145447,
      "lon": 28.9789617,
      "osm_id": 5108828664,
      "osm_type": "node",
      "address": "Kum meydan\u0131 Sokak",
      "road_geometry": null
    },
    {
      "name": "Golden Horn Istanbul",
      "category": [
        "tourism.hotel"
      ],
      "lat": 41.0146745,
      "lon": 28.9789526,
      "osm_id": 5108828665,
      "osm_type": "node",
      "address": "\u0130stasyon Arkas\u0131 Soka\u011f\u0131",
      "road_geometry": null
    },
    {
      "name": "Tayahatun Hotel",
      "category": [
        "tourism.hotel"
      ],
      "lat": 41.0140865,
      "lon": 28.9791337,
      "osm_id": 5108828666,
      "osm_type": "node",
      "address": "Taya Hatun Caddesi-Kum meydan\u0131 Sokak",
      "road_geometry": null
    },
    {
      "name": "Bosphorus Family Old City Hotel",
      "category": [
        "tourism.hotel"
      ],
      "lat": 41.0141952,
      "lon": 28.9791557,
      "osm_id": 5108828667,
      "osm_type": "node",
      "address": "Taya Hatun Caddesi",
      "road_geometry": null
    },
    {
      "name": "Sur Pans\u0131yon ve Host",
      "category": [
        "tourism.hostel"
      ],
      "lat": 41.0142932,
      "lon": 28.9791324,
      "osm_id": 5108828668,
      "osm_type": "node",
      "address": "Taya Hatun Caddesi",
      "road_geometry": null
    },
    {
      "name": "Sayeban Gold",
      "category": [
        "tourism.hotel"
      ],
      "lat": 41.0146015,
      "lon": 28.9791455,
      "osm_id": 5108828669,
      "osm_type": "node",
      "address": "Kum meydan\u0131 Sokak",
      "road_geometry": null
    },
    {
      "name": "Sirkeci Polis Merkezi",
      "category": [
        "amenity.police"
      ],
      "lat": 41.0147427,
      "lon": 28.9792636,
      "osm_id": 5108828670,
      "osm_type": "node",
      "address": "\u0130stasyon Arkas\u0131 Soka\u011f\u0131",
      "road_geometry": null
    },
    {
      "name": "Meg Hotel",
      "category": [
        "tourism.hotel"
      ],
      "lat": 41.0147702,
      "lon": 28.979367,
      "osm_id": 5108828671,
      "osm_type": "node",
      "address": "Istasyon Arkas\u0131 Soka\u011f\u0131",
      "road_geometry": null
    },
    {
      "name": "II. Abd\u00fclhamit \u00c7e\u015fmesi",
      "category": [
        "tourism.attraction"
      ],
      "lat": 41.0147801,
      "lon": 28.9790412,
      "osm_id": 5108828672,
      "osm_type": "node",
      "address": "Taya Hatun Caddesi",
      "road_geometry": null
    },
    {
      "name": "My seka cafe",
      "category": [
        "amenity.cafe"
      ],
      "lat": 41.0145649,
      "lon": 28.9796353,
      "osm_id": 5113620696,
      "osm_type": "node",
      "address": "Tayahatun sokak",
      "road_geometry": null
    },
    {
      "name": "G\u00fclhane cafe & resturant",
      "category": [
        "amenity.restaurant"
      ],
      "lat": 41.0141562,
      "lon": 28.9793609,
      "osm_id": 5113620697,
      "osm_type": "node",
      "address": "Tayahatun sokak",
      "road_geometry": null
    },
    {
      "name": "Romantic apart hotel",
      "category": [
        "amenity.restaurant",
        "tourism.hotel"
      ],
      "lat": 41.0140605,
      "lon": 28.9792998,
      "osm_id": 5113620698,
      "osm_type": "node",
      "address": "Tayahatun sokak",
      "road_geometry": null
    },
    {
      "name": "Pizza de lavia",
      "category": [
        "amenity.fast_food"
      ],
      "lat": 41.0138873,
      "lon": 28.9791763,
      "osm_id": 5113620700,
      "osm_type": "node",
      "address": "Tayahatun sokak",
      "road_geometry": null
    },
    {
      "name": "Aksu market",
      "category": [
        "shop.convenience"
      ],
      "lat": 41.0138508,
      "lon": 28.9791609,
      "osm_id": 5113620701,
      "osm_type": "node",
      "address": "Tayahatun sokak",
      "road_geometry": null
    },
    {
      "name": "Big Family",
      "category": [
        "amenity.restaurant"
      ],
      "lat": 41.0138163,
      "lon": 28.9791085,
      "osm_id": 5113620702,
      "osm_type": "node",
      "address": "Tayahatun sokak",
      "road_geometry": null
    },
    {
      "name": "Ganyan cafe",
      "category": [
        "amenity.cafe"
      ],
      "lat": 41.0137666,
      "lon": 28.9790749,
      "osm_id": 5113620703,
      "osm_type": "node",
      "address": "Tayahatun sokak",
      "road_geometry": null
    },
    {
      "name": "Galata leather",
      "category": [
        "shop.bag"
      ],
      "lat": 41.0137312,
      "lon": 28.9790534,
      "osm_id": 5113620704,
      "osm_type": "node",
      "address": "Tayahatun sokak",
      "road_geometry": null
    },
    {
      "name": "Galria rugs",
      "category": [
        "shop.gift"
      ],
      "lat": 41.0137018,
      "lon": 28.9790305,
      "osm_id": 5113620705,
      "osm_type": "node",
      "address": "Tayahatun sokak",
      "road_geometry": null
    },
    {
      "name": "\u0130stanbul Ottoman art",
      "category": [
        "shop.art"
      ],
      "lat": 41.0136622,
      "lon": 28.9790049,
      "osm_id": 5113620706,
      "osm_type": "node",
      "address": "Tayahatun sokak",
      "road_geometry": null
    },
    {
      "name": "Oriental \u015fal gift shop",
      "category": [
        "shop.gift"
      ],
      "lat": 41.0136262,
      "lon": 28.97897,
      "osm_id": 5113620707,
      "osm_type": "node",
      "address": "Tayahatun sokak",
      "road_geometry": null
    },
    {
      "name": "Ford",
      "category": [
        "shop.car_repair"
      ],
      "lat": 41.0145157,
      "lon": 28.9791419,
      "osm_id": 6900642350,
      "osm_type": "node",
      "address": null,
      "road_geometry": null
    },
    {
      "name": "Sirkeci",
      "category": [
        "railway.subway_entrance"
      ],
      "lat": 41.0136432,
      "lon": 28.9779742,
      "osm_id": 7703025827,
      "osm_type": "node",
      "address": null,
      "road_geometry": null
    },
    {
      "name": "OTO Ergin Navimex",
      "category": [
        "shop.electronics"
      ],
      "lat": 41.0146023,
      "lon": 28.9782715,
      "osm_id": 9782808311,
      "osm_type": "node",
      "address": "Dar\u00fcssade Soka\u011f\u0131",
      "road_geometry": null
    },
    {
      "name": "Rock Town Travel",
      "category": [
        "shop.travel_agency"
      ],
      "lat": 41.0140782,
      "lon": 28.9783517,
      "osm_id": 9782808312,
      "osm_type": "node",
      "address": "Dar\u00fcssade Soka\u011f\u0131",
      "road_geometry": null
    },
    {
      "name": "Green Garden Cafe",
      "category": [
        "amenity.restaurant"
      ],
      "lat": 41.0142226,
      "lon": 28.9785884,
      "osm_id": 9782808313,
      "osm_type": "node",
      "address": "N\u00f6bethane \u00c7\u0131kmaz\u0131 Soka\u011f\u0131",
      "road_geometry": null
    },
    {
      "name": "Prepeed Cafe",
      "category": [
        "amenity.cafe"
      ],
      "lat": 41.0141397,
      "lon": 28.9791214,
      "osm_id": 9782808314,
      "osm_type": "node",
      "address": null,
      "road_geometry": null
    },
    {
      "name": "Sirkeci",
      "category": [
        "railway.stop"
      ],
      "lat": 41.0149976,
      "lon": 28.9784435,
      "osm_id": 11154298813,
      "osm_type": "node",
      "address": null,
      "road_geometry": null
    },
    {
      "name": "Sirkeci",
      "category": [
        "railway.stop"
      ],
      "lat": 41.0149146,
      "lon": 28.9784923,
      "osm_id": 11775924828,
      "osm_type": "node",
      "address": null,
      "road_geometry": null
    },
    {
      "name": "Sirkeci",
      "category": [
        "railway.station"
      ],
      "lat": 41.0150174,
      "lon": 28.977962,
      "osm_id": 12660718814,
      "osm_type": "node",
      "address": null,
      "road_geometry": null
    }
  ]
}