{
  "image": "dataset/images/590.png",
  "center_lat": 41.01689189189191,
  "center_lon": 28.967462444022072,
  "bbox": [
    28.96596995521766,
    41.015765765765785,
    28.968954932826488,
    41.01801801801804
  ],
  "unique_categories": [
    "tourism.motel",
    "amenity.restaurant",
    "shop.gift",
    "amenity.cafe",
    "shop.toys",
    "shop.mobile_phone",
    "shop.supermarket",
    "shop.hairdresser",
    "shop.computer",
    "amenity.atm",
    "shop.convenience",
    "shop.confectionery",
    "shop.copyshop",
    "amenity.fast_food",
    "shop.clothes",
    "shop.mall",
    "amenity.bureau_de_change",
    "shop.shipment",
    "amenity.parking",
    "shop.craft",
    "shop.fashion_accessories",
    "tourism.attraction",
    "shop.home_good_store",
    "shop.furniture",
    "shop.pastry",
    "shop.watches",
    "amenity.pharmacy",
    "shop.electronics",
    "shop.cosmetics",
    "amenity.place_of_worship",
    "shop.department_store",
    "amenity.bank",
    "shop.shoes",
    "shop.jewelry"
  ],
  "poi_count_per_category": {
    "tourism.motel": 4,
    "amenity.restaurant": 14,
    "shop.gift": 7,
    "amenity.cafe": 10,
    "shop.toys": 8,
    "shop.mobile_phone": 6,
    "shop.supermarket": 2,
    "shop.hairdresser": 2,
    "shop.computer": 1,
    "amenity.atm": 1,
    "shop.convenience": 2,
    "shop.confectionery": 1,
    "shop.copyshop": 2,
    "amenity.fast_food": 6,
    "shop.clothes": 8,
    "shop.mall": 1,
    "amenity.bureau_de_change": 1,
    "shop.shipment": 1,
    "amenity.parking": 2,
    "shop.craft": 3,
    "shop.fashion_accessories": 1,
    "tourism.attraction": 1,
    "shop.home_good_store": 2,
    "shop.furniture": 5,
    "shop.pastry": 1,
    "shop.watches": 5,
    "amenity.pharmacy": 3,
    "shop.electronics": 8,
    "shop.cosmetics": 3,
    "amenity.place_of_worship": 1,
    "shop.department_store": 2,
    "amenity.bank": 2,
    "shop.shoes": 1,
    "shop.jewelry": 1
  },
  "poi_count": 118,
  "pois": [
    {
      "name": "ING",
      "category": [
        "amenity.bank"
      ],
      "lat": 41.01579,
      "lon": 28.9668067,
      "osm_id": 3499067705,
      "osm_type": "node",
      "address": null,
      "road_geometry": null
    },
    {
      "name": "\u041f\u0430\u043d\u043e\u0440\u0430\u043c\u0430 \u0421\u0442\u0430\u043c\u0431\u0443\u043b\u0430",
      "category": [
        "amenity.cafe"
      ],
      "lat": 41.0169759,
      "lon": 28.9662562,
      "osm_id": 4299010989,
      "osm_type": "node",
      "address": null,
      "road_geometry": null
    },
    {
      "name": "Beyza Sebzeli Doner",
      "category": [
        "amenity.cafe"
      ],
      "lat": 41.0170407,
      "lon": 28.9678759,
      "osm_id": 4462010814,
      "osm_type": "node",
      "address": null,
      "road_geometry": null
    },
    {
      "name": "Sema Eczanesi",
      "category": [
        "amenity.pharmacy"
      ],
      "lat": 41.016558,
      "lon": 28.9671474,
      "osm_id": 4828993451,
      "osm_type": "node",
      "address": null,
      "road_geometry": null
    },
    {
      "name": "Tahtakale Eczanesi",
      "category": [
        "amenity.pharmacy"
      ],
      "lat": 41.0172143,
      "lon": 28.9688615,
      "osm_id": 4828993453,
      "osm_type": "node",
      "address": null,
      "road_geometry": null
    },
    {
      "name": "Acemo\u011flu Baklavalar\u0131",
      "category": [
        "shop.pastry"
      ],
      "lat": 41.0173175,
      "lon": 28.9688153,
      "osm_id": 4889959823,
      "osm_type": "node",
      "address": null,
      "road_geometry": null
    },
    {
      "name": "Salon ibo",
      "category": [
        "shop.hairdresser"
      ],
      "lat": 41.0167815,
      "lon": 28.9667201,
      "osm_id": 5110344541,
      "osm_type": "node",
      "address": "Cemil birsel caddesi",
      "road_geometry": null
    },
    {
      "name": "All\u0131 b\u00f6rek",
      "category": [
        "amenity.restaurant"
      ],
      "lat": 41.0170649,
      "lon": 28.966763,
      "osm_id": 5110344542,
      "osm_type": "node",
      "address": "Cemil birsel caddesi",
      "road_geometry": null
    },
    {
      "name": "MNG kargo",
      "category": [
        "shop.shipment"
      ],
      "lat": 41.0172025,
      "lon": 28.9668489,
      "osm_id": 5110344543,
      "osm_type": "node",
      "address": "Cemil birsel caddesi",
      "road_geometry": null
    },
    {
      "name": "\u00d6zen lokantas\u0131",
      "category": [
        "amenity.restaurant"
      ],
      "lat": 41.0172753,
      "lon": 28.9670205,
      "osm_id": 5110344544,
      "osm_type": "node",
      "address": "Cemil birsel caddesi",
      "road_geometry": null
    },
    {
      "name": "Ti-mesh",
      "category": [
        "shop.mobile_phone"
      ],
      "lat": 41.0176639,
      "lon": 28.9670849,
      "osm_id": 5110344545,
      "osm_type": "node",
      "address": "Cemil birsel caddesi",
      "road_geometry": null
    },
    {
      "name": "Hilal b\u00fcfe",
      "category": [
        "amenity.cafe"
      ],
      "lat": 41.0177772,
      "lon": 28.9670849,
      "osm_id": 5110344546,
      "osm_type": "node",
      "address": "Cemil birsel caddesi",
      "road_geometry": null
    },
    {
      "name": "Deniz k\u0131rtasiye",
      "category": [
        "shop.copyshop"
      ],
      "lat": 41.017636,
      "lon": 28.9670818,
      "osm_id": 5110344547,
      "osm_type": "node",
      "address": "Cemil birsel caddesi",
      "road_geometry": null
    },
    {
      "name": "\u015eafak B\u00fcfe",
      "category": [
        "amenity.cafe"
      ],
      "lat": 41.0178258,
      "lon": 28.9669561,
      "osm_id": 5110344548,
      "osm_type": "node",
      "address": "Cemil birsel caddesi",
      "road_geometry": null
    },
    {
      "name": "Yeditepe cafe",
      "category": [
        "amenity.cafe"
      ],
      "lat": 41.0171215,
      "lon": 28.9663553,
      "osm_id": 5110344552,
      "osm_type": "node",
      "address": null,
      "road_geometry": null
    },
    {
      "name": "\u0130mran do\u011falta\u015f",
      "category": [
        "shop.clothes"
      ],
      "lat": 41.0170487,
      "lon": 28.9679003,
      "osm_id": 5110344572,
      "osm_type": "node",
      "address": "Tahtakale caddesi",
      "road_geometry": null
    },
    {
      "name": "Mim Kafe",
      "category": [
        "amenity.cafe"
      ],
      "lat": 41.0175344,
      "lon": 28.9672995,
      "osm_id": 5110344573,
      "osm_type": "node",
      "address": null,
      "road_geometry": null
    },
    {
      "name": "\u00d6zdemir otopark",
      "category": [
        "amenity.parking"
      ],
      "lat": 41.0170649,
      "lon": 28.9666772,
      "osm_id": 5110344574,
      "osm_type": "node",
      "address": "Cemil birsel caddesi",
      "road_geometry": null
    },
    {
      "name": "Bower gsm",
      "category": [
        "shop.mobile_phone"
      ],
      "lat": 41.0168544,
      "lon": 28.966763,
      "osm_id": 5110344575,
      "osm_type": "node",
      "address": "Cemil birsel caddesi",
      "road_geometry": null
    },
    {
      "name": "Golden gsm",
      "category": [
        "shop.mobile_phone"
      ],
      "lat": 41.0167411,
      "lon": 28.9667845,
      "osm_id": 5110344576,
      "osm_type": "node",
      "address": "Cemil birsel caddesi",
      "road_geometry": null
    },
    {
      "name": "Gritty",
      "category": [
        "shop.mobile_phone"
      ],
      "lat": 41.0165873,
      "lon": 28.9665914,
      "osm_id": 5110344577,
      "osm_type": "node",
      "address": "Fetva yk\u015f",
      "road_geometry": null
    },
    {
      "name": "\u015eehri saadet",
      "category": [
        "amenity.restaurant"
      ],
      "lat": 41.0165306,
      "lon": 28.9663982,
      "osm_id": 5110344578,
      "osm_type": "node",
      "address": "Fetva yk\u015f",
      "road_geometry": null
    },
    {
      "name": "Sefa i han",
      "category": [
        "amenity.restaurant"
      ],
      "lat": 41.0165144,
      "lon": 28.9662695,
      "osm_id": 5110344579,
      "osm_type": "node",
      "address": "Fetva yk\u015f",
      "road_geometry": null
    },
    {
      "name": "Ayd\u0131n oyuncak",
      "category": [
        "shop.toys"
      ],
      "lat": 41.0158306,
      "lon": 28.9668719,
      "osm_id": 5113485107,
      "osm_type": "node",
      "address": "\u015eahande Soka\u011f\u0131",
      "road_geometry": null
    },
    {
      "name": "\u00dcb\u00fc toys",
      "category": [
        "shop.toys"
      ],
      "lat": 41.0159369,
      "lon": 28.9667014,
      "osm_id": 5113485108,
      "osm_type": "node",
      "address": "\u015eahande Soka\u011f\u0131",
      "road_geometry": null
    },
    {
      "name": "Selay",
      "category": [
        "shop.toys"
      ],
      "lat": 41.0159937,
      "lon": 28.9668303,
      "osm_id": 5113485109,
      "osm_type": "node",
      "address": "\u015eahande Soka\u011f\u0131",
      "road_geometry": null
    },
    {
      "name": "Emre toys",
      "category": [
        "shop.toys"
      ],
      "lat": 41.016017,
      "lon": 28.967237,
      "osm_id": 5113485110,
      "osm_type": "node",
      "address": "Ord. prof. dr. cemil birsel caddesi",
      "road_geometry": null
    },
    {
      "name": "Kastamanu",
      "category": [
        "shop.furniture"
      ],
      "lat": 41.0158154,
      "lon": 28.9670236,
      "osm_id": 5113485111,
      "osm_type": "node",
      "address": "Ord. prof. dr. cemil birsel caddesi",
      "road_geometry": null
    },
    {
      "name": "Power way",
      "category": [
        "shop.electronics"
      ],
      "lat": 41.0159238,
      "lon": 28.9672827,
      "osm_id": 5113485112,
      "osm_type": "node",
      "address": "Ord. prof. dr. cemil birsel caddesi",
      "road_geometry": null
    },
    {
      "name": "Link tech",
      "category": [
        "shop.mobile_phone"
      ],
      "lat": 41.0163178,
      "lon": 28.9671095,
      "osm_id": 5113485113,
      "osm_type": "node",
      "address": "Ord. prof. dr. cemil birsel caddesi",
      "road_geometry": null
    },
    {
      "name": "\u015eirin otopark",
      "category": [
        "amenity.parking"
      ],
      "lat": 41.0162206,
      "lon": 28.967174,
      "osm_id": 5113485114,
      "osm_type": "node",
      "address": "Ord. prof. dr. cemil birsel caddesi",
      "road_geometry": null
    },
    {
      "name": "Vld",
      "category": [
        "shop.electronics"
      ],
      "lat": 41.0161243,
      "lon": 28.9669537,
      "osm_id": 5113485115,
      "osm_type": "node",
      "address": "Ord. prof. dr. cemil birsel caddesi",
      "road_geometry": null
    },
    {
      "name": "Sunix",
      "category": [
        "shop.electronics"
      ],
      "lat": 41.0165123,
      "lon": 28.9670451,
      "osm_id": 5113485116,
      "osm_type": "node",
      "address": "Ord. prof. dr. cemil birsel caddesi",
      "road_geometry": null
    },
    {
      "name": "gritti",
      "category": [
        "shop.electronics"
      ],
      "lat": 41.0162114,
      "lon": 28.9669094,
      "osm_id": 5113485117,
      "osm_type": "node",
      "address": "Ord. prof. dr. cemil birsel caddesi",
      "road_geometry": null
    },
    {
      "name": "Bak\u0131r d\u00fcnyas\u0131",
      "category": [
        "shop.craft"
      ],
      "lat": 41.0162388,
      "lon": 28.9668048,
      "osm_id": 5113485118,
      "osm_type": "node",
      "address": "Ord. prof. dr. cemil birsel caddesi",
      "road_geometry": null
    },
    {
      "name": "\u00c7elik ayna",
      "category": [
        "shop.furniture"
      ],
      "lat": 41.0162773,
      "lon": 28.9667873,
      "osm_id": 5113485119,
      "osm_type": "node",
      "address": "Ord. prof. dr. cemil birsel caddesi",
      "road_geometry": null
    },
    {
      "name": "Hisar",
      "category": [
        "shop.furniture"
      ],
      "lat": 41.0164312,
      "lon": 28.9667873,
      "osm_id": 5113485120,
      "osm_type": "node",
      "address": "Ord. prof. dr. cemil birsel caddesi",
      "road_geometry": null
    },
    {
      "name": "Yilmazlar",
      "category": [
        "shop.furniture"
      ],
      "lat": 41.0159478,
      "lon": 28.9661755,
      "osm_id": 5113486783,
      "osm_type": "node",
      "address": "Siyavu\u015f pa\u015fa caddesi",
      "road_geometry": null
    },
    {
      "name": "varlik oyuncak",
      "category": [
        "shop.toys"
      ],
      "lat": 41.0161943,
      "lon": 28.9662006,
      "osm_id": 5113486784,
      "osm_type": "node",
      "address": "Siyavu\u015f pa\u015fa caddesi",
      "road_geometry": null
    },
    {
      "name": "nova \u015fantiye cafe",
      "category": [
        "amenity.fast_food"
      ],
      "lat": 41.0164788,
      "lon": 28.9661217,
      "osm_id": 5113486785,
      "osm_type": "node",
      "address": "Siyavu\u015f Pa\u015fa Sokak",
      "road_geometry": null
    },
    {
      "name": "Kubbe'i a\u015fk",
      "category": [
        "shop.clothes"
      ],
      "lat": 41.0165053,
      "lon": 28.9663634,
      "osm_id": 5113487021,
      "osm_type": "node",
      "address": "Fetva yoku\u015fu Soka\u011f\u0131",
      "road_geometry": null
    },
    {
      "name": "Ak & el",
      "category": [
        "shop.hairdresser"
      ],
      "lat": 41.0165195,
      "lon": 28.9662621,
      "osm_id": 5113487022,
      "osm_type": "node",
      "address": "Fetva yoku\u015fu Soka\u011f\u0131",
      "road_geometry": null
    },
    {
      "name": "Marmara \u00e7anta",
      "category": [
        "shop.shoes"
      ],
      "lat": 41.0165225,
      "lon": 28.9662051,
      "osm_id": 5113487023,
      "osm_type": "node",
      "address": "Fetva yoku\u015fu Soka\u011f\u0131",
      "road_geometry": null
    },
    {
      "name": "Altan Sekerleme",
      "category": [
        "shop.confectionery"
      ],
      "lat": 41.0176374,
      "lon": 28.9676189,
      "osm_id": 5115379521,
      "osm_type": "node",
      "address": "Kantarc\u0131lar Caddesi",
      "road_geometry": null
    },
    {
      "name": "MobileTeknik",
      "category": [
        "shop.mobile_phone"
      ],
      "lat": 41.0164494,
      "lon": 28.9682005,
      "osm_id": 5244795862,
      "osm_type": "node",
      "address": "Tomruk Soka\u011f\u0131",
      "road_geometry": null
    },
    {
      "name": "\u00d6z Do\u011fan Elektronik",
      "category": [
        "shop.electronics"
      ],
      "lat": 41.0165202,
      "lon": 28.9680658,
      "osm_id": 5244795863,
      "osm_type": "node",
      "address": "Tomruk Soka\u011f\u0131",
      "road_geometry": null
    },
    {
      "name": "BinBir Saat",
      "category": [
        "shop.watches"
      ],
      "lat": 41.016626,
      "lon": 28.9680564,
      "osm_id": 5244795864,
      "osm_type": "node",
      "address": "Tomruk Soka\u011f\u0131",
      "road_geometry": null
    },
    {
      "name": "Mesa Elektronik",
      "category": [
        "shop.craft"
      ],
      "lat": 41.0165471,
      "lon": 28.9680041,
      "osm_id": 5244795865,
      "osm_type": "node",
      "address": "Tomruk Soka\u011f\u0131",
      "road_geometry": null
    },
    {
      "name": "Alt\u0131ner",
      "category": [
        "shop.electronics"
      ],
      "lat": 41.0166022,
      "lon": 28.9678929,
      "osm_id": 5244795866,
      "osm_type": "node",
      "address": "Tomruk Soka\u011f\u0131",
      "road_geometry": null
    },
    {
      "name": "Tahtakale Ci\u011fercisi",
      "category": [
        "amenity.fast_food"
      ],
      "lat": 41.0166857,
      "lon": 28.9679833,
      "osm_id": 5244795867,
      "osm_type": "node",
      "address": "Tomruk Soka\u011f\u0131",
      "road_geometry": null
    },
    {
      "name": "TEB",
      "category": [
        "amenity.atm"
      ],
      "lat": 41.0168882,
      "lon": 28.9681904,
      "osm_id": 5244795868,
      "osm_type": "node",
      "address": "Tahtakale Caddesi",
      "road_geometry": null
    },
    {
      "name": "Ayg\u00fcn B\u00fcfe",
      "category": [
        "amenity.fast_food"
      ],
      "lat": 41.0168322,
      "lon": 28.9682862,
      "osm_id": 5244795869,
      "osm_type": "node",
      "address": "Tahtakale Caddesi",
      "road_geometry": null
    },
    {
      "name": "Mete Saat",
      "category": [
        "shop.watches"
      ],
      "lat": 41.0167475,
      "lon": 28.9683781,
      "osm_id": 5244795870,
      "osm_type": "node",
      "address": "Tahtakale Caddesi",
      "road_geometry": null
    },
    {
      "name": "Tahtakale Vak\u0131f \u0130\u015f Han\u0131",
      "category": [
        "tourism.motel"
      ],
      "lat": 41.0165952,
      "lon": 28.9685438,
      "osm_id": 5244795871,
      "osm_type": "node",
      "address": "Tahtakale Caddesi",
      "road_geometry": null
    },
    {
      "name": "Evren Saat",
      "category": [
        "shop.watches"
      ],
      "lat": 41.0166367,
      "lon": 28.9684915,
      "osm_id": 5244795872,
      "osm_type": "node",
      "address": "Tahtakale Caddesi",
      "road_geometry": null
    },
    {
      "name": "K\u00fc\u00e7\u00fck Aktar Han\u0131",
      "category": [
        "tourism.motel"
      ],
      "lat": 41.0165849,
      "lon": 28.9686792,
      "osm_id": 5244795873,
      "osm_type": "node",
      "address": "Tahtakale Caddesi",
      "road_geometry": null
    },
    {
      "name": "\u00d6zkan Kozmetik",
      "category": [
        "shop.cosmetics"
      ],
      "lat": 41.0164474,
      "lon": 28.9688281,
      "osm_id": 5244795874,
      "osm_type": "node",
      "address": "Tahtakale Caddesi",
      "road_geometry": null
    },
    {
      "name": "Ara Saat",
      "category": [
        "shop.watches"
      ],
      "lat": 41.0165171,
      "lon": 28.9687422,
      "osm_id": 5244795875,
      "osm_type": "node",
      "address": "Tahtakale Caddesi",
      "road_geometry": null
    },
    {
      "name": "Jaga Saat\u00e7\u0131",
      "category": [
        "shop.watches"
      ],
      "lat": 41.0164291,
      "lon": 28.9686912,
      "osm_id": 5244795876,
      "osm_type": "node",
      "address": "Tahtakale Caddesi",
      "road_geometry": null
    },
    {
      "name": "Kuveyt T\u00fcrk",
      "category": [
        "amenity.bank"
      ],
      "lat": 41.0163699,
      "lon": 28.9687636,
      "osm_id": 5244795877,
      "osm_type": "node",
      "address": "Tahtakale Caddesi",
      "road_geometry": null
    },
    {
      "name": "Sancak D\u00f6viz",
      "category": [
        "amenity.bureau_de_change"
      ],
      "lat": 41.0163353,
      "lon": 28.9689213,
      "osm_id": 5244795878,
      "osm_type": "node",
      "address": "Tahtakale Caddesi",
      "road_geometry": null
    },
    {
      "name": "Oyuncak Borsas\u0131",
      "category": [
        "shop.toys"
      ],
      "lat": 41.017115,
      "lon": 28.9681692,
      "osm_id": 5244795897,
      "osm_type": "node",
      "address": "Tahtakale Karakol Sokak",
      "road_geometry": null
    },
    {
      "name": "Boss Tech",
      "category": [
        "shop.electronics"
      ],
      "lat": 41.0167844,
      "lon": 28.9686234,
      "osm_id": 5244795899,
      "osm_type": "node",
      "address": "Balkapan\u0131 Soka\u011f\u0131",
      "road_geometry": null
    },
    {
      "name": "Vega Bilgisayar",
      "category": [
        "shop.computer"
      ],
      "lat": 41.016872,
      "lon": 28.9685918,
      "osm_id": 5244795900,
      "osm_type": "node",
      "address": "Balkapan\u0131 Soka\u011f\u0131",
      "road_geometry": null
    },
    {
      "name": "Has\u0131rc\u0131lar Eczanesi",
      "category": [
        "amenity.pharmacy"
      ],
      "lat": 41.0169581,
      "lon": 28.9686576,
      "osm_id": 5244795901,
      "osm_type": "node",
      "address": "Balkapan\u0131 Soka\u011f\u0131",
      "road_geometry": null
    },
    {
      "name": "Ersoy Han",
      "category": [
        "tourism.motel"
      ],
      "lat": 41.0169034,
      "lon": 28.9686267,
      "osm_id": 5244795902,
      "osm_type": "node",
      "address": "Balkapan\u0131 Soka\u011f\u0131",
      "road_geometry": null
    },
    {
      "name": "Ugur B\u00fcfe ve \u00c7ayoca\u011f\u0131",
      "category": [
        "amenity.cafe"
      ],
      "lat": 41.0169183,
      "lon": 28.9687107,
      "osm_id": 5244795903,
      "osm_type": "node",
      "address": "Balkapan\u0131 Soka\u011f\u0131",
      "road_geometry": null
    },
    {
      "name": "salep kadem salep\u00e7ilik",
      "category": [
        "amenity.cafe"
      ],
      "lat": 41.016992,
      "lon": 28.9688152,
      "osm_id": 5244795904,
      "osm_type": "node",
      "address": "Balkapan\u0131 Soka\u011f\u0131",
      "road_geometry": null
    },
    {
      "name": "Sevil \u00c7ay Oca\u011f\u0131",
      "category": [
        "amenity.cafe"
      ],
      "lat": 41.0170465,
      "lon": 28.9687292,
      "osm_id": 5244795905,
      "osm_type": "node",
      "address": "Balkapan\u0131 Soka\u011f\u0131",
      "road_geometry": null
    },
    {
      "name": "\u00dc\u00e7ler Han",
      "category": [
        "tourism.motel"
      ],
      "lat": 41.017146,
      "lon": 28.9688174,
      "osm_id": 5244795906,
      "osm_type": "node",
      "address": "Balkapan\u0131 Soka\u011f\u0131",
      "road_geometry": null
    },
    {
      "name": "Karaka\u015f Gida",
      "category": [
        "shop.supermarket"
      ],
      "lat": 41.0171046,
      "lon": 28.9687906,
      "osm_id": 5244795907,
      "osm_type": "node",
      "address": "Balkapan\u0131 Soka\u011f\u0131",
      "road_geometry": null
    },
    {
      "name": "Has\u0131rc\u0131lar Mescidi",
      "category": [
        "amenity.place_of_worship"
      ],
      "lat": 41.0170996,
      "lon": 28.9689073,
      "osm_id": 5244795908,
      "osm_type": "node",
      "address": "Balkapan\u0131 Soka\u011f\u0131",
      "road_geometry": null
    },
    {
      "name": "Virginia Angus Burger",
      "category": [
        "amenity.fast_food"
      ],
      "lat": 41.0160562,
      "lon": 28.9677461,
      "osm_id": 5244796148,
      "osm_type": "node",
      "address": "Uzun \u00c7ar\u015f\u0131 Caddesi",
      "road_geometry": null
    },
    {
      "name": "Sedef Okey",
      "category": [
        "shop.toys"
      ],
      "lat": 41.0164061,
      "lon": 28.967786,
      "osm_id": 5244796149,
      "osm_type": "node",
      "address": "Uzun \u00c7ar\u015f\u0131 Caddesi",
      "road_geometry": null
    },
    {
      "name": "Tahtakale Bijuter",
      "category": [
        "shop.fashion_accessories"
      ],
      "lat": 41.0166085,
      "lon": 28.9678282,
      "osm_id": 5244796150,
      "osm_type": "node",
      "address": "Uzun \u00c7ar\u015f\u0131 Caddesi",
      "road_geometry": null
    },
    {
      "name": "Kral Sport",
      "category": [
        "shop.clothes"
      ],
      "lat": 41.0164881,
      "lon": 28.9678024,
      "osm_id": 5244796151,
      "osm_type": "node",
      "address": "Uzun \u00c7ar\u015f\u0131 Caddesi",
      "road_geometry": null
    },
    {
      "name": "Elbiseci Giyim",
      "category": [
        "shop.clothes"
      ],
      "lat": 41.0169313,
      "lon": 28.9679499,
      "osm_id": 5244796152,
      "osm_type": "node",
      "address": "Uzun \u00c7ar\u015f\u0131 Caddesi",
      "road_geometry": null
    },
    {
      "name": "D\u00f6ner House",
      "category": [
        "amenity.fast_food"
      ],
      "lat": 41.0169934,
      "lon": 28.9679928,
      "osm_id": 5244796153,
      "osm_type": "node",
      "address": "Uzun \u00c7ar\u015f\u0131 Caddesi",
      "road_geometry": null
    },
    {
      "name": "Cafe Truva",
      "category": [
        "amenity.restaurant"
      ],
      "lat": 41.0170822,
      "lon": 28.9680169,
      "osm_id": 5244796154,
      "osm_type": "node",
      "address": "Uzun \u00c7ar\u015f\u0131 Caddesi",
      "road_geometry": null
    },
    {
      "name": "Beren",
      "category": [
        "shop.cosmetics"
      ],
      "lat": 41.0171621,
      "lon": 28.9680599,
      "osm_id": 5244796155,
      "osm_type": "node",
      "address": "Uzun \u00c7ar\u015f\u0131 Caddesi",
      "road_geometry": null
    },
    {
      "name": "Tahtekale P\u0131lavc\u0131s\u0131",
      "category": [
        "amenity.restaurant"
      ],
      "lat": 41.0172412,
      "lon": 28.9681365,
      "osm_id": 5244796156,
      "osm_type": "node",
      "address": "Uzun \u00c7ar\u015f\u0131 Caddesi",
      "road_geometry": null
    },
    {
      "name": "Sar\u0131\u00e7i\u00e7ek nazarl\u0131k",
      "category": [
        "shop.clothes"
      ],
      "lat": 41.0174201,
      "lon": 28.9683133,
      "osm_id": 5244796157,
      "osm_type": "node",
      "address": "Uzun \u00c7ar\u015f\u0131 Caddesi",
      "road_geometry": null
    },
    {
      "name": "K\u00f6zde Kanat\u00e7\u0131 Muro",
      "category": [
        "amenity.fast_food"
      ],
      "lat": 41.0173634,
      "lon": 28.968247,
      "osm_id": 5244796158,
      "osm_type": "node",
      "address": "Uzun \u00c7ar\u015f\u0131 Caddesi",
      "road_geometry": null
    },
    {
      "name": "Bilen Hamak",
      "category": [
        "shop.gift"
      ],
      "lat": 41.0174702,
      "lon": 28.9683837,
      "osm_id": 5244796159,
      "osm_type": "node",
      "address": "Has\u0131rc\u0131lar Caddesi",
      "road_geometry": null
    },
    {
      "name": "Emin\u00f6n\u00fc Ti\u015f\u00f6rt Bask\u0131",
      "category": [
        "shop.copyshop"
      ],
      "lat": 41.0175046,
      "lon": 28.9684494,
      "osm_id": 5244796160,
      "osm_type": "node",
      "address": "Has\u0131rc\u0131lar Caddesi",
      "road_geometry": null
    },
    {
      "name": "Dilek",
      "category": [
        "shop.convenience"
      ],
      "lat": 41.0173882,
      "lon": 28.9686418,
      "osm_id": 5244796161,
      "osm_type": "node",
      "address": "Has\u0131rc\u0131lar Caddesi",
      "road_geometry": null
    },
    {
      "name": "Acemo\u011flu Beklavalar\u0131",
      "category": [
        "amenity.restaurant"
      ],
      "lat": 41.0172972,
      "lon": 28.9688479,
      "osm_id": 5244796162,
      "osm_type": "node",
      "address": "Has\u0131rc\u0131lar Caddesi",
      "road_geometry": null
    },
    {
      "name": "Hatay Asi K\u00fcnefeleri",
      "category": [
        "amenity.restaurant"
      ],
      "lat": 41.0172599,
      "lon": 28.9689292,
      "osm_id": 5244796163,
      "osm_type": "node",
      "address": "Has\u0131rc\u0131lar Caddesi",
      "road_geometry": null
    },
    {
      "name": "Ahsen H\u0131rdavat Tahtakake",
      "category": [
        "shop.home_good_store"
      ],
      "lat": 41.0178217,
      "lon": 28.9673522,
      "osm_id": 5244812094,
      "osm_type": "node",
      "address": "Halla\u00e7 Abdurahman Soka\u011f\u0131",
      "road_geometry": null
    },
    {
      "name": "\u00c7ak\u0131r Ticaret",
      "category": [
        "shop.home_good_store"
      ],
      "lat": 41.0177316,
      "lon": 28.9674815,
      "osm_id": 5244812096,
      "osm_type": "node",
      "address": "Kantarc\u0131lar Caddesi",
      "road_geometry": null
    },
    {
      "name": "Tarihi \u00d6zkan Koftecisi",
      "category": [
        "amenity.restaurant"
      ],
      "lat": 41.0173357,
      "lon": 28.9680769,
      "osm_id": 5244812097,
      "osm_type": "node",
      "address": "Uzun \u00c7ar\u015f\u0131 Caddesi",
      "road_geometry": null
    },
    {
      "name": "Sancakdar Tekstil",
      "category": [
        "shop.clothes"
      ],
      "lat": 41.0173575,
      "lon": 28.9681448,
      "osm_id": 5244812098,
      "osm_type": "node",
      "address": "Uzun \u00c7ar\u015f\u0131 Caddesi",
      "road_geometry": null
    },
    {
      "name": "At\u00f6lye Kafas\u0131",
      "category": [
        "shop.furniture"
      ],
      "lat": 41.018,
      "lon": 28.9677857,
      "osm_id": 5244812107,
      "osm_type": "node",
      "address": "Kutucular Caddesi",
      "road_geometry": null
    },
    {
      "name": "Mavi Hali\u00e7 Pide Salonu",
      "category": [
        "amenity.restaurant"
      ],
      "lat": 41.0179695,
      "lon": 28.9675892,
      "osm_id": 5244812108,
      "osm_type": "node",
      "address": "Kutucular Caddesi",
      "road_geometry": null
    },
    {
      "name": "Elif ve Zeynep Hobby Malzemeleri",
      "category": [
        "shop.gift"
      ],
      "lat": 41.0179075,
      "lon": 28.9677092,
      "osm_id": 5244812109,
      "osm_type": "node",
      "address": "Kutucular Caddesi",
      "road_geometry": null
    },
    {
      "name": "Karginlar Ip Halat",
      "category": [
        "shop.craft"
      ],
      "lat": 41.0179028,
      "lon": 28.9679529,
      "osm_id": 5244812110,
      "osm_type": "node",
      "address": "Kutucular Caddesi",
      "road_geometry": null
    },
    {
      "name": "Ensar Hediyelik Esya",
      "category": [
        "shop.gift"
      ],
      "lat": 41.0177905,
      "lon": 28.9680007,
      "osm_id": 5244812111,
      "osm_type": "node",
      "address": "Kutucular Caddesi",
      "road_geometry": null
    },
    {
      "name": "Sozen Hediyelik",
      "category": [
        "shop.gift"
      ],
      "lat": 41.0178154,
      "lon": 28.9681125,
      "osm_id": 5244812112,
      "osm_type": "node",
      "address": "Kutucular Caddesi",
      "road_geometry": null
    },
    {
      "name": "Karatekin Kozmetik",
      "category": [
        "shop.cosmetics"
      ],
      "lat": 41.0177309,
      "lon": 28.9682288,
      "osm_id": 5244812113,
      "osm_type": "node",
      "address": "Uzun \u00c7ar\u015f\u0131 Caddesi",
      "road_geometry": null
    },
    {
      "name": "Karakus Ticaret",
      "category": [
        "shop.convenience"
      ],
      "lat": 41.0177018,
      "lon": 28.9682693,
      "osm_id": 5244812114,
      "osm_type": "node",
      "address": "Kutucular Caddesi",
      "road_geometry": null
    },
    {
      "name": "Eser Okey",
      "category": [
        "shop.gift"
      ],
      "lat": 41.0175018,
      "lon": 28.968301,
      "osm_id": 5244812115,
      "osm_type": "node",
      "address": "Uzun \u00c7ar\u015f\u0131 Caddesi",
      "road_geometry": null
    },
    {
      "name": "\u00c7AR\u015eI ELEKTRON\u0130K",
      "category": [
        "shop.electronics"
      ],
      "lat": 41.0175526,
      "lon": 28.9683229,
      "osm_id": 5244812116,
      "osm_type": "node",
      "address": "Uzun \u00c7ar\u015f\u0131 Caddesi",
      "road_geometry": null
    },
    {
      "name": "Sozen Hediyelik",
      "category": [
        "shop.gift"
      ],
      "lat": 41.017826,
      "lon": 28.9680334,
      "osm_id": 5244812117,
      "osm_type": "node",
      "address": "Kutucular Caddesi",
      "road_geometry": null
    },
    {
      "name": "\u015eahin Wares",
      "category": [
        "shop.clothes"
      ],
      "lat": 41.0176806,
      "lon": 28.9683242,
      "osm_id": 5244812118,
      "osm_type": "node",
      "address": "Kutucular Caddesi",
      "road_geometry": null
    },
    {
      "name": "K\u00f6fteci Ya\u015far",
      "category": [
        "amenity.restaurant"
      ],
      "lat": 41.0179851,
      "lon": 28.9685272,
      "osm_id": 5244812119,
      "osm_type": "node",
      "address": "Mahkeme Alt\u0131 Caddesi",
      "road_geometry": null
    },
    {
      "name": "Sefa-i H\u00fcrrem Kafe",
      "category": [
        "amenity.cafe"
      ],
      "lat": 41.0166173,
      "lon": 28.9663827,
      "osm_id": 5482975827,
      "osm_type": "node",
      "address": "Fetva Yks.",
      "road_geometry": null
    },
    {
      "name": "Toysturka",
      "category": [
        "shop.toys"
      ],
      "lat": 41.0159065,
      "lon": 28.9675467,
      "osm_id": 5482981323,
      "osm_type": "node",
      "address": null,
      "road_geometry": null
    },
    {
      "name": "Kaya Ticaret",
      "category": [
        "shop.clothes"
      ],
      "lat": 41.0173942,
      "lon": 28.9687094,
      "osm_id": 5674906723,
      "osm_type": "node",
      "address": null,
      "road_geometry": null
    },
    {
      "name": "Osmanl\u0131 Kebap\u00e7\u0131s\u0131",
      "category": [
        "amenity.restaurant"
      ],
      "lat": 41.0179383,
      "lon": 28.9687092,
      "osm_id": 5717779824,
      "osm_type": "node",
      "address": null,
      "road_geometry": null
    },
    {
      "name": "Arikan Ithalat Saat San Ve Tic Ltd \u015eti",
      "category": [
        "shop.gift"
      ],
      "lat": 41.016435,
      "lon": 28.9688451,
      "osm_id": 5982516885,
      "osm_type": "node",
      "address": null,
      "road_geometry": null
    },
    {
      "name": "colsume",
      "category": [
        "shop.jewelry"
      ],
      "lat": 41.0166049,
      "lon": 28.968516,
      "osm_id": 6299218988,
      "osm_type": "node",
      "address": null,
      "road_geometry": null
    },
    {
      "name": "www.taksesuar.com",
      "category": [
        "shop.supermarket"
      ],
      "lat": 41.0163172,
      "lon": 28.9662829,
      "osm_id": 6880633668,
      "osm_type": "node",
      "address": "Siyavu\u015f Pa\u015fa Sokak",
      "road_geometry": null
    },
    {
      "name": "www.nulootantik.com",
      "category": [
        "shop.department_store"
      ],
      "lat": 41.0157979,
      "lon": 28.9663744,
      "osm_id": 7618420393,
      "osm_type": "node",
      "address": "Siyavu\u015f Pa\u015fa Soka\u011f\u0131",
      "road_geometry": null
    },
    {
      "name": "bizimkupaci.com",
      "category": [
        "shop.department_store"
      ],
      "lat": 41.0158096,
      "lon": 28.9664514,
      "osm_id": 7618423709,
      "osm_type": "node",
      "address": "Siyavu\u015f Pa\u015fa Soka\u011f\u0131",
      "road_geometry": null
    },
    {
      "name": "Byz Dizayn",
      "category": [
        "shop.mall"
      ],
      "lat": 41.0157676,
      "lon": 28.96621,
      "osm_id": 8518010634,
      "osm_type": "node",
      "address": "Siyavu\u015f Pa\u015fa Soka\u011f\u0131",
      "road_geometry": null
    },
    {
      "name": "Tarihi karde\u015fler b\u00f6rek ve pideci",
      "category": [
        "amenity.restaurant"
      ],
      "lat": 41.0172694,
      "lon": 28.9681577,
      "osm_id": 9722432917,
      "osm_type": "node",
      "address": null,
      "road_geometry": null
    },
    {
      "name": "Rainbow stairs",
      "category": [
        "tourism.attraction"
      ],
      "lat": 41.0165894,
      "lon": 28.9666757,
      "osm_id": 9867832017,
      "osm_type": "node",
      "address": null,
      "road_geometry": null
    },
    {
      "name": "\u062c\u064a\u0631\u064a \u0641\u062a\u0627\u0631 \u0642\u0647\u0648\u0629 \u0648\u0645\u0637\u0639\u0645",
      "category": [
        "amenity.restaurant"
      ],
      "lat": 41.0169486,
      "lon": 28.9662614,
      "osm_id": 10044870517,
      "osm_type": "node",
      "address": "Kepenek\u00e7i Soka\u011f\u0131",
      "road_geometry": null
    }
  ]
}