{
  "image": "dataset/images/591.png",
  "center_lat": 41.01689189189191,
  "center_lon": 28.9704474216309,
  "bbox": [
    28.968954932826488,
    41.015765765765785,
    28.971939910435317,
    41.01801801801804
  ],
  "unique_categories": [
    "shop.tailor",
    "tourism.motel",
    "amenity.restaurant",
    "shop.gift",
    "amenity.cafe",
    "shop.chocolate",
    "shop.mobile_phone",
    "shop.optician",
    "shop.hairdresser",
    "shop.computer",
    "shop.florist",
    "amenity.atm",
    "shop.convenience",
    "highway.bus_stop",
    "shop.coffee",
    "shop.confectionery",
    "shop.copyshop",
    "shop.interior_decoration",
    "amenity.fast_food",
    "shop.butcher",
    "shop.perfumery",
    "shop.clothes",
    "shop.variety_store",
    "tourism.artwork",
    "shop.spices",
    "shop.Natural_stones",
    "shop.craft",
    "amenity.post_office",
    "shop.beauty",
    "shop.animal_food",
    "shop.seafood",
    "shop.cosmetics",
    "shop.bakery",
    "shop.greengrocer",
    "shop.hardware",
    "shop.Novelty_store",
    "shop.herbalist",
    "amenity.bank",
    "shop.jewelry"
  ],
  "poi_count_per_category": {
    "shop.tailor": 1,
    "tourism.motel": 1,
    "amenity.restaurant": 13,
    "shop.gift": 2,
    "amenity.cafe": 7,
    "shop.chocolate": 1,
    "shop.mobile_phone": 8,
    "shop.optician": 2,
    "shop.hairdresser": 1,
    "shop.computer": 1,
    "shop.florist": 1,
    "amenity.atm": 2,
    "shop.convenience": 2,
    "highway.bus_stop": 1,
    "shop.coffee": 1,
    "shop.confectionery": 7,
    "shop.copyshop": 2,
    "shop.interior_decoration": 1,
    "amenity.fast_food": 3,
    "shop.butcher": 1,
    "shop.perfumery": 4,
    "shop.clothes": 4,
    "shop.variety_store": 1,
    "tourism.artwork": 1,
    "shop.spices": 2,
    "shop.Natural_stones": 1,
    "shop.craft": 3,
    "amenity.post_office": 2,
    "shop.beauty": 2,
    "shop.animal_food": 1,
    "shop.seafood": 1,
    "shop.cosmetics": 3,
    "shop.bakery": 1,
    "shop.greengrocer": 2,
    "shop.hardware": 1,
    "shop.Novelty_store": 1,
    "shop.herbalist": 2,
    "amenity.bank": 3,
    "shop.jewelry": 2
  },
  "poi_count": 95,
  "pois": [
    {
      "name": "Hamdi",
      "category": [
        "amenity.restaurant"
      ],
      "lat": 41.0171629,
      "lon": 28.9698993,
      "osm_id": 262402714,
      "osm_type": "node",
      "address": null,
      "road_geometry": null
    },
    {
      "name": "Pandeli",
      "category": [
        "amenity.restaurant"
      ],
      "lat": 41.0171446,
      "lon": 28.9711789,
      "osm_id": 3079823142,
      "osm_type": "node",
      "address": "Misir \u00c7ar\u015f\u0131s\u0131",
      "road_geometry": null
    },
    {
      "name": "Bab-\u0131 Hayat",
      "category": [
        "amenity.restaurant"
      ],
      "lat": 41.0157745,
      "lon": 28.9717449,
      "osm_id": 3079823143,
      "osm_type": "node",
      "address": null,
      "road_geometry": null
    },
    {
      "name": "Akbank",
      "category": [
        "amenity.atm"
      ],
      "lat": 41.017128,
      "lon": 28.9703862,
      "osm_id": 3461609137,
      "osm_type": "node",
      "address": null,
      "road_geometry": null
    },
    {
      "name": "Garanti BBVA",
      "category": [
        "amenity.atm"
      ],
      "lat": 41.0171435,
      "lon": 28.9703661,
      "osm_id": 3461609139,
      "osm_type": "node",
      "address": null,
      "road_geometry": null
    },
    {
      "name": "Kurukahveci Mermet Efendi Mahdumlari",
      "category": [
        "shop.coffee"
      ],
      "lat": 41.0165412,
      "lon": 28.9702791,
      "osm_id": 3461609140,
      "osm_type": "node",
      "address": null,
      "road_geometry": null
    },
    {
      "name": "\u0645\u062d\u0645\u062f \u0623\u0641\u0646\u062f\u064a",
      "category": [
        "amenity.cafe"
      ],
      "lat": 41.0165527,
      "lon": 28.9703831,
      "osm_id": 4318400191,
      "osm_type": "node",
      "address": null,
      "road_geometry": null
    },
    {
      "name": "Tatlici Safa",
      "category": [
        "shop.confectionery"
      ],
      "lat": 41.0167195,
      "lon": 28.9701792,
      "osm_id": 4704971996,
      "osm_type": "node",
      "address": null,
      "road_geometry": null
    },
    {
      "name": "Emin\u00f6n\u00fc B\u00f6rek\u00e7isi",
      "category": [
        "amenity.fast_food"
      ],
      "lat": 41.0179756,
      "lon": 28.9690402,
      "osm_id": 5111212298,
      "osm_type": "node",
      "address": "Kalcin sokak",
      "road_geometry": null
    },
    {
      "name": "Burgerillas",
      "category": [
        "amenity.restaurant"
      ],
      "lat": 41.0174874,
      "lon": 28.9694058,
      "osm_id": 5111212299,
      "osm_type": "node",
      "address": "Kal\u00e7\u0131n Soka\u011f\u0131",
      "road_geometry": null
    },
    {
      "name": "marmara lokum",
      "category": [
        "shop.spices"
      ],
      "lat": 41.0157757,
      "lon": 28.9718968,
      "osm_id": 5111212301,
      "osm_type": "node",
      "address": "Yeni Camii Caddesi",
      "road_geometry": null
    },
    {
      "name": "Resturant",
      "category": [
        "amenity.restaurant"
      ],
      "lat": 41.0163849,
      "lon": 28.9716125,
      "osm_id": 5111212310,
      "osm_type": "node",
      "address": "Bankacilar sokak",
      "road_geometry": null
    },
    {
      "name": "Birtas kolletif",
      "category": [
        "shop.animal_food"
      ],
      "lat": 41.0163606,
      "lon": 28.971076,
      "osm_id": 5111212312,
      "osm_type": "node",
      "address": "Bankac\u0131lar Soka\u011f\u0131",
      "road_geometry": null
    },
    {
      "name": "\u00c7i\u00e7ek\u00e7i \u0130brahim",
      "category": [
        "shop.herbalist"
      ],
      "lat": 41.0164803,
      "lon": 28.9710936,
      "osm_id": 5111212313,
      "osm_type": "node",
      "address": "Bankac\u0131lar Soka\u011f\u0131",
      "road_geometry": null
    },
    {
      "name": "Birtas and ayup sultan",
      "category": [
        "shop.herbalist"
      ],
      "lat": 41.0167543,
      "lon": 28.9713384,
      "osm_id": 5111212314,
      "osm_type": "node",
      "address": "Bankacilar sokak",
      "road_geometry": null
    },
    {
      "name": "Kosem Ziraat",
      "category": [
        "shop.spices"
      ],
      "lat": 41.0169111,
      "lon": 28.9715266,
      "osm_id": 5111212316,
      "osm_type": "node",
      "address": "Bankacilar sokak",
      "road_geometry": null
    },
    {
      "name": "Cafe Society",
      "category": [
        "amenity.cafe"
      ],
      "lat": 41.0173936,
      "lon": 28.9695485,
      "osm_id": 5117628584,
      "osm_type": "node",
      "address": null,
      "road_geometry": null
    },
    {
      "name": "2K Chicken",
      "category": [
        "amenity.restaurant"
      ],
      "lat": 41.0168128,
      "lon": 28.9704318,
      "osm_id": 5188756121,
      "osm_type": "node",
      "address": "Tahmis Soka\u011f\u0131",
      "road_geometry": null
    },
    {
      "name": "ipar pasta evi",
      "category": [
        "amenity.restaurant"
      ],
      "lat": 41.0158401,
      "lon": 28.9692484,
      "osm_id": 5244795860,
      "osm_type": "node",
      "address": "Tomruk Soka\u011f\u0131",
      "road_geometry": null
    },
    {
      "name": "Y\u0131lmazlar G\u0131da",
      "category": [
        "shop.greengrocer"
      ],
      "lat": 41.0161913,
      "lon": 28.9689883,
      "osm_id": 5244795879,
      "osm_type": "node",
      "address": "Tahtakale Caddesi",
      "road_geometry": null
    },
    {
      "name": "Yap\u0131 Kredi",
      "category": [
        "amenity.bank"
      ],
      "lat": 41.0161296,
      "lon": 28.9690761,
      "osm_id": 5244795880,
      "osm_type": "node",
      "address": "Tahtakale Caddesi",
      "road_geometry": null
    },
    {
      "name": "Filiz Kozmetik",
      "category": [
        "shop.cosmetics"
      ],
      "lat": 41.0160689,
      "lon": 28.9691552,
      "osm_id": 5244795881,
      "osm_type": "node",
      "address": "Tahtakale Caddesi",
      "road_geometry": null
    },
    {
      "name": "Pir Han",
      "category": [
        "tourism.motel"
      ],
      "lat": 41.0162819,
      "lon": 28.9690573,
      "osm_id": 5244795882,
      "osm_type": "node",
      "address": "Tahtakale Caddesi",
      "road_geometry": null
    },
    {
      "name": "Garanti Bankas\u0131",
      "category": [
        "amenity.bank"
      ],
      "lat": 41.0162252,
      "lon": 28.9691298,
      "osm_id": 5244795883,
      "osm_type": "node",
      "address": "Tahtakale Caddesi",
      "road_geometry": null
    },
    {
      "name": "Zaza Han",
      "category": [
        "shop.perfumery"
      ],
      "lat": 41.016191,
      "lon": 28.9691826,
      "osm_id": 5244795884,
      "osm_type": "node",
      "address": "Tahtakale Caddesi",
      "road_geometry": null
    },
    {
      "name": "Kozmar Kozmetik",
      "category": [
        "shop.cosmetics"
      ],
      "lat": 41.0161328,
      "lon": 28.9692644,
      "osm_id": 5244795885,
      "osm_type": "node",
      "address": "Tahtakale Caddesi",
      "road_geometry": null
    },
    {
      "name": "Serhat Elektronik",
      "category": [
        "shop.mobile_phone"
      ],
      "lat": 41.0160857,
      "lon": 28.9693159,
      "osm_id": 5244795886,
      "osm_type": "node",
      "address": "Tahtakale Caddesi",
      "road_geometry": null
    },
    {
      "name": "Zippo Turkey",
      "category": [
        "shop.Novelty_store"
      ],
      "lat": 41.0160371,
      "lon": 28.9693757,
      "osm_id": 5244795887,
      "osm_type": "node",
      "address": "Tahtakale Caddesi",
      "road_geometry": null
    },
    {
      "name": "\u0130shakpa\u015fa Sofras\u0131",
      "category": [
        "amenity.restaurant"
      ],
      "lat": 41.0159446,
      "lon": 28.9695369,
      "osm_id": 5244795888,
      "osm_type": "node",
      "address": "Tahtakale Caddesi",
      "road_geometry": null
    },
    {
      "name": "Ata Parfumeri",
      "category": [
        "shop.perfumery"
      ],
      "lat": 41.0158574,
      "lon": 28.969352,
      "osm_id": 5244795889,
      "osm_type": "node",
      "address": "Tahtakale Caddesi",
      "road_geometry": null
    },
    {
      "name": "Mio Pasaj\u0131",
      "category": [
        "shop.perfumery"
      ],
      "lat": 41.0158766,
      "lon": 28.9696263,
      "osm_id": 5244795891,
      "osm_type": "node",
      "address": "Tahtakale Caddesi",
      "road_geometry": null
    },
    {
      "name": "Erciyes Optik",
      "category": [
        "shop.optician"
      ],
      "lat": 41.0158301,
      "lon": 28.9696813,
      "osm_id": 5244795892,
      "osm_type": "node",
      "address": "Tahtakale Caddesi",
      "road_geometry": null
    },
    {
      "name": "Karaca Bijuteri",
      "category": [
        "shop.craft"
      ],
      "lat": 41.0157866,
      "lon": 28.969743,
      "osm_id": 5244795893,
      "osm_type": "node",
      "address": "Tahtakale Caddesi",
      "road_geometry": null
    },
    {
      "name": "Y\u0131ld\u0131z Kozmetik",
      "category": [
        "shop.cosmetics"
      ],
      "lat": 41.0163988,
      "lon": 28.968969,
      "osm_id": 5244795909,
      "osm_type": "node",
      "address": "C\u00f6mertt\u00fcrk Soka\u011f\u0131",
      "road_geometry": null
    },
    {
      "name": "Auris Shop Gsm Aksesuarlar\u0131",
      "category": [
        "shop.mobile_phone"
      ],
      "lat": 41.0164787,
      "lon": 28.9690381,
      "osm_id": 5244795910,
      "osm_type": "node",
      "address": "C\u00f6mertt\u00fcrk Soka\u011f\u0131",
      "road_geometry": null
    },
    {
      "name": "Filibe K\u00f6fte",
      "category": [
        "amenity.restaurant"
      ],
      "lat": 41.0166664,
      "lon": 28.9693259,
      "osm_id": 5244795911,
      "osm_type": "node",
      "address": "C\u00f6mertt\u00fcrk Soka\u011f\u0131",
      "road_geometry": null
    },
    {
      "name": "Matiate",
      "category": [
        "shop.mobile_phone"
      ],
      "lat": 41.016717,
      "lon": 28.9694587,
      "osm_id": 5244795912,
      "osm_type": "node",
      "address": "C\u00f6mertt\u00fcrk Soka\u011f\u0131",
      "road_geometry": null
    },
    {
      "name": "Bien Teknik",
      "category": [
        "shop.mobile_phone"
      ],
      "lat": 41.0167838,
      "lon": 28.9695069,
      "osm_id": 5244795913,
      "osm_type": "node",
      "address": "C\u00f6mertt\u00fcrk Soka\u011f\u0131",
      "road_geometry": null
    },
    {
      "name": "Oztas Ithalat",
      "category": [
        "shop.computer"
      ],
      "lat": 41.0168723,
      "lon": 28.9694125,
      "osm_id": 5244795914,
      "osm_type": "node",
      "address": "C\u00f6mertt\u00fcrk Soka\u011f\u0131",
      "road_geometry": null
    },
    {
      "name": "Ridata",
      "category": [
        "shop.mobile_phone"
      ],
      "lat": 41.01663,
      "lon": 28.9693749,
      "osm_id": 5244795915,
      "osm_type": "node",
      "address": "F\u0131nd\u0131k\u00e7\u0131lar Soka\u011f\u0131",
      "road_geometry": null
    },
    {
      "name": "S\u00fcrat Kargo",
      "category": [
        "amenity.post_office"
      ],
      "lat": 41.016586,
      "lon": 28.9692896,
      "osm_id": 5244795916,
      "osm_type": "node",
      "address": "F\u0131nd\u0131k\u00e7\u0131lar Soka\u011f\u0131",
      "road_geometry": null
    },
    {
      "name": "Emek Kuaf\u00f6r",
      "category": [
        "shop.hairdresser"
      ],
      "lat": 41.0165379,
      "lon": 28.9692535,
      "osm_id": 5244795917,
      "osm_type": "node",
      "address": "F\u0131nd\u0131k\u00e7\u0131lar Soka\u011f\u0131",
      "road_geometry": null
    },
    {
      "name": "Karmen G\u00f6zl\u00fck",
      "category": [
        "shop.optician"
      ],
      "lat": 41.0164566,
      "lon": 28.9691616,
      "osm_id": 5244795918,
      "osm_type": "node",
      "address": "F\u0131nd\u0131k\u00e7\u0131lar Soka\u011f\u0131",
      "road_geometry": null
    },
    {
      "name": "Hanta\u015f G\u00f6zl\u00fck \u015eemsiye",
      "category": [
        "shop.craft"
      ],
      "lat": 41.0162597,
      "lon": 28.9697014,
      "osm_id": 5244795919,
      "osm_type": "node",
      "address": "F\u0131nd\u0131k\u00e7\u0131lar Soka\u011f\u0131",
      "road_geometry": null
    },
    {
      "name": "Modaax Aksesuar",
      "category": [
        "shop.beauty"
      ],
      "lat": 41.0161286,
      "lon": 28.9697879,
      "osm_id": 5244795920,
      "osm_type": "node",
      "address": "F\u0131nd\u0131k\u00e7\u0131lar Soka\u011f\u0131",
      "road_geometry": null
    },
    {
      "name": "Ucuzluk Pazar\u0131 Kirtasiye",
      "category": [
        "shop.copyshop"
      ],
      "lat": 41.0171658,
      "lon": 28.9690627,
      "osm_id": 5244796164,
      "osm_type": "node",
      "address": "Has\u0131rc\u0131lar Caddesi",
      "road_geometry": null
    },
    {
      "name": "Me\u015fhur Has\u0131rc\u0131lar Ocakba\u015f\u0131 D\u00fcr\u00fcm",
      "category": [
        "amenity.restaurant"
      ],
      "lat": 41.0170513,
      "lon": 28.9693028,
      "osm_id": 5244796165,
      "osm_type": "node",
      "address": "Has\u0131rc\u0131lar Caddesi",
      "road_geometry": null
    },
    {
      "name": "Murat Karadeniz",
      "category": [
        "shop.bakery"
      ],
      "lat": 41.0170859,
      "lon": 28.969257,
      "osm_id": 5244796168,
      "osm_type": "node",
      "address": "Has\u0131rc\u0131lar Caddesi",
      "road_geometry": null
    },
    {
      "name": "S\u00fcs D\u00fcnyas\u0131",
      "category": [
        "shop.clothes"
      ],
      "lat": 41.0169856,
      "lon": 28.9694335,
      "osm_id": 5244796169,
      "osm_type": "node",
      "address": "Has\u0131rc\u0131lar Caddesi",
      "road_geometry": null
    },
    {
      "name": "Seref Gida",
      "category": [
        "shop.greengrocer"
      ],
      "lat": 41.0169513,
      "lon": 28.9694738,
      "osm_id": 5244796170,
      "osm_type": "node",
      "address": "Has\u0131rc\u0131lar Caddesi",
      "road_geometry": null
    },
    {
      "name": "\u00d6zgur Elektronik",
      "category": [
        "shop.mobile_phone"
      ],
      "lat": 41.0168541,
      "lon": 28.9696636,
      "osm_id": 5244796171,
      "osm_type": "node",
      "address": "Has\u0131rc\u0131lar Caddesi",
      "road_geometry": null
    },
    {
      "name": "Halkbank",
      "category": [
        "amenity.bank"
      ],
      "lat": 41.0168893,
      "lon": 28.9696063,
      "osm_id": 5244796172,
      "osm_type": "node",
      "address": "Has\u0131rc\u0131lar Caddesi",
      "road_geometry": null
    },
    {
      "name": "Kurukahveci Nuri Toplar",
      "category": [
        "amenity.cafe"
      ],
      "lat": 41.0167706,
      "lon": 28.9698559,
      "osm_id": 5244796173,
      "osm_type": "node",
      "address": "Has\u0131rc\u0131lar Caddesi",
      "road_geometry": null
    },
    {
      "name": "Can S\u00fcs Dekorasyon",
      "category": [
        "shop.interior_decoration"
      ],
      "lat": 41.0168009,
      "lon": 28.9697842,
      "osm_id": 5244796174,
      "osm_type": "node",
      "address": "Has\u0131rc\u0131lar Caddesi",
      "road_geometry": null
    },
    {
      "name": "Gaziantep Sweets",
      "category": [
        "amenity.cafe"
      ],
      "lat": 41.0167448,
      "lon": 28.969902,
      "osm_id": 5244796175,
      "osm_type": "node",
      "address": "Has\u0131rc\u0131lar Caddesi",
      "road_geometry": null
    },
    {
      "name": "Samtel",
      "category": [
        "shop.mobile_phone"
      ],
      "lat": 41.016681,
      "lon": 28.9700714,
      "osm_id": 5244796176,
      "osm_type": "node",
      "address": "Has\u0131rc\u0131lar Caddesi",
      "road_geometry": null
    },
    {
      "name": "Taze Bal\u0131k\u00e7\u0131",
      "category": [
        "shop.seafood"
      ],
      "lat": 41.0166012,
      "lon": 28.9701801,
      "osm_id": 5244796177,
      "osm_type": "node",
      "address": "Has\u0131rc\u0131lar Caddesi",
      "road_geometry": null
    },
    {
      "name": "Bebek Evi",
      "category": [
        "shop.clothes"
      ],
      "lat": 41.016703,
      "lon": 28.9699935,
      "osm_id": 5244796178,
      "osm_type": "node",
      "address": "Has\u0131rc\u0131lar Caddesi",
      "road_geometry": null
    },
    {
      "name": "Kurukahveci Mehmet Efendi",
      "category": [
        "amenity.cafe"
      ],
      "lat": 41.0165533,
      "lon": 28.9702736,
      "osm_id": 5244796179,
      "osm_type": "node",
      "address": "Tahmis Soka\u011f\u0131",
      "road_geometry": null
    },
    {
      "name": "Dilek Z\u00fcccaciye Emin\u00f6n\u00fc",
      "category": [
        "amenity.restaurant"
      ],
      "lat": 41.0164299,
      "lon": 28.9701804,
      "osm_id": 5244796180,
      "osm_type": "node",
      "address": "Tahmis Soka\u011f\u0131",
      "road_geometry": null
    },
    {
      "name": "Furkan Kirtasiye",
      "category": [
        "shop.copyshop"
      ],
      "lat": 41.0163509,
      "lon": 28.9702394,
      "osm_id": 5244796181,
      "osm_type": "node",
      "address": "Tahmis Soka\u011f\u0131",
      "road_geometry": null
    },
    {
      "name": "Tarihi Gold \u00c7ikolata",
      "category": [
        "shop.chocolate"
      ],
      "lat": 41.0163095,
      "lon": 28.9703432,
      "osm_id": 5244796182,
      "osm_type": "node",
      "address": "Tahmis Soka\u011f\u0131",
      "road_geometry": null
    },
    {
      "name": "Sansiro",
      "category": [
        "shop.perfumery"
      ],
      "lat": 41.0163331,
      "lon": 28.9702997,
      "osm_id": 5244796183,
      "osm_type": "node",
      "address": "Tahmis Soka\u011f\u0131",
      "road_geometry": null
    },
    {
      "name": "Gurmania",
      "category": [
        "amenity.cafe"
      ],
      "lat": 41.0162892,
      "lon": 28.9703325,
      "osm_id": 5244796184,
      "osm_type": "node",
      "address": "Tahmis Soka\u011f\u0131",
      "road_geometry": null
    },
    {
      "name": "At\u0131lgan Hediyelik E\u015fya",
      "category": [
        "shop.gift"
      ],
      "lat": 41.0162581,
      "lon": 28.9703005,
      "osm_id": 5244796185,
      "osm_type": "node",
      "address": "Sabuncuhan\u0131 Soka\u011f\u0131",
      "road_geometry": null
    },
    {
      "name": "Me\u015fhur Miss D\u00f6ner",
      "category": [
        "amenity.restaurant"
      ],
      "lat": 41.0161462,
      "lon": 28.970226,
      "osm_id": 5244796186,
      "osm_type": "node",
      "address": "Sabuncuhan\u0131 Soka\u011f\u0131",
      "road_geometry": null
    },
    {
      "name": "Della Moore",
      "category": [
        "shop.craft"
      ],
      "lat": 41.0162031,
      "lon": 28.970281,
      "osm_id": 5244796187,
      "osm_type": "node",
      "address": "Sabuncuhan\u0131 Soka\u011f\u0131",
      "road_geometry": null
    },
    {
      "name": "Alibaba Do\u011fal Ta\u015f",
      "category": [
        "shop.Natural_stones"
      ],
      "lat": 41.0160751,
      "lon": 28.9701495,
      "osm_id": 5244796188,
      "osm_type": "node",
      "address": "Sabuncuhan\u0131 Soka\u011f\u0131",
      "road_geometry": null
    },
    {
      "name": "G\u00fcrel Bijuteri Ma\u011faza",
      "category": [
        "shop.clothes"
      ],
      "lat": 41.0159765,
      "lon": 28.9700918,
      "osm_id": 5244796189,
      "osm_type": "node",
      "address": "Sabuncuhan\u0131 Soka\u011f\u0131",
      "road_geometry": null
    },
    {
      "name": "Huzur \u00c7i\u00e7ek",
      "category": [
        "shop.florist"
      ],
      "lat": 41.0158725,
      "lon": 28.9700002,
      "osm_id": 5244796190,
      "osm_type": "node",
      "address": "Sabuncuhan\u0131 Soka\u011f\u0131",
      "road_geometry": null
    },
    {
      "name": "Meydan Makas",
      "category": [
        "shop.tailor"
      ],
      "lat": 41.0157867,
      "lon": 28.9699439,
      "osm_id": 5244796191,
      "osm_type": "node",
      "address": "Sabuncuhan\u0131 Soka\u011f\u0131",
      "road_geometry": null
    },
    {
      "name": "Ta\u015f D\u00fcnyas\u0131 Aksesuar",
      "category": [
        "shop.beauty"
      ],
      "lat": 41.0161823,
      "lon": 28.9697436,
      "osm_id": 5244798421,
      "osm_type": "node",
      "address": "F\u0131nd\u0131k\u00e7\u0131lar Soka\u011f\u0131",
      "road_geometry": null
    },
    {
      "name": "Buji teks Aksesuar",
      "category": [
        "shop.clothes"
      ],
      "lat": 41.015953,
      "lon": 28.9699407,
      "osm_id": 5244798422,
      "osm_type": "node",
      "address": "F\u0131nd\u0131k\u00e7\u0131lar Soka\u011f\u0131",
      "road_geometry": null
    },
    {
      "name": "Erkal \u0130leti\u015fim Hizmetleri",
      "category": [
        "shop.mobile_phone"
      ],
      "lat": 41.0160511,
      "lon": 28.969934,
      "osm_id": 5244798423,
      "osm_type": "node",
      "address": "F\u0131nd\u0131k\u00e7\u0131lar Soka\u011f\u0131",
      "road_geometry": null
    },
    {
      "name": "Kebaq\u8089\u6372",
      "category": [
        "amenity.fast_food"
      ],
      "lat": 41.0172132,
      "lon": 28.9695544,
      "osm_id": 5395306821,
      "osm_type": "node",
      "address": null,
      "road_geometry": null
    },
    {
      "name": "PTT",
      "category": [
        "amenity.post_office"
      ],
      "lat": 41.0168654,
      "lon": 28.9703518,
      "osm_id": 5482975729,
      "osm_type": "node",
      "address": null,
      "road_geometry": null
    },
    {
      "name": "Bursapazari",
      "category": [
        "shop.hardware"
      ],
      "lat": 41.0172565,
      "lon": 28.969757,
      "osm_id": 5482975730,
      "osm_type": "node",
      "address": null,
      "road_geometry": null
    },
    {
      "name": "Okyanus",
      "category": [
        "amenity.cafe"
      ],
      "lat": 41.0172813,
      "lon": 28.9697193,
      "osm_id": 5482975826,
      "osm_type": "node",
      "address": null,
      "road_geometry": null
    },
    {
      "name": "G\u00fcvener I\u015f Hani",
      "category": [
        "shop.jewelry"
      ],
      "lat": 41.0159715,
      "lon": 28.9694739,
      "osm_id": 5674804421,
      "osm_type": "node",
      "address": null,
      "road_geometry": null
    },
    {
      "name": "Lezzet-i Sark",
      "category": [
        "amenity.restaurant"
      ],
      "lat": 41.0170784,
      "lon": 28.969287,
      "osm_id": 7036816785,
      "osm_type": "node",
      "address": null,
      "road_geometry": null
    },
    {
      "name": "Happyline",
      "category": [
        "shop.jewelry"
      ],
      "lat": 41.0157683,
      "lon": 28.9700424,
      "osm_id": 7109313685,
      "osm_type": "node",
      "address": null,
      "road_geometry": null
    },
    {
      "name": "Moda Accessoires",
      "category": [
        "shop.gift"
      ],
      "lat": 41.0159711,
      "lon": 28.9702112,
      "osm_id": 7109322586,
      "osm_type": "node",
      "address": null,
      "road_geometry": null
    },
    {
      "name": "Esmer",
      "category": [
        "shop.variety_store"
      ],
      "lat": 41.0161731,
      "lon": 28.9702586,
      "osm_id": 7109322589,
      "osm_type": "node",
      "address": null,
      "road_geometry": null
    },
    {
      "name": "Emir Bazaar",
      "category": [
        "shop.confectionery"
      ],
      "lat": 41.0168251,
      "lon": 28.9706946,
      "osm_id": 7109323586,
      "osm_type": "node",
      "address": null,
      "road_geometry": null
    },
    {
      "name": "Alipasazade",
      "category": [
        "shop.confectionery"
      ],
      "lat": 41.0167779,
      "lon": 28.9706572,
      "osm_id": 7109331885,
      "osm_type": "node",
      "address": null,
      "road_geometry": null
    },
    {
      "name": "S\u00fckr\u00fc Efendi",
      "category": [
        "shop.confectionery"
      ],
      "lat": 41.0168854,
      "lon": 28.9707421,
      "osm_id": 7109333585,
      "osm_type": "node",
      "address": null,
      "road_geometry": null
    },
    {
      "name": "Osmanlioglu Baklavalari",
      "category": [
        "shop.confectionery"
      ],
      "lat": 41.0165156,
      "lon": 28.9703734,
      "osm_id": 8093516039,
      "osm_type": "node",
      "address": "Tahmis Soka\u011f\u0131",
      "road_geometry": null
    },
    {
      "name": "Anas Chicken",
      "category": [
        "amenity.fast_food"
      ],
      "lat": 41.0174531,
      "lon": 28.9694554,
      "osm_id": 9801964473,
      "osm_type": "node",
      "address": null,
      "road_geometry": null
    },
    {
      "name": "Kahvalt\u0131 D\u00fcnyas\u0131",
      "category": [
        "shop.convenience"
      ],
      "lat": 41.0167468,
      "lon": 28.9706183,
      "osm_id": 9833781317,
      "osm_type": "node",
      "address": null,
      "road_geometry": null
    },
    {
      "name": "Malatya pazari",
      "category": [
        "shop.confectionery"
      ],
      "lat": 41.0171814,
      "lon": 28.9710863,
      "osm_id": 9950496824,
      "osm_type": "node",
      "address": null,
      "road_geometry": null
    },
    {
      "name": "Malatya pazari",
      "category": [
        "shop.confectionery"
      ],
      "lat": 41.0164043,
      "lon": 28.9703906,
      "osm_id": 9950496825,
      "osm_type": "node",
      "address": null,
      "road_geometry": null
    },
    {
      "name": "Cankurtaran Qida",
      "category": [
        "shop.convenience"
      ],
      "lat": 41.0161057,
      "lon": 28.9712915,
      "osm_id": 9950496921,
      "osm_type": "node",
      "address": null,
      "road_geometry": null
    },
    {
      "name": "Cankurtaran gida",
      "category": [
        "shop.butcher"
      ],
      "lat": 41.0165771,
      "lon": 28.9708117,
      "osm_id": 9950497019,
      "osm_type": "node",
      "address": null,
      "road_geometry": null
    },
    {
      "name": "Emin\u00f6n\u00fc M\u0131s\u0131r \u00c7ar\u015f\u0131s\u0131",
      "category": [
        "highway.bus_stop"
      ],
      "lat": 41.0177584,
      "lon": 28.9701933,
      "osm_id": 11514147495,
      "osm_type": "node",
      "address": null,
      "road_geometry": null
    },
    {
      "name": "Istanbul",
      "category": [
        "tourism.artwork"
      ],
      "lat": 41.0176843,
      "lon": 28.9705587,
      "osm_id": 11812060145,
      "osm_type": "node",
      "address": null,
      "road_geometry": null
    }
  ]
}