{
  "image": "dataset/images/593.png",
  "center_lat": 41.01689189189191,
  "center_lon": 28.97641737684856,
  "bbox": [
    28.974924888044146,
    41.015765765765785,
    28.977909865652975,
    41.01801801801804
  ],
  "unique_categories": [
    "shop.books",
    "amenity.bicycle_rental",
    "shop.convenience",
    "amenity.restaurant",
    "shop.gift",
    "highway.bus_stop",
    "amenity.cafe",
    "amenity.fast_food",
    "shop.newsagent",
    "amenity.ferry_terminal",
    "amenity.post_office",
    "tourism.hotel",
    "shop.perfumery",
    "shop.optician"
  ],
  "poi_count_per_category": {
    "shop.books": 1,
    "amenity.bicycle_rental": 2,
    "shop.convenience": 1,
    "amenity.restaurant": 6,
    "shop.gift": 1,
    "highway.bus_stop": 3,
    "amenity.cafe": 1,
    "amenity.fast_food": 2,
    "shop.newsagent": 1,
    "amenity.ferry_terminal": 3,
    "amenity.post_office": 1,
    "tourism.hotel": 1,
    "shop.perfumery": 1,
    "shop.optician": 1
  },
  "poi_count": 25,
  "pois": [
    {
      "name": "Emin\u00f6n\u00fc",
      "category": [
        "amenity.ferry_terminal"
      ],
      "lat": 41.0175781,
      "lon": 28.9751818,
      "osm_id": 2474131665,
      "osm_type": "node",
      "address": null,
      "road_geometry": null
    },
    {
      "name": "Sirkeci",
      "category": [
        "amenity.ferry_terminal"
      ],
      "lat": 41.016772,
      "lon": 28.9776393,
      "osm_id": 3083547590,
      "osm_type": "node",
      "address": null,
      "road_geometry": null
    },
    {
      "name": "Semb\u00f6l b\u00fcfe",
      "category": [
        "amenity.fast_food"
      ],
      "lat": 41.0167889,
      "lon": 28.976238,
      "osm_id": 3457706724,
      "osm_type": "node",
      "address": null,
      "road_geometry": null
    },
    {
      "name": "Gazette Bayii",
      "category": [
        "shop.newsagent"
      ],
      "lat": 41.0168445,
      "lon": 28.9759992,
      "osm_id": 3457706726,
      "osm_type": "node",
      "address": null,
      "road_geometry": null
    },
    {
      "name": "Ozbasak",
      "category": [
        "amenity.restaurant"
      ],
      "lat": 41.0162329,
      "lon": 28.9755819,
      "osm_id": 5110347229,
      "osm_type": "node",
      "address": "Yal\u0131 k\u00f6\u015fk\u00fc caddesi",
      "road_geometry": null
    },
    {
      "name": "Yurti\u00e7i kargo",
      "category": [
        "amenity.post_office"
      ],
      "lat": 41.0161543,
      "lon": 28.9750215,
      "osm_id": 5110347230,
      "osm_type": "node",
      "address": "Yal\u0131 k\u00f6\u015fk\u00fc caddesi",
      "road_geometry": null
    },
    {
      "name": "Faruk G\u00fcll\u00fco\u011flu",
      "category": [
        "amenity.restaurant"
      ],
      "lat": 41.0158235,
      "lon": 28.9761062,
      "osm_id": 5110347270,
      "osm_type": "node",
      "address": "Ankara Caddesi",
      "road_geometry": null
    },
    {
      "name": "Rumeli \u00e7ikolata",
      "category": [
        "amenity.restaurant"
      ],
      "lat": 41.0158057,
      "lon": 28.9759473,
      "osm_id": 5110347271,
      "osm_type": "node",
      "address": "Ankara Caddesi",
      "road_geometry": null
    },
    {
      "name": "Acemo\u011flu baklavalar\u0131",
      "category": [
        "amenity.restaurant"
      ],
      "lat": 41.0160578,
      "lon": 28.9762218,
      "osm_id": 5110347273,
      "osm_type": "node",
      "address": "Ankara Caddesi",
      "road_geometry": null
    },
    {
      "name": "Manesol hotel",
      "category": [
        "tourism.hotel"
      ],
      "lat": 41.0160045,
      "lon": 28.9760448,
      "osm_id": 5110347275,
      "osm_type": "node",
      "address": "Ankara Caddesi",
      "road_geometry": null
    },
    {
      "name": "D&P Perfumum",
      "category": [
        "shop.perfumery"
      ],
      "lat": 41.0162164,
      "lon": 28.9762392,
      "osm_id": 5110347276,
      "osm_type": "node",
      "address": "Ankara Caddesi",
      "road_geometry": null
    },
    {
      "name": "Emin\u00f6n\u00fc \u0130skelesi",
      "category": [
        "amenity.ferry_terminal"
      ],
      "lat": 41.0171316,
      "lon": 28.976271,
      "osm_id": 5672864364,
      "osm_type": "node",
      "address": null,
      "road_geometry": null
    },
    {
      "name": "Moma's Cafe Restaurant",
      "category": [
        "amenity.cafe"
      ],
      "lat": 41.0158124,
      "lon": 28.9760039,
      "osm_id": 5710046243,
      "osm_type": "node",
      "address": null,
      "road_geometry": null
    },
    {
      "name": "Merkez Saatcilik",
      "category": [
        "shop.gift"
      ],
      "lat": 41.0159568,
      "lon": 28.9757211,
      "osm_id": 5982598985,
      "osm_type": "node",
      "address": null,
      "road_geometry": null
    },
    {
      "name": "Esmer Chef Fish House",
      "category": [
        "amenity.restaurant"
      ],
      "lat": 41.015816,
      "lon": 28.9760694,
      "osm_id": 6968692361,
      "osm_type": "node",
      "address": null,
      "road_geometry": null
    },
    {
      "name": "Sirkeci-1 \u0130sbike \u0130stasyonu",
      "category": [
        "amenity.bicycle_rental"
      ],
      "lat": 41.0164861,
      "lon": 28.9767835,
      "osm_id": 8946621256,
      "osm_type": "node",
      "address": null,
      "road_geometry": null
    },
    {
      "name": "Sirkeci-2 \u0130sbike \u0130stasyonu",
      "category": [
        "amenity.bicycle_rental"
      ],
      "lat": 41.0164083,
      "lon": 28.9770262,
      "osm_id": 8946621257,
      "osm_type": "node",
      "address": null,
      "road_geometry": null
    },
    {
      "name": "Migros Jet",
      "category": [
        "shop.convenience"
      ],
      "lat": 41.016023,
      "lon": 28.976143,
      "osm_id": 9950496828,
      "osm_type": "node",
      "address": null,
      "road_geometry": null
    },
    {
      "name": "Emin\u00f6n\u00fc Iskele",
      "category": [
        "highway.bus_stop"
      ],
      "lat": 41.01668,
      "lon": 28.975283,
      "osm_id": 11514094866,
      "osm_type": "node",
      "address": null,
      "road_geometry": null
    },
    {
      "name": "Sirkeci",
      "category": [
        "highway.bus_stop"
      ],
      "lat": 41.016045,
      "lon": 28.97721,
      "osm_id": 11514147478,
      "osm_type": "node",
      "address": null,
      "road_geometry": null
    },
    {
      "name": "Emin\u00f6n\u00fc \u0130skele",
      "category": [
        "highway.bus_stop"
      ],
      "lat": 41.017119,
      "lon": 28.975377,
      "osm_id": 11514222776,
      "osm_type": "node",
      "address": null,
      "road_geometry": null
    },
    {
      "name": "Kupal\u0131 optik",
      "category": [
        "shop.optician"
      ],
      "lat": 41.0159529,
      "lon": 28.9756521,
      "osm_id": 12046256738,
      "osm_type": "node",
      "address": null,
      "road_geometry": null
    },
    {
      "name": "\u0130stanbul Kitap\u00e7\u0131s\u0131",
      "category": [
        "shop.books"
      ],
      "lat": 41.0169337,
      "lon": 28.9761848,
      "osm_id": 12352274168,
      "osm_type": "node",
      "address": null,
      "road_geometry": null
    },
    {
      "name": "McDonald's",
      "category": [
        "amenity.fast_food"
      ],
      "lat": 41.0161745,
      "lon": 28.9762557,
      "osm_id": 13396860929,
      "osm_type": "node",
      "address": null,
      "road_geometry": null
    },
    {
      "name": "Biryani Palace",
      "category": [
        "amenity.restaurant"
      ],
      "lat": 41.0161105,
      "lon": 28.9761682,
      "osm_id": 13396860930,
      "osm_type": "node",
      "address": null,
      "road_geometry": null
    }
  ]
}