{
  "image": "dataset/images/596.png",
  "center_lat": 41.01689189189191,
  "center_lon": 28.985372309675046,
  "bbox": [
    28.983879820870634,
    41.015765765765785,
    28.986864798479463,
    41.01801801801804
  ],
  "unique_categories": [
    "amenity.bicycle_rental",
    "amenity.parking",
    "amenity.cafe",
    "tourism.viewpoint",
    "highway.rest_area"
  ],
  "poi_count_per_category": {
    "amenity.bicycle_rental": 1,
    "amenity.parking": 1,
    "amenity.cafe": 1,
    "tourism.viewpoint": 1,
    "highway.rest_area": 1
  },
  "poi_count": 4,
  "pois": [
    {
      "name": "Sarayburnu Manzaras\u0131",
      "category": [
        "tourism.viewpoint"
      ],
      "lat": 41.0175429,
      "lon": 28.9857457,
      "osm_id": 5108828689,
      "osm_type": "node",
      "address": "kennedy Cd",
      "road_geometry": null
    },
    {
      "name": "Sarayburnu Aile \u00c7ay Bah\u00e7esi",
      "category": [
        "amenity.cafe",
        "highway.rest_area"
      ],
      "lat": 41.0175682,
      "lon": 28.9857082,
      "osm_id": 5108828690,
      "osm_type": "node",
      "address": "Kennedy Caddesi",
      "road_geometry": null
    },
    {
      "name": "Sarayburnu \u0130sbike \u0130stasyonu",
      "category": [
        "amenity.bicycle_rental"
      ],
      "lat": 41.0158874,
      "lon": 28.9864901,
      "osm_id": 8085788984,
      "osm_type": "node",
      "address": null,
      "road_geometry": null
    },
    {
      "name": "Sarayburnu Otopark",
      "category": [
        "amenity.parking"
      ],
      "lat": 41.0168612,
      "lon": 28.9840613,
      "osm_id": 11010260461,
      "osm_type": "node",
      "address": null,
      "road_geometry": null
    }
  ]
}