{
  "image": "dataset/images/60.png",
  "center_lat": 48.85612612612612,
  "center_lon": 2.3435576200166826,
  "bbox": [
    2.341846096013346,
    48.855,
    2.345269144020019,
    48.85725225225225
  ],
  "unique_categories": [
    "tourism.artwork",
    "amenity.restaurant",
    "amenity.events_venue",
    "shop.wine",
    "amenity.cafe",
    "tourism.information",
    "shop.art",
    "shop.shoes",
    "amenity.police"
  ],
  "poi_count_per_category": {
    "tourism.artwork": 8,
    "amenity.restaurant": 4,
    "amenity.events_venue": 1,
    "shop.wine": 1,
    "amenity.cafe": 1,
    "tourism.information": 1,
    "shop.art": 1,
    "shop.shoes": 1,
    "amenity.police": 1
  },
  "poi_count": 19,
  "pois": [
    {
      "name": "Police judiciaire - Brigade criminelle - Brigade des stup\u00e9fiants",
      "category": [
        "amenity.police"
      ],
      "lat": 48.8553731,
      "lon": 2.3435125,
      "osm_id": 676727512,
      "osm_type": "node",
      "address": null,
      "road_geometry": null
    },
    {
      "name": "Le Caveau du Palais",
      "category": [
        "amenity.restaurant"
      ],
      "lat": 48.8565275,
      "lon": 2.3420348,
      "osm_id": 676748255,
      "osm_type": "node",
      "address": "Place Dauphine",
      "road_geometry": null
    },
    {
      "name": "La Rose de France",
      "category": [
        "amenity.restaurant"
      ],
      "lat": 48.8568716,
      "lon": 2.3421327,
      "osm_id": 676748299,
      "osm_type": "node",
      "address": null,
      "road_geometry": null
    },
    {
      "name": "L'Equit\u00e9",
      "category": [
        "tourism.artwork"
      ],
      "lat": 48.8561477,
      "lon": 2.3433101,
      "osm_id": 2556891778,
      "osm_type": "node",
      "address": null,
      "road_geometry": null
    },
    {
      "name": "La Force",
      "category": [
        "tourism.artwork"
      ],
      "lat": 48.8561981,
      "lon": 2.3433497,
      "osm_id": 2556891807,
      "osm_type": "node",
      "address": null,
      "road_geometry": null
    },
    {
      "name": "La Protection",
      "category": [
        "tourism.artwork"
      ],
      "lat": 48.8562493,
      "lon": 2.3433854,
      "osm_id": 2556891835,
      "osm_type": "node",
      "address": null,
      "road_geometry": null
    },
    {
      "name": "Le Ch\u00e2timent",
      "category": [
        "tourism.artwork"
      ],
      "lat": 48.8563448,
      "lon": 2.3434673,
      "osm_id": 2556891885,
      "osm_type": "node",
      "address": null,
      "road_geometry": null
    },
    {
      "name": "La V\u00e9rit\u00e9",
      "category": [
        "tourism.artwork"
      ],
      "lat": 48.8563944,
      "lon": 2.3435063,
      "osm_id": 2556891913,
      "osm_type": "node",
      "address": null,
      "road_geometry": null
    },
    {
      "name": "La Prudence",
      "category": [
        "tourism.artwork"
      ],
      "lat": 48.8564406,
      "lon": 2.3435433,
      "osm_id": 2556891942,
      "osm_type": "node",
      "address": null,
      "road_geometry": null
    },
    {
      "name": "Quai des Orf\u00e8vres",
      "category": [
        "tourism.information"
      ],
      "lat": 48.8554474,
      "lon": 2.3430239,
      "osm_id": 5073643644,
      "osm_type": "node",
      "address": null,
      "road_geometry": null
    },
    {
      "name": "Les Jardins du Pont-Neuf",
      "category": [
        "amenity.events_venue"
      ],
      "lat": 48.857238,
      "lon": 2.3418615,
      "osm_id": 8016083787,
      "osm_type": "node",
      "address": null,
      "road_geometry": null
    },
    {
      "name": "Le Dauphin",
      "category": [
        "amenity.restaurant"
      ],
      "lat": 48.8568423,
      "lon": 2.3422908,
      "osm_id": 10052528914,
      "osm_type": "node",
      "address": null,
      "road_geometry": null
    },
    {
      "name": "Le Bar Du Caveau",
      "category": [
        "amenity.restaurant"
      ],
      "lat": 48.8564179,
      "lon": 2.3421626,
      "osm_id": 10052538117,
      "osm_type": "node",
      "address": null,
      "road_geometry": null
    },
    {
      "name": "Napa",
      "category": [
        "shop.wine"
      ],
      "lat": 48.8568123,
      "lon": 2.34246,
      "osm_id": 10052538121,
      "osm_type": "node",
      "address": "Place Dauphine",
      "road_geometry": null
    },
    {
      "name": "Paire & fils",
      "category": [
        "shop.shoes"
      ],
      "lat": 48.8570202,
      "lon": 2.3418555,
      "osm_id": 12156189245,
      "osm_type": "node",
      "address": null,
      "road_geometry": null
    },
    {
      "name": "Design Festa Gallery",
      "category": [
        "shop.art"
      ],
      "lat": 48.8569578,
      "lon": 2.3423869,
      "osm_id": 12156189250,
      "osm_type": "node",
      "address": null,
      "road_geometry": null
    },
    {
      "name": "Fu de Cha",
      "category": [
        "amenity.cafe"
      ],
      "lat": 48.8569307,
      "lon": 2.3425978,
      "osm_id": 12156189251,
      "osm_type": "node",
      "address": null,
      "road_geometry": null
    },
    {
      "name": "Lion",
      "category": [
        "tourism.artwork"
      ],
      "lat": 48.8562688,
      "lon": 2.3432973,
      "osm_id": 13038980892,
      "osm_type": "node",
      "address": null,
      "road_geometry": null
    },
    {
      "name": "Lion",
      "category": [
        "tourism.artwork"
      ],
      "lat": 48.8563763,
      "lon": 2.3433829,
      "osm_id": 13038980893,
      "osm_type": "node",
      "address": null,
      "road_geometry": null
    }
  ]
}