{
  "image": "dataset/images/613.png",
  "center_lat": 41.02139639639642,
  "center_lon": 28.970448136106235,
  "bbox": [
    28.968955545233914,
    41.020270270270295,
    28.971940726978552,
    41.02252252252255
  ],
  "unique_categories": [
    "amenity.fast_food",
    "amenity.restaurant"
  ],
  "poi_count_per_category": {
    "amenity.fast_food": 2,
    "amenity.restaurant": 2
  },
  "poi_count": 4,
  "pois": [
    {
      "name": "Hur Super Mario Emin Usta",
      "category": [
        "amenity.fast_food"
      ],
      "lat": 41.0224223,
      "lon": 28.9706612,
      "osm_id": 5309720121,
      "osm_type": "node",
      "address": "Makarac\u0131lar Caddesi",
      "road_geometry": null
    },
    {
      "name": "Kuytu Bal\u0131k",
      "category": [
        "amenity.restaurant"
      ],
      "lat": 41.0223597,
      "lon": 28.9710027,
      "osm_id": 6119533392,
      "osm_type": "node",
      "address": null,
      "road_geometry": null
    },
    {
      "name": "Mario Balik Ekmek",
      "category": [
        "amenity.fast_food"
      ],
      "lat": 41.0223907,
      "lon": 28.9707991,
      "osm_id": 9281173202,
      "osm_type": "node",
      "address": null,
      "road_geometry": null
    },
    {
      "name": "Yakamoz Bal\u0131k",
      "category": [
        "amenity.restaurant"
      ],
      "lat": 41.0222007,
      "lon": 28.9717128,
      "osm_id": 11948392714,
      "osm_type": "node",
      "address": null,
      "road_geometry": null
    }
  ]
}