{
  "image": "dataset/images/615.png",
  "center_lat": 41.02139639639642,
  "center_lon": 28.97641849959551,
  "bbox": [
    28.97492590872319,
    41.020270270270295,
    28.977911090467828,
    41.02252252252255
  ],
  "unique_categories": [
    "shop.books",
    "amenity.atm",
    "amenity.restaurant",
    "highway.bus_stop",
    "shop.gift",
    "shop.electronics",
    "amenity.pharmacy",
    "amenity.cafe",
    "shop.alcohol",
    "amenity.fast_food",
    "amenity.ferry_terminal",
    "shop.supermarket",
    "tourism.hotel",
    "shop.outdoor"
  ],
  "poi_count_per_category": {
    "shop.books": 1,
    "amenity.atm": 7,
    "amenity.restaurant": 7,
    "highway.bus_stop": 1,
    "shop.gift": 1,
    "shop.electronics": 2,
    "amenity.pharmacy": 2,
    "amenity.cafe": 5,
    "shop.alcohol": 1,
    "amenity.fast_food": 1,
    "amenity.ferry_terminal": 2,
    "shop.supermarket": 1,
    "tourism.hotel": 1,
    "shop.outdoor": 3
  },
  "poi_count": 35,
  "pois": [
    {
      "name": "Karak\u00f6y",
      "category": [
        "amenity.ferry_terminal"
      ],
      "lat": 41.0211009,
      "lon": 28.9768149,
      "osm_id": 2478522785,
      "osm_type": "node",
      "address": null,
      "road_geometry": null
    },
    {
      "name": "Karak\u00f6y",
      "category": [
        "amenity.ferry_terminal"
      ],
      "lat": 41.0216273,
      "lon": 28.9757039,
      "osm_id": 2481849097,
      "osm_type": "node",
      "address": null,
      "road_geometry": null
    },
    {
      "name": "B\u00fclent Eczanesi",
      "category": [
        "amenity.pharmacy"
      ],
      "lat": 41.0221053,
      "lon": 28.975549,
      "osm_id": 3132607806,
      "osm_type": "node",
      "address": null,
      "road_geometry": null
    },
    {
      "name": "Karak\u00f6y",
      "category": [
        "highway.bus_stop"
      ],
      "lat": 41.0221109,
      "lon": 28.9750308,
      "osm_id": 3180242881,
      "osm_type": "node",
      "address": null,
      "road_geometry": null
    },
    {
      "name": "Atlas Outdoor",
      "category": [
        "shop.outdoor"
      ],
      "lat": 41.0224588,
      "lon": 28.9754765,
      "osm_id": 3455594693,
      "osm_type": "node",
      "address": null,
      "road_geometry": null
    },
    {
      "name": "Alt\u0131nok",
      "category": [
        "shop.electronics"
      ],
      "lat": 41.0223189,
      "lon": 28.9753114,
      "osm_id": 3455638963,
      "osm_type": "node",
      "address": null,
      "road_geometry": null
    },
    {
      "name": "Le B\u00fcro",
      "category": [
        "amenity.cafe"
      ],
      "lat": 41.0221424,
      "lon": 28.9756524,
      "osm_id": 4460642598,
      "osm_type": "node",
      "address": null,
      "road_geometry": null
    },
    {
      "name": "K\u0131l\u00e7\u0131ks\u0131z Bal\u0131k",
      "category": [
        "amenity.fast_food"
      ],
      "lat": 41.0219274,
      "lon": 28.9761329,
      "osm_id": 4736291422,
      "osm_type": "node",
      "address": null,
      "road_geometry": null
    },
    {
      "name": "Nil Eczanesi",
      "category": [
        "amenity.pharmacy"
      ],
      "lat": 41.0219169,
      "lon": 28.9760701,
      "osm_id": 4829207022,
      "osm_type": "node",
      "address": null,
      "road_geometry": null
    },
    {
      "name": "Kara",
      "category": [
        "shop.outdoor"
      ],
      "lat": 41.0221258,
      "lon": 28.9761881,
      "osm_id": 5720466422,
      "osm_type": "node",
      "address": null,
      "road_geometry": null
    },
    {
      "name": "Derya Kafeterya",
      "category": [
        "amenity.cafe"
      ],
      "lat": 41.0219575,
      "lon": 28.9763547,
      "osm_id": 6445291185,
      "osm_type": "node",
      "address": "R\u0131ht\u0131m Caddesi",
      "road_geometry": null
    },
    {
      "name": "ING",
      "category": [
        "amenity.atm"
      ],
      "lat": 41.0219071,
      "lon": 28.9758243,
      "osm_id": 6491341985,
      "osm_type": "node",
      "address": null,
      "road_geometry": null
    },
    {
      "name": "Caribou Coffee",
      "category": [
        "amenity.cafe"
      ],
      "lat": 41.0218456,
      "lon": 28.9756111,
      "osm_id": 7659967486,
      "osm_type": "node",
      "address": "R\u0131ht\u0131m Caddesi",
      "road_geometry": null
    },
    {
      "name": "Pangu",
      "category": [
        "shop.gift"
      ],
      "lat": 41.0218869,
      "lon": 28.9758918,
      "osm_id": 8324180073,
      "osm_type": "node",
      "address": null,
      "road_geometry": null
    },
    {
      "name": "Olimpiyat Restaurant",
      "category": [
        "amenity.restaurant"
      ],
      "lat": 41.0219093,
      "lon": 28.9760135,
      "osm_id": 8324180074,
      "osm_type": "node",
      "address": null,
      "road_geometry": null
    },
    {
      "name": "Espressolab",
      "category": [
        "amenity.cafe"
      ],
      "lat": 41.0218962,
      "lon": 28.9759546,
      "osm_id": 8324180075,
      "osm_type": "node",
      "address": null,
      "road_geometry": null
    },
    {
      "name": "Odessa Restaurant",
      "category": [
        "amenity.restaurant"
      ],
      "lat": 41.0219439,
      "lon": 28.9762938,
      "osm_id": 8324274589,
      "osm_type": "node",
      "address": null,
      "road_geometry": null
    },
    {
      "name": "Afrodit Restaurant",
      "category": [
        "amenity.restaurant"
      ],
      "lat": 41.0219679,
      "lon": 28.9764648,
      "osm_id": 8324274590,
      "osm_type": "node",
      "address": null,
      "road_geometry": null
    },
    {
      "name": "Mare Karak\u00f6y",
      "category": [
        "amenity.restaurant"
      ],
      "lat": 41.0219602,
      "lon": 28.9764102,
      "osm_id": 8324274591,
      "osm_type": "node",
      "address": null,
      "road_geometry": null
    },
    {
      "name": "Yap\u0131 Kredi",
      "category": [
        "amenity.atm"
      ],
      "lat": 41.022244,
      "lon": 28.9772091,
      "osm_id": 9045001118,
      "osm_type": "node",
      "address": null,
      "road_geometry": null
    },
    {
      "name": "Mado",
      "category": [
        "amenity.cafe"
      ],
      "lat": 41.021863,
      "lon": 28.9757856,
      "osm_id": 9286889917,
      "osm_type": "node",
      "address": null,
      "road_geometry": null
    },
    {
      "name": "QNB Finansbank",
      "category": [
        "amenity.atm"
      ],
      "lat": 41.0223261,
      "lon": 28.9771079,
      "osm_id": 10178410580,
      "osm_type": "node",
      "address": null,
      "road_geometry": null
    },
    {
      "name": "Vak\u0131fbank",
      "category": [
        "amenity.atm"
      ],
      "lat": 41.0223078,
      "lon": 28.9771257,
      "osm_id": 10178410581,
      "osm_type": "node",
      "address": null,
      "road_geometry": null
    },
    {
      "name": "Akbank",
      "category": [
        "amenity.atm"
      ],
      "lat": 41.0222573,
      "lon": 28.9771948,
      "osm_id": 10178410582,
      "osm_type": "node",
      "address": null,
      "road_geometry": null
    },
    {
      "name": "T\u00fcrkiye \u0130\u015f Bankas\u0131",
      "category": [
        "amenity.atm"
      ],
      "lat": 41.0222757,
      "lon": 28.9771726,
      "osm_id": 10178410584,
      "osm_type": "node",
      "address": null,
      "road_geometry": null
    },
    {
      "name": "Garanti Bankas\u0131",
      "category": [
        "amenity.atm"
      ],
      "lat": 41.0222923,
      "lon": 28.977148,
      "osm_id": 10178410585,
      "osm_type": "node",
      "address": null,
      "road_geometry": null
    },
    {
      "name": "Sportura Outdoor",
      "category": [
        "shop.outdoor"
      ],
      "lat": 41.022089,
      "lon": 28.9758502,
      "osm_id": 10178410589,
      "osm_type": "node",
      "address": null,
      "road_geometry": null
    },
    {
      "name": "\u00c7elebi Elektronik",
      "category": [
        "shop.electronics"
      ],
      "lat": 41.0223696,
      "lon": 28.9756378,
      "osm_id": 11582838677,
      "osm_type": "node",
      "address": null,
      "road_geometry": null
    },
    {
      "name": "Murat Muhallebicisi",
      "category": [
        "amenity.restaurant"
      ],
      "lat": 41.022319,
      "lon": 28.975486,
      "osm_id": 12512830898,
      "osm_type": "node",
      "address": null,
      "road_geometry": null
    },
    {
      "name": "Sofra",
      "category": [
        "amenity.restaurant"
      ],
      "lat": 41.0219727,
      "lon": 28.9765138,
      "osm_id": 12512834712,
      "osm_type": "node",
      "address": null,
      "road_geometry": null
    },
    {
      "name": "Meydan B\u00fcfe",
      "category": [
        "shop.alcohol"
      ],
      "lat": 41.0222091,
      "lon": 28.9755251,
      "osm_id": 12512834753,
      "osm_type": "node",
      "address": null,
      "road_geometry": null
    },
    {
      "name": "Me\u015fhur Karak\u00f6y Bal\u0131k D\u00fcr\u00fcmc\u00fcs\u00fc",
      "category": [
        "amenity.restaurant"
      ],
      "lat": 41.0224642,
      "lon": 28.9769672,
      "osm_id": 12512834766,
      "osm_type": "node",
      "address": null,
      "road_geometry": null
    },
    {
      "name": "Tucba",
      "category": [
        "shop.supermarket"
      ],
      "lat": 41.0222655,
      "lon": 28.9770247,
      "osm_id": 13396860933,
      "osm_type": "node",
      "address": null,
      "road_geometry": null
    },
    {
      "name": "The Hezar",
      "category": [
        "tourism.hotel"
      ],
      "lat": 41.0222229,
      "lon": 28.9769187,
      "osm_id": 13396860934,
      "osm_type": "node",
      "address": null,
      "road_geometry": null
    },
    {
      "name": "\u0130stanbul Kitap\u00e7\u0131s\u0131",
      "category": [
        "shop.books"
      ],
      "lat": 41.0211885,
      "lon": 28.9769122,
      "osm_id": 13702459442,
      "osm_type": "node",
      "address": null,
      "road_geometry": null
    }
  ]
}