{
  "image": "dataset/images/621.png",
  "center_lat": 41.023648648648674,
  "center_lon": 28.96149264191497,
  "bbox": [
    28.96,
    41.02252252252255,
    28.962985283829934,
    41.024774774774805
  ],
  "unique_categories": [
    "amenity.pub",
    "amenity.car_wash",
    "amenity.restaurant",
    "shop.gift",
    "highway.bus_stop",
    "shop.electronics",
    "amenity.cafe",
    "railway.tram_stop",
    "amenity.fast_food",
    "shop.supermarket",
    "shop.hairdresser"
  ],
  "poi_count_per_category": {
    "amenity.pub": 2,
    "amenity.car_wash": 1,
    "amenity.restaurant": 3,
    "shop.gift": 1,
    "highway.bus_stop": 2,
    "shop.electronics": 1,
    "amenity.cafe": 6,
    "railway.tram_stop": 2,
    "amenity.fast_food": 1,
    "shop.supermarket": 1,
    "shop.hairdresser": 1
  },
  "poi_count": 21,
  "pois": [
    {
      "name": "Sonax",
      "category": [
        "amenity.car_wash"
      ],
      "lat": 41.0227798,
      "lon": 28.960525,
      "osm_id": 5081442485,
      "osm_type": "node",
      "address": "Cemalettin Efendi Sokak",
      "road_geometry": null
    },
    {
      "name": "Kat\u0130na B\u00fcfe ve Tekel Bayii",
      "category": [
        "amenity.pub"
      ],
      "lat": 41.0228749,
      "lon": 28.9607342,
      "osm_id": 5081442487,
      "osm_type": "node",
      "address": "Abd\u00fclezelpa\u015fa Caddesi",
      "road_geometry": null
    },
    {
      "name": "Yar\u0131m Elma Kafe",
      "category": [
        "amenity.cafe"
      ],
      "lat": 41.0230799,
      "lon": 28.9609426,
      "osm_id": 5081442489,
      "osm_type": "node",
      "address": "Abd\u00fclezelpa\u015fa Caddesi",
      "road_geometry": null
    },
    {
      "name": "Mabed Kafe",
      "category": [
        "amenity.cafe"
      ],
      "lat": 41.0231389,
      "lon": 28.9608655,
      "osm_id": 5081442490,
      "osm_type": "node",
      "address": "Abd\u00fclezelpa\u015fa Caddesi",
      "road_geometry": null
    },
    {
      "name": "Mekan Cafe",
      "category": [
        "amenity.cafe"
      ],
      "lat": 41.0231224,
      "lon": 28.9608937,
      "osm_id": 5081442491,
      "osm_type": "node",
      "address": "Abd\u00fclezelpa\u015fa Caddesi",
      "road_geometry": null
    },
    {
      "name": "\u00c7ar\u015f\u0131 Tekel",
      "category": [
        "amenity.pub"
      ],
      "lat": 41.0231822,
      "lon": 28.9608019,
      "osm_id": 5081442492,
      "osm_type": "node",
      "address": "Abd\u00fclezelpa\u015fa Caddesi",
      "road_geometry": null
    },
    {
      "name": "Elma Nane Cafe ve Nargile",
      "category": [
        "amenity.cafe"
      ],
      "lat": 41.0232506,
      "lon": 28.960723,
      "osm_id": 5081442493,
      "osm_type": "node",
      "address": "Abd\u00fclezelpa\u015fa Caddesi",
      "road_geometry": null
    },
    {
      "name": "Ammoti Nargile Cafe",
      "category": [
        "amenity.cafe"
      ],
      "lat": 41.02341,
      "lon": 28.9605553,
      "osm_id": 5081442494,
      "osm_type": "node",
      "address": "Abd\u00fclezelpa\u015fa C",
      "road_geometry": null
    },
    {
      "name": "Kumpir ve Waffle",
      "category": [
        "amenity.restaurant"
      ],
      "lat": 41.0234677,
      "lon": 28.9604728,
      "osm_id": 5081442495,
      "osm_type": "node",
      "address": "Abd\u00fclezelpa\u015fa Caddesi",
      "road_geometry": null
    },
    {
      "name": "Osman Oglu Kebap",
      "category": [
        "amenity.restaurant"
      ],
      "lat": 41.0235841,
      "lon": 28.9604911,
      "osm_id": 5081442496,
      "osm_type": "node",
      "address": "Abd\u00fclezelpa\u015fa Caddesi",
      "road_geometry": null
    },
    {
      "name": "Ye\u015fil Gida",
      "category": [
        "shop.supermarket"
      ],
      "lat": 41.0231406,
      "lon": 28.9604191,
      "osm_id": 5081442502,
      "osm_type": "node",
      "address": "\u00dcsk\u00fcpl\u00fc Caddesi",
      "road_geometry": null
    },
    {
      "name": "Ahmet Erkek kuaf\u00f6r\u00fc",
      "category": [
        "shop.hairdresser"
      ],
      "lat": 41.023177,
      "lon": 28.9603325,
      "osm_id": 5081442503,
      "osm_type": "node",
      "address": "\u00dcsk\u00fcpl\u00fc Caddesi",
      "road_geometry": null
    },
    {
      "name": "Hilal Elektrik",
      "category": [
        "shop.electronics"
      ],
      "lat": 41.0231976,
      "lon": 28.9603076,
      "osm_id": 5081442504,
      "osm_type": "node",
      "address": "\u00dcsk\u00fcpl\u00fc Caddesi",
      "road_geometry": null
    },
    {
      "name": "Zerina",
      "category": [
        "amenity.restaurant"
      ],
      "lat": 41.0230421,
      "lon": 28.9609549,
      "osm_id": 7816100108,
      "osm_type": "node",
      "address": null,
      "road_geometry": null
    },
    {
      "name": "Cibali",
      "category": [
        "railway.tram_stop"
      ],
      "lat": 41.0242528,
      "lon": 28.9603158,
      "osm_id": 8225587071,
      "osm_type": "node",
      "address": null,
      "road_geometry": null
    },
    {
      "name": "Cibali",
      "category": [
        "railway.tram_stop"
      ],
      "lat": 41.0242282,
      "lon": 28.9602875,
      "osm_id": 8225587072,
      "osm_type": "node",
      "address": null,
      "road_geometry": null
    },
    {
      "name": "Sultan bazaar",
      "category": [
        "shop.gift"
      ],
      "lat": 41.0228298,
      "lon": 28.9606199,
      "osm_id": 10033127978,
      "osm_type": "node",
      "address": null,
      "road_geometry": null
    },
    {
      "name": "Sar\u0131yer B\u00f6rek\u00e7i\u015fi",
      "category": [
        "amenity.fast_food"
      ],
      "lat": 41.0227181,
      "lon": 28.9604871,
      "osm_id": 10033127979,
      "osm_type": "node",
      "address": null,
      "road_geometry": null
    },
    {
      "name": "AlengiR Cafe",
      "category": [
        "amenity.cafe"
      ],
      "lat": 41.0232981,
      "lon": 28.9606528,
      "osm_id": 11107630706,
      "osm_type": "node",
      "address": null,
      "road_geometry": null
    },
    {
      "name": "Cibali-Kadir Has \u00dcniversitesi",
      "category": [
        "highway.bus_stop"
      ],
      "lat": 41.023472,
      "lon": 28.960567,
      "osm_id": 11543327075,
      "osm_type": "node",
      "address": null,
      "road_geometry": null
    },
    {
      "name": "Cibali-Kadir Has \u00dcniversitesi",
      "category": [
        "highway.bus_stop"
      ],
      "lat": 41.024313,
      "lon": 28.960101,
      "osm_id": 11543327094,
      "osm_type": "node",
      "address": null,
      "road_geometry": null
    }
  ]
}