{
  "image": "dataset/images/635.png",
  "center_lat": 41.02590090090093,
  "center_lon": 28.970448850743885,
  "bbox": [
    28.96895615778047,
    41.024774774774805,
    28.971941543707295,
    41.02702702702706
  ],
  "unique_categories": [
    "tourism.hotel",
    "highway.bus_stop",
    "shop.electronics",
    "amenity.cafe",
    "shop.hardware",
    "leisure.sauna",
    "shop.supermarket",
    "amenity.bank"
  ],
  "poi_count_per_category": {
    "tourism.hotel": 5,
    "highway.bus_stop": 1,
    "shop.electronics": 1,
    "amenity.cafe": 1,
    "shop.hardware": 1,
    "leisure.sauna": 1,
    "shop.supermarket": 1,
    "amenity.bank": 2
  },
  "poi_count": 13,
  "pois": [
    {
      "name": "Kristal Et Lokantasi",
      "category": [
        "amenity.cafe"
      ],
      "lat": 41.0266775,
      "lon": 28.9705347,
      "osm_id": 4534691783,
      "osm_type": "node",
      "address": null,
      "road_geometry": null
    },
    {
      "name": "\u015e\u0131fa Hamam\u0131",
      "category": [
        "leisure.sauna"
      ],
      "lat": 41.0255132,
      "lon": 28.9691698,
      "osm_id": 4929711127,
      "osm_type": "node",
      "address": null,
      "road_geometry": null
    },
    {
      "name": "Elemeta Electric",
      "category": [
        "shop.electronics"
      ],
      "lat": 41.0252046,
      "lon": 28.9715188,
      "osm_id": 5710046223,
      "osm_type": "node",
      "address": null,
      "road_geometry": null
    },
    {
      "name": "Suma Shop",
      "category": [
        "shop.supermarket"
      ],
      "lat": 41.0250036,
      "lon": 28.9716704,
      "osm_id": 5710046224,
      "osm_type": "node",
      "address": null,
      "road_geometry": null
    },
    {
      "name": "Yap\u0131 Kredi",
      "category": [
        "amenity.bank"
      ],
      "lat": 41.0252978,
      "lon": 28.9717631,
      "osm_id": 5710046228,
      "osm_type": "node",
      "address": "Ok\u00e7u Musa Caddesi",
      "road_geometry": null
    },
    {
      "name": "Akbank",
      "category": [
        "amenity.bank"
      ],
      "lat": 41.0264127,
      "lon": 28.9716688,
      "osm_id": 5710046229,
      "osm_type": "node",
      "address": null,
      "road_geometry": null
    },
    {
      "name": "The Halich Hotel",
      "category": [
        "tourism.hotel"
      ],
      "lat": 41.0248564,
      "lon": 28.9698494,
      "osm_id": 9767567060,
      "osm_type": "node",
      "address": null,
      "road_geometry": null
    },
    {
      "name": "Hotel Vavien",
      "category": [
        "tourism.hotel"
      ],
      "lat": 41.0250529,
      "lon": 28.9711863,
      "osm_id": 9767571443,
      "osm_type": "node",
      "address": null,
      "road_geometry": null
    },
    {
      "name": "Sakarya",
      "category": [
        "shop.hardware"
      ],
      "lat": 41.0248605,
      "lon": 28.9711596,
      "osm_id": 9891610317,
      "osm_type": "node",
      "address": null,
      "road_geometry": null
    },
    {
      "name": "Depiero Hotel Karak\u00f6y",
      "category": [
        "tourism.hotel"
      ],
      "lat": 41.024953,
      "lon": 28.9703914,
      "osm_id": 10704484505,
      "osm_type": "node",
      "address": "Sar\u0131 Zeybek Soka\u011f\u0131",
      "road_geometry": null
    },
    {
      "name": "Galata Dream Hotel",
      "category": [
        "tourism.hotel"
      ],
      "lat": 41.0267306,
      "lon": 28.9692716,
      "osm_id": 10765839005,
      "osm_type": "node",
      "address": null,
      "road_geometry": null
    },
    {
      "name": "Azapkap\u0131-Hali\u00e7 Metro",
      "category": [
        "highway.bus_stop"
      ],
      "lat": 41.02492,
      "lon": 28.969236,
      "osm_id": 11543301664,
      "osm_type": "node",
      "address": null,
      "road_geometry": null
    },
    {
      "name": "Doruk Palas Hotel",
      "category": [
        "tourism.hotel"
      ],
      "lat": 41.0267714,
      "lon": 28.9705948,
      "osm_id": 13167691001,
      "osm_type": "node",
      "address": "Nazl\u0131 Han\u0131m Soka\u011f\u0131",
      "road_geometry": null
    }
  ]
}