{
  "image": "dataset/images/644.png",
  "center_lat": 19.426126126126128,
  "center_lon": -99.1414177091566,
  "bbox": [
    -99.1426118061044,
    19.425,
    -99.1402236122088,
    19.427252252252252
  ],
  "unique_categories": [
    "railway.subway_entrance",
    "shop.convenience",
    "amenity.community_centre",
    "highway.bus_stop",
    "amenity.cafe",
    "railway.stop",
    "railway.station",
    "shop.department_store",
    "amenity.bank"
  ],
  "poi_count_per_category": {
    "railway.subway_entrance": 2,
    "shop.convenience": 1,
    "amenity.community_centre": 2,
    "highway.bus_stop": 1,
    "amenity.cafe": 1,
    "railway.stop": 1,
    "railway.station": 1,
    "shop.department_store": 1,
    "amenity.bank": 1
  },
  "poi_count": 11,
  "pois": [
    {
      "name": "Salto del Agua",
      "category": [
        "railway.station"
      ],
      "lat": 19.4267538,
      "lon": -99.1420543,
      "osm_id": 294088991,
      "osm_type": "node",
      "address": null,
      "road_geometry": null
    },
    {
      "name": "Salto del Agua",
      "category": [
        "railway.stop"
      ],
      "lat": 19.4272197,
      "lon": -99.1419862,
      "osm_id": 3649370808,
      "osm_type": "node",
      "address": null,
      "road_geometry": null
    },
    {
      "name": "Salto del Agua",
      "category": [
        "railway.subway_entrance"
      ],
      "lat": 19.427144,
      "lon": -99.1420767,
      "osm_id": 5186603169,
      "osm_type": "node",
      "address": null,
      "road_geometry": null
    },
    {
      "name": "Salto del Agua",
      "category": [
        "railway.subway_entrance"
      ],
      "lat": 19.4270782,
      "lon": -99.1418168,
      "osm_id": 5186603170,
      "osm_type": "node",
      "address": null,
      "road_geometry": null
    },
    {
      "name": "Salto del Agua",
      "category": [
        "highway.bus_stop"
      ],
      "lat": 19.4263405,
      "lon": -99.1420145,
      "osm_id": 10582818894,
      "osm_type": "node",
      "address": null,
      "road_geometry": null
    },
    {
      "name": "Pilares SEPI",
      "category": [
        "amenity.community_centre"
      ],
      "lat": 19.4256253,
      "lon": -99.1410143,
      "osm_id": 10826196529,
      "osm_type": "node",
      "address": "Calle Nezahualc\u00f3yotl",
      "road_geometry": null
    },
    {
      "name": "HICHA",
      "category": [
        "amenity.cafe"
      ],
      "lat": 19.4257845,
      "lon": -99.1424868,
      "osm_id": 11968134569,
      "osm_type": "node",
      "address": "Avenida L\u00e1zaro C\u00e1rdenas",
      "road_geometry": null
    },
    {
      "name": "Centro de Estudios Interculturales \"Nezahualc\u00f3yotl\"",
      "category": [
        "amenity.community_centre"
      ],
      "lat": 19.4255821,
      "lon": -99.1408227,
      "osm_id": 12569258002,
      "osm_type": "node",
      "address": null,
      "road_geometry": null
    },
    {
      "name": "Oxxo",
      "category": [
        "shop.convenience"
      ],
      "lat": 19.4258596,
      "lon": -99.1420491,
      "osm_id": 13054709357,
      "osm_type": "node",
      "address": null,
      "road_geometry": null
    },
    {
      "name": "BBVA",
      "category": [
        "amenity.bank"
      ],
      "lat": 19.4259164,
      "lon": -99.1424077,
      "osm_id": 13054787740,
      "osm_type": "node",
      "address": null,
      "road_geometry": null
    },
    {
      "name": "Coppel",
      "category": [
        "shop.department_store"
      ],
      "lat": 19.4262512,
      "lon": -99.1418593,
      "osm_id": 13054790789,
      "osm_type": "node",
      "address": null,
      "road_geometry": null
    }
  ]
}