{
  "image": "dataset/images/650.png",
  "center_lat": 19.426126126126128,
  "center_lon": -99.12708854578301,
  "bbox": [
    -99.12828264273081,
    19.425,
    -99.12589444883521,
    19.427252252252252
  ],
  "unique_categories": [
    "shop.appliance",
    "shop.yes",
    "tourism.artwork",
    "shop.convenience",
    "amenity.restaurant",
    "highway.bus_stop",
    "shop.gift",
    "shop.copyshop",
    "shop.tortilla",
    "shop.stationery"
  ],
  "poi_count_per_category": {
    "shop.appliance": 1,
    "shop.yes": 1,
    "tourism.artwork": 1,
    "shop.convenience": 2,
    "amenity.restaurant": 1,
    "highway.bus_stop": 1,
    "shop.gift": 2,
    "shop.copyshop": 2,
    "shop.tortilla": 1,
    "shop.stationery": 5
  },
  "poi_count": 17,
  "pois": [
    {
      "name": "Merced",
      "category": [
        "highway.bus_stop"
      ],
      "lat": 19.425589,
      "lon": -99.1259846,
      "osm_id": 4208306191,
      "osm_type": "node",
      "address": null,
      "road_geometry": null
    },
    {
      "name": "Papeleria Fenix",
      "category": [
        "shop.stationery"
      ],
      "lat": 19.4271332,
      "lon": -99.1275853,
      "osm_id": 5509017056,
      "osm_type": "node",
      "address": null,
      "road_geometry": null
    },
    {
      "name": "Cazuelas Y Jarritos",
      "category": [
        "shop.appliance"
      ],
      "lat": 19.4269716,
      "lon": -99.1280002,
      "osm_id": 5509017070,
      "osm_type": "node",
      "address": null,
      "road_geometry": null
    },
    {
      "name": "Abarrotes Charly",
      "category": [
        "shop.convenience"
      ],
      "lat": 19.4272085,
      "lon": -99.1275933,
      "osm_id": 5509017096,
      "osm_type": "node",
      "address": null,
      "road_geometry": null
    },
    {
      "name": "Papeleria Y Regalos Liz",
      "category": [
        "shop.stationery"
      ],
      "lat": 19.4269166,
      "lon": -99.1280075,
      "osm_id": 5509017111,
      "osm_type": "node",
      "address": null,
      "road_geometry": null
    },
    {
      "name": "Papeleria \u00c1guila Y Sol",
      "category": [
        "shop.stationery"
      ],
      "lat": 19.4268657,
      "lon": -99.1276112,
      "osm_id": 5509017225,
      "osm_type": "node",
      "address": null,
      "road_geometry": null
    },
    {
      "name": "Novedades Rebe",
      "category": [
        "shop.gift"
      ],
      "lat": 19.4272285,
      "lon": -99.1279659,
      "osm_id": 5509017241,
      "osm_type": "node",
      "address": null,
      "road_geometry": null
    },
    {
      "name": "Tortiller\u00eda El \u00c1guila",
      "category": [
        "shop.tortilla"
      ],
      "lat": 19.4268283,
      "lon": -99.1276132,
      "osm_id": 5509017254,
      "osm_type": "node",
      "address": null,
      "road_geometry": null
    },
    {
      "name": "El Aguilita",
      "category": [
        "tourism.artwork"
      ],
      "lat": 19.4272223,
      "lon": -99.1277569,
      "osm_id": 5509017257,
      "osm_type": "node",
      "address": null,
      "road_geometry": null
    },
    {
      "name": "Novedades Fernanda",
      "category": [
        "shop.gift"
      ],
      "lat": 19.4269206,
      "lon": -99.1276083,
      "osm_id": 5509017266,
      "osm_type": "node",
      "address": null,
      "road_geometry": null
    },
    {
      "name": "Toner Y Consumibles Aguilita",
      "category": [
        "shop.copyshop"
      ],
      "lat": 19.4271583,
      "lon": -99.1279753,
      "osm_id": 5509017281,
      "osm_type": "node",
      "address": null,
      "road_geometry": null
    },
    {
      "name": "Rank Remix",
      "category": [
        "shop.copyshop"
      ],
      "lat": 19.4268353,
      "lon": -99.1280184,
      "osm_id": 5509017290,
      "osm_type": "node",
      "address": null,
      "road_geometry": null
    },
    {
      "name": "Papelerias",
      "category": [
        "shop.stationery"
      ],
      "lat": 19.4268526,
      "lon": -99.128153,
      "osm_id": 5509017427,
      "osm_type": "node",
      "address": null,
      "road_geometry": null
    },
    {
      "name": "Inovarte Articulos De Alambre",
      "category": [
        "shop.yes"
      ],
      "lat": 19.4270785,
      "lon": -99.127592,
      "osm_id": 5509017440,
      "osm_type": "node",
      "address": null,
      "road_geometry": null
    },
    {
      "name": "Papeleria Corch",
      "category": [
        "shop.stationery"
      ],
      "lat": 19.4270297,
      "lon": -99.1279924,
      "osm_id": 5509017452,
      "osm_type": "node",
      "address": null,
      "road_geometry": null
    },
    {
      "name": "atea",
      "category": [
        "shop.convenience"
      ],
      "lat": 19.4257549,
      "lon": -99.1279267,
      "osm_id": 7193729585,
      "osm_type": "node",
      "address": "Calle Topacio",
      "road_geometry": null
    },
    {
      "name": "Caldos de gallina Jos\u00e9 Mar\u00eda",
      "category": [
        "amenity.restaurant"
      ],
      "lat": 19.4258441,
      "lon": -99.1263116,
      "osm_id": 11689674267,
      "osm_type": "node",
      "address": null,
      "road_geometry": null
    }
  ]
}