{
  "image": "dataset/images/670.png",
  "center_lat": 19.432882882882883,
  "center_lon": -99.14380585338324,
  "bbox": [
    -99.145,
    19.431756756756755,
    -99.14261170676649,
    19.434009009009007
  ],
  "unique_categories": [
    "shop.stationery",
    "shop.appliance",
    "amenity.bicycle_rental",
    "shop.convenience",
    "amenity.restaurant",
    "amenity.cafe",
    "shop.interior_decoration",
    "shop.ticket",
    "shop.lighting",
    "tourism.hostel",
    "amenity.fast_food",
    "amenity.bar",
    "tourism.attraction"
  ],
  "poi_count_per_category": {
    "shop.stationery": 1,
    "shop.appliance": 2,
    "amenity.bicycle_rental": 1,
    "shop.convenience": 4,
    "amenity.restaurant": 12,
    "amenity.cafe": 2,
    "shop.interior_decoration": 1,
    "shop.ticket": 3,
    "shop.lighting": 1,
    "tourism.hostel": 1,
    "amenity.fast_food": 1,
    "amenity.bar": 3,
    "tourism.attraction": 1
  },
  "poi_count": 33,
  "pois": [
    {
      "name": "Barrio Chino",
      "category": [
        "tourism.attraction"
      ],
      "lat": 19.433015,
      "lon": -99.14305,
      "osm_id": 4629093193,
      "osm_type": "node",
      "address": null,
      "road_geometry": null
    },
    {
      "name": "Resturante Vegetariano",
      "category": [
        "amenity.restaurant"
      ],
      "lat": 19.4325839,
      "lon": -99.1442821,
      "osm_id": 4856648523,
      "osm_type": "node",
      "address": null,
      "road_geometry": null
    },
    {
      "name": "Ecobici Independencia / Marroqu\u00ed",
      "category": [
        "amenity.bicycle_rental"
      ],
      "lat": 19.4333254,
      "lon": -99.1438888,
      "osm_id": 5057044793,
      "osm_type": "node",
      "address": null,
      "road_geometry": null
    },
    {
      "name": "7-Eleven",
      "category": [
        "shop.convenience"
      ],
      "lat": 19.4336704,
      "lon": -99.1429837,
      "osm_id": 5100866633,
      "osm_type": "node",
      "address": null,
      "road_geometry": null
    },
    {
      "name": "Matsu",
      "category": [
        "amenity.restaurant"
      ],
      "lat": 19.4330247,
      "lon": -99.1431488,
      "osm_id": 5100869825,
      "osm_type": "node",
      "address": null,
      "road_geometry": null
    },
    {
      "name": "Circle K",
      "category": [
        "shop.convenience"
      ],
      "lat": 19.4333586,
      "lon": -99.1437383,
      "osm_id": 5100869826,
      "osm_type": "node",
      "address": null,
      "road_geometry": null
    },
    {
      "name": "Krispy Kreme",
      "category": [
        "amenity.fast_food"
      ],
      "lat": 19.4338112,
      "lon": -99.1429698,
      "osm_id": 5100870223,
      "osm_type": "node",
      "address": null,
      "road_geometry": null
    },
    {
      "name": "Take a Wok",
      "category": [
        "amenity.restaurant"
      ],
      "lat": 19.4332855,
      "lon": -99.1449409,
      "osm_id": 5100870726,
      "osm_type": "node",
      "address": null,
      "road_geometry": null
    },
    {
      "name": "Testal",
      "category": [
        "amenity.restaurant"
      ],
      "lat": 19.4334015,
      "lon": -99.1427589,
      "osm_id": 5515383223,
      "osm_type": "node",
      "address": "Calle Dolores",
      "road_geometry": null
    },
    {
      "name": "Cantina El Tio Pepe",
      "category": [
        "amenity.bar"
      ],
      "lat": 19.4329753,
      "lon": -99.1428568,
      "osm_id": 5619913625,
      "osm_type": "node",
      "address": "Independencia",
      "road_geometry": null
    },
    {
      "name": "Rebel Wings",
      "category": [
        "amenity.restaurant"
      ],
      "lat": 19.4335235,
      "lon": -99.1427382,
      "osm_id": 6813327785,
      "osm_type": "node",
      "address": null,
      "road_geometry": null
    },
    {
      "name": "Imperial",
      "category": [
        "shop.ticket"
      ],
      "lat": 19.4324778,
      "lon": -99.1433728,
      "osm_id": 8774055317,
      "osm_type": "node",
      "address": null,
      "road_geometry": null
    },
    {
      "name": "Serrana",
      "category": [
        "shop.ticket"
      ],
      "lat": 19.4326476,
      "lon": -99.1433098,
      "osm_id": 8774055417,
      "osm_type": "node",
      "address": null,
      "road_geometry": null
    },
    {
      "name": "Luna",
      "category": [
        "shop.ticket"
      ],
      "lat": 19.4328519,
      "lon": -99.1432789,
      "osm_id": 8774055517,
      "osm_type": "node",
      "address": null,
      "road_geometry": null
    },
    {
      "name": "La Casa de To\u00f1o",
      "category": [
        "amenity.restaurant"
      ],
      "lat": 19.4336489,
      "lon": -99.1429849,
      "osm_id": 9311518646,
      "osm_type": "node",
      "address": null,
      "road_geometry": null
    },
    {
      "name": "Mexico hostel",
      "category": [
        "tourism.hostel"
      ],
      "lat": 19.433225,
      "lon": -99.1444063,
      "osm_id": 9664827517,
      "osm_type": "node",
      "address": null,
      "road_geometry": null
    },
    {
      "name": "Oxxo",
      "category": [
        "shop.convenience"
      ],
      "lat": 19.4332314,
      "lon": -99.1444432,
      "osm_id": 9664827818,
      "osm_type": "node",
      "address": null,
      "road_geometry": null
    },
    {
      "name": "Mercado Independencia",
      "category": [
        "amenity.restaurant"
      ],
      "lat": 19.43317,
      "lon": -99.1443447,
      "osm_id": 9724978017,
      "osm_type": "node",
      "address": null,
      "road_geometry": null
    },
    {
      "name": "Office Depot",
      "category": [
        "shop.stationery"
      ],
      "lat": 19.4336207,
      "lon": -99.1427329,
      "osm_id": 10167696817,
      "osm_type": "node",
      "address": null,
      "road_geometry": null
    },
    {
      "name": "Cielito Querido",
      "category": [
        "amenity.cafe"
      ],
      "lat": 19.4334819,
      "lon": -99.1430171,
      "osm_id": 10176290617,
      "osm_type": "node",
      "address": null,
      "road_geometry": null
    },
    {
      "name": "AKZI",
      "category": [
        "shop.lighting"
      ],
      "lat": 19.4318103,
      "lon": -99.1449676,
      "osm_id": 11241881104,
      "osm_type": "node",
      "address": null,
      "road_geometry": null
    },
    {
      "name": "Provedora del hogar",
      "category": [
        "shop.appliance"
      ],
      "lat": 19.4323353,
      "lon": -99.1431119,
      "osm_id": 11241881122,
      "osm_type": "node",
      "address": null,
      "road_geometry": null
    },
    {
      "name": "Provedora del Hogar",
      "category": [
        "shop.appliance"
      ],
      "lat": 19.4323742,
      "lon": -99.1433696,
      "osm_id": 11241881123,
      "osm_type": "node",
      "address": null,
      "road_geometry": null
    },
    {
      "name": "Buda Panaderia",
      "category": [
        "amenity.cafe"
      ],
      "lat": 19.4323996,
      "lon": -99.1429759,
      "osm_id": 11241881124,
      "osm_type": "node",
      "address": null,
      "road_geometry": null
    },
    {
      "name": "Restaurante Bar Chung King",
      "category": [
        "amenity.restaurant"
      ],
      "lat": 19.4324459,
      "lon": -99.1430965,
      "osm_id": 11241881125,
      "osm_type": "node",
      "address": null,
      "road_geometry": null
    },
    {
      "name": "Kimoda",
      "category": [
        "shop.convenience"
      ],
      "lat": 19.4324646,
      "lon": -99.14292,
      "osm_id": 11241881126,
      "osm_type": "node",
      "address": null,
      "road_geometry": null
    },
    {
      "name": "Bufette Chnggon",
      "category": [
        "amenity.restaurant"
      ],
      "lat": 19.4325168,
      "lon": -99.142865,
      "osm_id": 11241881127,
      "osm_type": "node",
      "address": null,
      "road_geometry": null
    },
    {
      "name": "Restaurante Bar 4 Mares",
      "category": [
        "amenity.restaurant"
      ],
      "lat": 19.4326243,
      "lon": -99.1430778,
      "osm_id": 11241881129,
      "osm_type": "node",
      "address": null,
      "road_geometry": null
    },
    {
      "name": "Hong Kong",
      "category": [
        "amenity.restaurant"
      ],
      "lat": 19.4327709,
      "lon": -99.1430515,
      "osm_id": 11241881130,
      "osm_type": "node",
      "address": null,
      "road_geometry": null
    },
    {
      "name": "Tong Fong",
      "category": [
        "amenity.restaurant"
      ],
      "lat": 19.4329247,
      "lon": -99.1430161,
      "osm_id": 11241881131,
      "osm_type": "node",
      "address": null,
      "road_geometry": null
    },
    {
      "name": "Cantina T\u00edo Pepe",
      "category": [
        "amenity.bar"
      ],
      "lat": 19.4330182,
      "lon": -99.1430026,
      "osm_id": 11332271969,
      "osm_type": "node",
      "address": null,
      "road_geometry": null
    },
    {
      "name": "Decoraciones Matei",
      "category": [
        "shop.interior_decoration"
      ],
      "lat": 19.4318116,
      "lon": -99.1448865,
      "osm_id": 11788881443,
      "osm_type": "node",
      "address": null,
      "road_geometry": null
    },
    {
      "name": "La Mascota",
      "category": [
        "amenity.bar"
      ],
      "lat": 19.4329901,
      "lon": -99.1429821,
      "osm_id": 13270906601,
      "osm_type": "node",
      "address": null,
      "road_geometry": null
    }
  ]
}