{
  "image": "dataset/images/681.png",
  "center_lat": 19.435135135135134,
  "center_lon": -99.13902918411159,
  "bbox": [
    -99.14022334728928,
    19.434009009009007,
    -99.13783502093392,
    19.436261261261258
  ],
  "unique_categories": [
    "shop.books",
    "amenity.restaurant",
    "tourism.museum",
    "shop.gift",
    "amenity.cafe",
    "shop.optician",
    "amenity.bicycle_rental",
    "shop.convenience",
    "amenity.fast_food",
    "shop.clothes",
    "shop.perfumery",
    "amenity.pub",
    "shop.variety_store",
    "tourism.artwork",
    "amenity.doctors",
    "shop.nutrition_supplements",
    "tourism.guest_house",
    "amenity.pharmacy",
    "shop.department_store",
    "amenity.bar",
    "amenity.bank"
  ],
  "poi_count_per_category": {
    "shop.books": 1,
    "amenity.restaurant": 13,
    "tourism.museum": 2,
    "shop.gift": 1,
    "amenity.cafe": 3,
    "shop.optician": 1,
    "amenity.bicycle_rental": 1,
    "shop.convenience": 1,
    "amenity.fast_food": 1,
    "shop.clothes": 2,
    "shop.perfumery": 3,
    "amenity.pub": 2,
    "shop.variety_store": 1,
    "tourism.artwork": 4,
    "amenity.doctors": 1,
    "shop.nutrition_supplements": 1,
    "tourism.guest_house": 1,
    "amenity.pharmacy": 1,
    "shop.department_store": 1,
    "amenity.bar": 1,
    "amenity.bank": 2
  },
  "poi_count": 44,
  "pois": [
    {
      "name": "Museo del Tel\u00e9grafo",
      "category": [
        "tourism.museum"
      ],
      "lat": 19.4361764,
      "lon": -99.1390444,
      "osm_id": 1677215786,
      "osm_type": "node",
      "address": null,
      "road_geometry": null
    },
    {
      "name": "Chillout",
      "category": [
        "tourism.guest_house"
      ],
      "lat": 19.4353994,
      "lon": -99.1379773,
      "osm_id": 1702714513,
      "osm_type": "node",
      "address": null,
      "road_geometry": null
    },
    {
      "name": "Cantina La \u00d3pera",
      "category": [
        "amenity.pub"
      ],
      "lat": 19.4347251,
      "lon": -99.1393309,
      "osm_id": 2418219439,
      "osm_type": "node",
      "address": null,
      "road_geometry": null
    },
    {
      "name": "La Pagoda",
      "category": [
        "amenity.restaurant"
      ],
      "lat": 19.4347486,
      "lon": -99.1394688,
      "osm_id": 2418219459,
      "osm_type": "node",
      "address": null,
      "road_geometry": null
    },
    {
      "name": "Sanborns Azulejos",
      "category": [
        "shop.variety_store"
      ],
      "lat": 19.434351,
      "lon": -99.1401404,
      "osm_id": 2812606361,
      "osm_type": "node",
      "address": null,
      "road_geometry": null
    },
    {
      "name": "GNC",
      "category": [
        "shop.nutrition_supplements"
      ],
      "lat": 19.4340128,
      "lon": -99.1396365,
      "osm_id": 2812609145,
      "osm_type": "node",
      "address": null,
      "road_geometry": null
    },
    {
      "name": "Librer\u00eda Madero",
      "category": [
        "shop.books"
      ],
      "lat": 19.4340121,
      "lon": -99.1395664,
      "osm_id": 2812609146,
      "osm_type": "node",
      "address": null,
      "road_geometry": null
    },
    {
      "name": "\u00d3ptica Turati",
      "category": [
        "shop.optician"
      ],
      "lat": 19.4340172,
      "lon": -99.1395155,
      "osm_id": 2812609147,
      "osm_type": "node",
      "address": null,
      "road_geometry": null
    },
    {
      "name": "Fraiche",
      "category": [
        "shop.perfumery"
      ],
      "lat": 19.4340172,
      "lon": -99.1396912,
      "osm_id": 2812610486,
      "osm_type": "node",
      "address": null,
      "road_geometry": null
    },
    {
      "name": "Los Girasoles",
      "category": [
        "amenity.restaurant"
      ],
      "lat": 19.4360374,
      "lon": -99.1389361,
      "osm_id": 3657851876,
      "osm_type": "node",
      "address": null,
      "road_geometry": null
    },
    {
      "name": "Taco Inn",
      "category": [
        "amenity.restaurant"
      ],
      "lat": 19.43594,
      "lon": -99.1389576,
      "osm_id": 3657851877,
      "osm_type": "node",
      "address": null,
      "road_geometry": null
    },
    {
      "name": "7-Eleven",
      "category": [
        "shop.convenience"
      ],
      "lat": 19.4344802,
      "lon": -99.1391957,
      "osm_id": 4160266491,
      "osm_type": "node",
      "address": null,
      "road_geometry": null
    },
    {
      "name": "Restaurante 5M",
      "category": [
        "amenity.restaurant"
      ],
      "lat": 19.4348006,
      "lon": -99.1399749,
      "osm_id": 4415133893,
      "osm_type": "node",
      "address": "5 de Mayo",
      "road_geometry": null
    },
    {
      "name": "Museo de la tortura",
      "category": [
        "tourism.museum"
      ],
      "lat": 19.4356143,
      "lon": -99.1385099,
      "osm_id": 4569459989,
      "osm_type": "node",
      "address": null,
      "road_geometry": null
    },
    {
      "name": "Miguel Petacas",
      "category": [
        "shop.department_store"
      ],
      "lat": 19.4361235,
      "lon": -99.1378954,
      "osm_id": 4678665591,
      "osm_type": "node",
      "address": "Calle Ignacio Allende",
      "road_geometry": null
    },
    {
      "name": "Los Callejeros",
      "category": [
        "amenity.restaurant"
      ],
      "lat": 19.4347617,
      "lon": -99.139597,
      "osm_id": 4964994022,
      "osm_type": "node",
      "address": "5 de Mayo",
      "road_geometry": null
    },
    {
      "name": "Ecobici 5 de Mayo / Bol\u00edvar",
      "category": [
        "amenity.bicycle_rental"
      ],
      "lat": 19.4344778,
      "lon": -99.1378998,
      "osm_id": 5060889791,
      "osm_type": "node",
      "address": null,
      "road_geometry": null
    },
    {
      "name": "Terraza Tacuba Brewery",
      "category": [
        "amenity.pub"
      ],
      "lat": 19.4358238,
      "lon": -99.1381014,
      "osm_id": 5076482287,
      "osm_type": "node",
      "address": "Calle Ignacio Allende",
      "road_geometry": null
    },
    {
      "name": "Men's Factory",
      "category": [
        "shop.clothes"
      ],
      "lat": 19.4340609,
      "lon": -99.1397961,
      "osm_id": 5117844508,
      "osm_type": "node",
      "address": null,
      "road_geometry": null
    },
    {
      "name": "Dunkin'",
      "category": [
        "amenity.fast_food"
      ],
      "lat": 19.4340697,
      "lon": -99.1399516,
      "osm_id": 5117844509,
      "osm_type": "node",
      "address": null,
      "road_geometry": null
    },
    {
      "name": "Starbucks",
      "category": [
        "amenity.cafe"
      ],
      "lat": 19.4344201,
      "lon": -99.1389042,
      "osm_id": 5117844626,
      "osm_type": "node",
      "address": null,
      "road_geometry": null
    },
    {
      "name": "La Gioconda",
      "category": [
        "amenity.bar"
      ],
      "lat": 19.4342783,
      "lon": -99.1392823,
      "osm_id": 5240466661,
      "osm_type": "node",
      "address": null,
      "road_geometry": null
    },
    {
      "name": "Sushi Roll",
      "category": [
        "amenity.restaurant"
      ],
      "lat": 19.4344219,
      "lon": -99.1392254,
      "osm_id": 5240466662,
      "osm_type": "node",
      "address": null,
      "road_geometry": null
    },
    {
      "name": "Banorte",
      "category": [
        "amenity.bank"
      ],
      "lat": 19.4345535,
      "lon": -99.139859,
      "osm_id": 5399056406,
      "osm_type": "node",
      "address": null,
      "road_geometry": null
    },
    {
      "name": "La Merced",
      "category": [
        "shop.gift"
      ],
      "lat": 19.4342921,
      "lon": -99.1399358,
      "osm_id": 5438628623,
      "osm_type": "node",
      "address": null,
      "road_geometry": null
    },
    {
      "name": "Fraiche",
      "category": [
        "shop.perfumery"
      ],
      "lat": 19.4356605,
      "lon": -99.1386449,
      "osm_id": 5625459201,
      "osm_type": "node",
      "address": null,
      "road_geometry": null
    },
    {
      "name": "Cafeter\u00eda Sanborns",
      "category": [
        "amenity.restaurant"
      ],
      "lat": 19.4345725,
      "lon": -99.1401525,
      "osm_id": 6854523286,
      "osm_type": "node",
      "address": "Calle 5 de Mayo",
      "road_geometry": null
    },
    {
      "name": "Maison Kayser",
      "category": [
        "amenity.cafe"
      ],
      "lat": 19.4359083,
      "lon": -99.1389622,
      "osm_id": 6983205251,
      "osm_type": "node",
      "address": "Calle Tacuba",
      "road_geometry": null
    },
    {
      "name": "limosneros",
      "category": [
        "amenity.restaurant"
      ],
      "lat": 19.4359507,
      "lon": -99.1380616,
      "osm_id": 7134460794,
      "osm_type": "node",
      "address": null,
      "road_geometry": null
    },
    {
      "name": "Karani Art",
      "category": [
        "shop.clothes"
      ],
      "lat": 19.4343889,
      "lon": -99.1387726,
      "osm_id": 8719565817,
      "osm_type": "node",
      "address": "Calle 5 de Mayo",
      "road_geometry": null
    },
    {
      "name": "HSBC",
      "category": [
        "amenity.bank"
      ],
      "lat": 19.4346078,
      "lon": -99.1384387,
      "osm_id": 9359388635,
      "osm_type": "node",
      "address": null,
      "road_geometry": null
    },
    {
      "name": "Taquer\u00eda tlaquepaque",
      "category": [
        "amenity.restaurant"
      ],
      "lat": 19.4344864,
      "lon": -99.1378352,
      "osm_id": 9758534118,
      "osm_type": "node",
      "address": null,
      "road_geometry": null
    },
    {
      "name": "El Baj\u00edo",
      "category": [
        "amenity.restaurant"
      ],
      "lat": 19.4348525,
      "lon": -99.1380503,
      "osm_id": 10555670797,
      "osm_type": "node",
      "address": "Calle Sim\u00f3n Bol\u00edvar",
      "road_geometry": null
    },
    {
      "name": "La Isla del Drag\u00f3n",
      "category": [
        "amenity.restaurant"
      ],
      "lat": 19.4342655,
      "lon": -99.139441,
      "osm_id": 10583048205,
      "osm_type": "node",
      "address": "Calle Filomeno Mata",
      "road_geometry": null
    },
    {
      "name": "Farmacias del Ahorro",
      "category": [
        "amenity.pharmacy"
      ],
      "lat": 19.4344846,
      "lon": -99.1394569,
      "osm_id": 11893637768,
      "osm_type": "node",
      "address": "5 de mayo",
      "road_geometry": null
    },
    {
      "name": "Orientaci\u00f3n Medica Gratuita",
      "category": [
        "amenity.doctors"
      ],
      "lat": 19.4345332,
      "lon": -99.1395882,
      "osm_id": 11893643726,
      "osm_type": "node",
      "address": "Calle 5 de mayo",
      "road_geometry": null
    },
    {
      "name": "Izcoatl",
      "category": [
        "tourism.artwork"
      ],
      "lat": 19.4357165,
      "lon": -99.1389665,
      "osm_id": 12010299621,
      "osm_type": "node",
      "address": null,
      "road_geometry": null
    },
    {
      "name": "Nezahualc\u00f3yotl",
      "category": [
        "tourism.artwork"
      ],
      "lat": 19.4355824,
      "lon": -99.1389893,
      "osm_id": 12010299622,
      "osm_type": "node",
      "address": null,
      "road_geometry": null
    },
    {
      "name": "Totoquihuatzin",
      "category": [
        "tourism.artwork"
      ],
      "lat": 19.4355148,
      "lon": -99.1390101,
      "osm_id": 12010299623,
      "osm_type": "node",
      "address": null,
      "road_geometry": null
    },
    {
      "name": "Don Filomeno Mata",
      "category": [
        "tourism.artwork"
      ],
      "lat": 19.4356551,
      "lon": -99.1389752,
      "osm_id": 12010299624,
      "osm_type": "node",
      "address": null,
      "road_geometry": null
    },
    {
      "name": "El Cardenal Tacuba",
      "category": [
        "amenity.restaurant"
      ],
      "lat": 19.4361602,
      "lon": -99.1400056,
      "osm_id": 12207996201,
      "osm_type": "node",
      "address": "Calle Tacuba",
      "road_geometry": null
    },
    {
      "name": "Perfumes",
      "category": [
        "shop.perfumery"
      ],
      "lat": 19.4357021,
      "lon": -99.138764,
      "osm_id": 12754644629,
      "osm_type": "node",
      "address": null,
      "road_geometry": null
    },
    {
      "name": "Thook Pizza Beer",
      "category": [
        "amenity.restaurant"
      ],
      "lat": 19.4340749,
      "lon": -99.1385152,
      "osm_id": 12955704601,
      "osm_type": "node",
      "address": "Calle Sim\u00f3n Bol\u00edvar",
      "road_geometry": null
    },
    {
      "name": "Caf\u00e9 La Pagoda",
      "category": [
        "amenity.cafe"
      ],
      "lat": 19.4343462,
      "lon": -99.1393764,
      "osm_id": 13013046030,
      "osm_type": "node",
      "address": null,
      "road_geometry": null
    }
  ]
}