{
  "image": "dataset/images/682.png",
  "center_lat": 19.435135135135134,
  "center_lon": -99.13664085775623,
  "bbox": [
    -99.13783502093392,
    19.434009009009007,
    -99.13544669457856,
    19.436261261261258
  ],
  "unique_categories": [
    "shop.books",
    "amenity.restaurant",
    "shop.houseware",
    "amenity.cafe",
    "railway.stop",
    "railway.station",
    "shop.optician",
    "amenity.ice_cream",
    "railway.subway_entrance",
    "shop.convenience",
    "shop.confectionery",
    "shop.alcohol",
    "amenity.fast_food",
    "tourism.hotel",
    "shop.clothes",
    "shop.perfumery",
    "shop.bakery",
    "shop.department_store",
    "amenity.bar",
    "shop.shoes"
  ],
  "poi_count_per_category": {
    "shop.books": 1,
    "amenity.restaurant": 13,
    "shop.houseware": 2,
    "amenity.cafe": 2,
    "railway.stop": 1,
    "railway.station": 1,
    "shop.optician": 1,
    "amenity.ice_cream": 1,
    "railway.subway_entrance": 2,
    "shop.convenience": 2,
    "shop.confectionery": 2,
    "shop.alcohol": 1,
    "amenity.fast_food": 4,
    "tourism.hotel": 1,
    "shop.clothes": 3,
    "shop.perfumery": 1,
    "shop.bakery": 3,
    "shop.department_store": 1,
    "amenity.bar": 1,
    "shop.shoes": 1
  },
  "poi_count": 44,
  "pois": [
    {
      "name": "Allende",
      "category": [
        "railway.stop"
      ],
      "lat": 19.4355276,
      "lon": -99.1368839,
      "osm_id": 30385183,
      "osm_type": "node",
      "address": null,
      "road_geometry": null
    },
    {
      "name": "Allende",
      "category": [
        "railway.subway_entrance"
      ],
      "lat": 19.4356062,
      "lon": -99.1368845,
      "osm_id": 2811953945,
      "osm_type": "node",
      "address": null,
      "road_geometry": null
    },
    {
      "name": "Allende",
      "category": [
        "railway.subway_entrance"
      ],
      "lat": 19.4354721,
      "lon": -99.1368646,
      "osm_id": 2811953946,
      "osm_type": "node",
      "address": null,
      "road_geometry": null
    },
    {
      "name": "El Cuatro20",
      "category": [
        "amenity.restaurant"
      ],
      "lat": 19.4347509,
      "lon": -99.1359636,
      "osm_id": 3659658215,
      "osm_type": "node",
      "address": "Calle Isabel la Cat\u00f3lica",
      "road_geometry": null
    },
    {
      "name": "Cantina Buenos Aires",
      "category": [
        "amenity.restaurant"
      ],
      "lat": 19.4341849,
      "lon": -99.1372698,
      "osm_id": 4158566989,
      "osm_type": "node",
      "address": null,
      "road_geometry": null
    },
    {
      "name": "La Esperanza",
      "category": [
        "shop.bakery"
      ],
      "lat": 19.4343331,
      "lon": -99.1360208,
      "osm_id": 4160248291,
      "osm_type": "node",
      "address": null,
      "road_geometry": null
    },
    {
      "name": "La Petite Cr\u00eape",
      "category": [
        "amenity.restaurant"
      ],
      "lat": 19.434878,
      "lon": -99.136122,
      "osm_id": 4160263591,
      "osm_type": "node",
      "address": null,
      "road_geometry": null
    },
    {
      "name": "El 9 de Isabel",
      "category": [
        "amenity.restaurant"
      ],
      "lat": 19.4348377,
      "lon": -99.1362427,
      "osm_id": 4160277290,
      "osm_type": "node",
      "address": null,
      "road_geometry": null
    },
    {
      "name": "Caf\u00e9 de Tacuba",
      "category": [
        "amenity.cafe"
      ],
      "lat": 19.4357184,
      "lon": -99.1376076,
      "osm_id": 4181864727,
      "osm_type": "node",
      "address": "Calle Tacuba",
      "road_geometry": null
    },
    {
      "name": "Librer\u00eda Letras M\u00e1gicas",
      "category": [
        "shop.books"
      ],
      "lat": 19.4361145,
      "lon": -99.1355373,
      "osm_id": 4216703552,
      "osm_type": "node",
      "address": "Calle Donceles",
      "road_geometry": null
    },
    {
      "name": "Arandas Taquer\u00eda",
      "category": [
        "amenity.restaurant"
      ],
      "lat": 19.4343005,
      "lon": -99.1357777,
      "osm_id": 4567911691,
      "osm_type": "node",
      "address": "Avenida 5 de Mayo",
      "road_geometry": null
    },
    {
      "name": "Numancia Maletas",
      "category": [
        "shop.department_store"
      ],
      "lat": 19.4340871,
      "lon": -99.1360725,
      "osm_id": 4678665590,
      "osm_type": "node",
      "address": "5 de Mayo",
      "road_geometry": null
    },
    {
      "name": "Zapater\u00edas Leon",
      "category": [
        "shop.shoes"
      ],
      "lat": 19.4352951,
      "lon": -99.1358417,
      "osm_id": 4888396024,
      "osm_type": "node",
      "address": null,
      "road_geometry": null
    },
    {
      "name": "C&A",
      "category": [
        "shop.clothes"
      ],
      "lat": 19.4355048,
      "lon": -99.1359922,
      "osm_id": 4888398721,
      "osm_type": "node",
      "address": null,
      "road_geometry": null
    },
    {
      "name": "Flexi",
      "category": [
        "shop.clothes"
      ],
      "lat": 19.435455,
      "lon": -99.1371245,
      "osm_id": 4888398821,
      "osm_type": "node",
      "address": null,
      "road_geometry": null
    },
    {
      "name": "Dulcer\u00eda de Celaya",
      "category": [
        "shop.bakery"
      ],
      "lat": 19.4342343,
      "lon": -99.1364986,
      "osm_id": 4959436722,
      "osm_type": "node",
      "address": "5 de Mayo",
      "road_geometry": null
    },
    {
      "name": "Taqueria Tlaquepaque",
      "category": [
        "amenity.fast_food"
      ],
      "lat": 19.4340941,
      "lon": -99.1363094,
      "osm_id": 4959436723,
      "osm_type": "node",
      "address": "Calle Isabel la Cat\u00f3lica",
      "road_geometry": null
    },
    {
      "name": "Santa Clara",
      "category": [
        "shop.confectionery"
      ],
      "lat": 19.4342807,
      "lon": -99.1374672,
      "osm_id": 6418551986,
      "osm_type": "node",
      "address": null,
      "road_geometry": null
    },
    {
      "name": "Ganapati",
      "category": [
        "shop.confectionery"
      ],
      "lat": 19.4342615,
      "lon": -99.1367429,
      "osm_id": 6418551987,
      "osm_type": "node",
      "address": null,
      "road_geometry": null
    },
    {
      "name": "Taquer\u00eda Tlaquepaque",
      "category": [
        "amenity.fast_food"
      ],
      "lat": 19.4345388,
      "lon": -99.1360091,
      "osm_id": 6902911385,
      "osm_type": "node",
      "address": "Calle Isabel la Cat\u00f3lica",
      "road_geometry": null
    },
    {
      "name": "Nieves 100% artesanales",
      "category": [
        "amenity.ice_cream"
      ],
      "lat": 19.434101,
      "lon": -99.136573,
      "osm_id": 8236190917,
      "osm_type": "node",
      "address": null,
      "road_geometry": null
    },
    {
      "name": "7-Eleven",
      "category": [
        "shop.convenience"
      ],
      "lat": 19.4354543,
      "lon": -99.1356462,
      "osm_id": 9652997318,
      "osm_type": "node",
      "address": null,
      "road_geometry": null
    },
    {
      "name": "Oxxo",
      "category": [
        "shop.convenience"
      ],
      "lat": 19.4356542,
      "lon": -99.1371545,
      "osm_id": 9652997921,
      "osm_type": "node",
      "address": null,
      "road_geometry": null
    },
    {
      "name": "Caf\u00e9 La Blanca",
      "category": [
        "amenity.restaurant"
      ],
      "lat": 19.434264,
      "lon": -99.136541,
      "osm_id": 9758534417,
      "osm_type": "node",
      "address": "Avenida 5 de Mayo",
      "road_geometry": null
    },
    {
      "name": "La Capilla",
      "category": [
        "amenity.restaurant"
      ],
      "lat": 19.4343248,
      "lon": -99.1363652,
      "osm_id": 9947293317,
      "osm_type": "node",
      "address": null,
      "road_geometry": null
    },
    {
      "name": "Taller \u00d3ptico \"Eros\"",
      "category": [
        "shop.optician"
      ],
      "lat": 19.4357585,
      "lon": -99.13692,
      "osm_id": 10121559055,
      "osm_type": "node",
      "address": null,
      "road_geometry": null
    },
    {
      "name": "La cinco de mayo",
      "category": [
        "amenity.fast_food"
      ],
      "lat": 19.4342711,
      "lon": -99.1377013,
      "osm_id": 10577781242,
      "osm_type": "node",
      "address": null,
      "road_geometry": null
    },
    {
      "name": "Cafe El Popular",
      "category": [
        "amenity.cafe"
      ],
      "lat": 19.4342792,
      "lon": -99.135498,
      "osm_id": 10865710920,
      "osm_type": "node",
      "address": "Avenida 5 de Mayo",
      "road_geometry": null
    },
    {
      "name": "Buffete Chino Hui",
      "category": [
        "amenity.restaurant"
      ],
      "lat": 19.4344647,
      "lon": -99.1355122,
      "osm_id": 10865710927,
      "osm_type": "node",
      "address": null,
      "road_geometry": null
    },
    {
      "name": "La Europea",
      "category": [
        "shop.alcohol"
      ],
      "lat": 19.4355188,
      "lon": -99.1358344,
      "osm_id": 11119080325,
      "osm_type": "node",
      "address": null,
      "road_geometry": null
    },
    {
      "name": "Jugos Canada",
      "category": [
        "amenity.fast_food"
      ],
      "lat": 19.4340215,
      "lon": -99.1356835,
      "osm_id": 11120978326,
      "osm_type": "node",
      "address": null,
      "road_geometry": null
    },
    {
      "name": "Caif\u00e1n",
      "category": [
        "amenity.restaurant"
      ],
      "lat": 19.4343908,
      "lon": -99.1362211,
      "osm_id": 11340459769,
      "osm_type": "node",
      "address": null,
      "road_geometry": null
    },
    {
      "name": "Tacos Victoria",
      "category": [
        "amenity.restaurant"
      ],
      "lat": 19.4355049,
      "lon": -99.1373057,
      "osm_id": 11340726770,
      "osm_type": "node",
      "address": null,
      "road_geometry": null
    },
    {
      "name": "Juarez",
      "category": [
        "tourism.hotel"
      ],
      "lat": 19.4346584,
      "lon": -99.1355678,
      "osm_id": 11345798769,
      "osm_type": "node",
      "address": "Avenida 5 de Mayo",
      "road_geometry": null
    },
    {
      "name": "Allende",
      "category": [
        "railway.station"
      ],
      "lat": 19.435551,
      "lon": -99.1371341,
      "osm_id": 12307021668,
      "osm_type": "node",
      "address": null,
      "road_geometry": null
    },
    {
      "name": "Cuatro20",
      "category": [
        "amenity.restaurant"
      ],
      "lat": 19.4351719,
      "lon": -99.1365801,
      "osm_id": 12366256801,
      "osm_type": "node",
      "address": "Calle Isabel la Cat\u00f3lica",
      "road_geometry": null
    },
    {
      "name": "Comida La Abuela",
      "category": [
        "amenity.restaurant"
      ],
      "lat": 19.4346112,
      "lon": -99.1354901,
      "osm_id": 12539619702,
      "osm_type": "node",
      "address": "Callej\u00f3n de la Cazuela",
      "road_geometry": null
    },
    {
      "name": "El Globo",
      "category": [
        "shop.bakery"
      ],
      "lat": 19.4343749,
      "lon": -99.1371948,
      "osm_id": 12629171101,
      "osm_type": "node",
      "address": null,
      "road_geometry": null
    },
    {
      "name": "Cultural Roots",
      "category": [
        "amenity.bar"
      ],
      "lat": 19.4354763,
      "lon": -99.1356406,
      "osm_id": 12669328403,
      "osm_type": "node",
      "address": "Calle Tacuba",
      "road_geometry": null
    },
    {
      "name": "Glass Esence",
      "category": [
        "shop.houseware"
      ],
      "lat": 19.4357517,
      "lon": -99.1377619,
      "osm_id": 12669328404,
      "osm_type": "node",
      "address": null,
      "road_geometry": null
    },
    {
      "name": "L\u00edneas",
      "category": [
        "shop.clothes"
      ],
      "lat": 19.4354949,
      "lon": -99.1357194,
      "osm_id": 12669328501,
      "osm_type": "node",
      "address": "Calle Tacuba",
      "road_geometry": null
    },
    {
      "name": "Fraiche",
      "category": [
        "shop.perfumery"
      ],
      "lat": 19.4357339,
      "lon": -99.1376726,
      "osm_id": 12669328601,
      "osm_type": "node",
      "address": null,
      "road_geometry": null
    },
    {
      "name": "Velavita Canales",
      "category": [
        "shop.houseware"
      ],
      "lat": 19.4357423,
      "lon": -99.1377193,
      "osm_id": 12669328701,
      "osm_type": "node",
      "address": null,
      "road_geometry": null
    },
    {
      "name": "Barro Mestizo",
      "category": [
        "amenity.restaurant"
      ],
      "lat": 19.4348486,
      "lon": -99.1360069,
      "osm_id": 12829297761,
      "osm_type": "node",
      "address": "Isabel la Cat\u00f3lica",
      "road_geometry": null
    }
  ]
}