{
  "image": "dataset/images/683.png",
  "center_lat": 19.435135135135134,
  "center_lon": -99.13425253140088,
  "bbox": [
    -99.13544669457856,
    19.434009009009007,
    -99.1330583682232,
    19.436261261261258
  ],
  "unique_categories": [
    "shop.books",
    "amenity.restaurant",
    "shop.houseware",
    "amenity.cafe",
    "tourism.hostel",
    "shop.photo",
    "amenity.bicycle_rental",
    "shop.convenience",
    "shop.sports",
    "tourism.gallery",
    "amenity.fast_food",
    "tourism.hotel",
    "shop.clothes",
    "shop.variety_store",
    "tourism.artwork",
    "shop.craft",
    "shop.fashion_accessories",
    "shop.bakery",
    "shop.department_store",
    "amenity.bar",
    "amenity.bank"
  ],
  "poi_count_per_category": {
    "shop.books": 7,
    "amenity.restaurant": 4,
    "shop.houseware": 1,
    "amenity.cafe": 2,
    "tourism.hostel": 3,
    "shop.photo": 1,
    "amenity.bicycle_rental": 1,
    "shop.convenience": 2,
    "shop.sports": 1,
    "tourism.gallery": 1,
    "amenity.fast_food": 2,
    "tourism.hotel": 1,
    "shop.clothes": 1,
    "shop.variety_store": 1,
    "tourism.artwork": 2,
    "shop.craft": 1,
    "shop.fashion_accessories": 1,
    "shop.bakery": 1,
    "shop.department_store": 1,
    "amenity.bar": 1,
    "amenity.bank": 1
  },
  "poi_count": 36,
  "pois": [
    {
      "name": "Hostel Mundo Joven Catedral",
      "category": [
        "tourism.hostel"
      ],
      "lat": 19.435202,
      "lon": -99.133603,
      "osm_id": 2388736553,
      "osm_type": "node",
      "address": "Calle Rep\u00fablica de Guatemala",
      "road_geometry": null
    },
    {
      "name": "Mexico City Hostel",
      "category": [
        "tourism.hostel"
      ],
      "lat": 19.4356304,
      "lon": -99.1335944,
      "osm_id": 2409358344,
      "osm_type": "node",
      "address": "Calle Rep\u00fablica de Brasil",
      "road_geometry": null
    },
    {
      "name": "BBVA",
      "category": [
        "amenity.bank"
      ],
      "lat": 19.4340117,
      "lon": -99.1352095,
      "osm_id": 2418162576,
      "osm_type": "node",
      "address": null,
      "road_geometry": null
    },
    {
      "name": "El Popular",
      "category": [
        "amenity.restaurant"
      ],
      "lat": 19.4342669,
      "lon": -99.1353921,
      "osm_id": 2418219454,
      "osm_type": "node",
      "address": "5 de Mayo",
      "road_geometry": null
    },
    {
      "name": "Ecobici Rep\u00fablica de Guatemala / Monte de Piedad",
      "category": [
        "amenity.bicycle_rental"
      ],
      "lat": 19.4350085,
      "lon": -99.1336808,
      "osm_id": 2812622953,
      "osm_type": "node",
      "address": null,
      "road_geometry": null
    },
    {
      "name": "Librer\u00eda de Viejo",
      "category": [
        "shop.books"
      ],
      "lat": 19.435969,
      "lon": -99.1345697,
      "osm_id": 4216786875,
      "osm_type": "node",
      "address": "Calle Donceles",
      "road_geometry": null
    },
    {
      "name": "El Laberinto",
      "category": [
        "shop.books"
      ],
      "lat": 19.4361696,
      "lon": -99.1345254,
      "osm_id": 4216786876,
      "osm_type": "node",
      "address": "Calle Donceles",
      "road_geometry": null
    },
    {
      "name": "El Mercader de Libros",
      "category": [
        "shop.books"
      ],
      "lat": 19.4359795,
      "lon": -99.1344659,
      "osm_id": 4216786881,
      "osm_type": "node",
      "address": "Calle Donceles",
      "road_geometry": null
    },
    {
      "name": "Librer\u00eda Mercurio",
      "category": [
        "shop.books"
      ],
      "lat": 19.43597,
      "lon": -99.1343441,
      "osm_id": 4216786883,
      "osm_type": "node",
      "address": null,
      "road_geometry": null
    },
    {
      "name": "Hermanos de La Hoja",
      "category": [
        "shop.books"
      ],
      "lat": 19.4361422,
      "lon": -99.1343031,
      "osm_id": 4216786884,
      "osm_type": "node",
      "address": "Calle Donceles",
      "road_geometry": null
    },
    {
      "name": "Inframundo",
      "category": [
        "shop.books"
      ],
      "lat": 19.4361282,
      "lon": -99.1342284,
      "osm_id": 4216786885,
      "osm_type": "node",
      "address": "Calle Donceles",
      "road_geometry": null
    },
    {
      "name": "Bibliofilia",
      "category": [
        "shop.books"
      ],
      "lat": 19.4361254,
      "lon": -99.1341973,
      "osm_id": 4216786886,
      "osm_type": "node",
      "address": "Calle Donceles",
      "road_geometry": null
    },
    {
      "name": "Hostal Historico",
      "category": [
        "tourism.hostel"
      ],
      "lat": 19.4358286,
      "lon": -99.1338962,
      "osm_id": 4291904590,
      "osm_type": "node",
      "address": null,
      "road_geometry": null
    },
    {
      "name": "La Vasconia",
      "category": [
        "shop.bakery"
      ],
      "lat": 19.4352074,
      "lon": -99.1351083,
      "osm_id": 4396992794,
      "osm_type": "node",
      "address": null,
      "road_geometry": null
    },
    {
      "name": "Canela y Oro",
      "category": [
        "amenity.restaurant"
      ],
      "lat": 19.435269,
      "lon": -99.1343603,
      "osm_id": 4888396022,
      "osm_type": "node",
      "address": null,
      "road_geometry": null
    },
    {
      "name": "Domino's",
      "category": [
        "amenity.fast_food"
      ],
      "lat": 19.4354315,
      "lon": -99.135377,
      "osm_id": 4888396023,
      "osm_type": "node",
      "address": "Calle Tacuba",
      "road_geometry": null
    },
    {
      "name": "Oxxo",
      "category": [
        "shop.convenience"
      ],
      "lat": 19.4355136,
      "lon": -99.1337564,
      "osm_id": 5623510923,
      "osm_type": "node",
      "address": "Calle Rep\u00fablica de Brasil",
      "road_geometry": null
    },
    {
      "name": "7-Eleven",
      "category": [
        "shop.convenience"
      ],
      "lat": 19.4361017,
      "lon": -99.1338624,
      "osm_id": 5623518251,
      "osm_type": "node",
      "address": null,
      "road_geometry": null
    },
    {
      "name": "Adidas",
      "category": [
        "shop.sports"
      ],
      "lat": 19.4340157,
      "lon": -99.1353373,
      "osm_id": 5923027885,
      "osm_type": "node",
      "address": "5 de Mayo",
      "road_geometry": null
    },
    {
      "name": "Le\u00f3n XIII",
      "category": [
        "tourism.artwork"
      ],
      "lat": 19.4345675,
      "lon": -99.1334289,
      "osm_id": 9049361314,
      "osm_type": "node",
      "address": null,
      "road_geometry": null
    },
    {
      "name": "Pr\u00f3spero Mar\u00eda Alarc\u00f3n y S\u00e1nchez de la Barquera",
      "category": [
        "tourism.artwork"
      ],
      "lat": 19.4345629,
      "lon": -99.1333835,
      "osm_id": 9049361315,
      "osm_type": "node",
      "address": null,
      "road_geometry": null
    },
    {
      "name": "McDonald's",
      "category": [
        "amenity.fast_food"
      ],
      "lat": 19.4353023,
      "lon": -99.1348429,
      "osm_id": 9652997920,
      "osm_type": "node",
      "address": null,
      "road_geometry": null
    },
    {
      "name": "Mi \u00c1lbum",
      "category": [
        "shop.photo"
      ],
      "lat": 19.4357659,
      "lon": -99.1337156,
      "osm_id": 9851624095,
      "osm_type": "node",
      "address": "Calle Rep\u00fablica de Brasil",
      "road_geometry": null
    },
    {
      "name": "La Monta\u00f1esa",
      "category": [
        "amenity.restaurant"
      ],
      "lat": 19.4345985,
      "lon": -99.1351496,
      "osm_id": 10865710921,
      "osm_type": "node",
      "address": null,
      "road_geometry": null
    },
    {
      "name": "Bisquets Obreg\u00f3n",
      "category": [
        "amenity.restaurant"
      ],
      "lat": 19.4350886,
      "lon": -99.1344148,
      "osm_id": 10978448654,
      "osm_type": "node",
      "address": null,
      "road_geometry": null
    },
    {
      "name": "Hotel Catedral",
      "category": [
        "tourism.hotel"
      ],
      "lat": 19.4357717,
      "lon": -99.1330672,
      "osm_id": 11926923384,
      "osm_type": "node",
      "address": "Calle Donceles",
      "road_geometry": null
    },
    {
      "name": "Trajes El Bar\u00f3n",
      "category": [
        "shop.clothes"
      ],
      "lat": 19.435234,
      "lon": -99.1338018,
      "osm_id": 12669322401,
      "osm_type": "node",
      "address": "Calle Rep\u00fablica de Guatemala",
      "road_geometry": null
    },
    {
      "name": "Centro Brasil",
      "category": [
        "shop.variety_store"
      ],
      "lat": 19.4353322,
      "lon": -99.1337284,
      "osm_id": 12669328401,
      "osm_type": "node",
      "address": "Calle Rep\u00fablica de Guatemala",
      "road_geometry": null
    },
    {
      "name": "Anforama",
      "category": [
        "shop.houseware"
      ],
      "lat": 19.4352392,
      "lon": -99.1340728,
      "osm_id": 12669328402,
      "osm_type": "node",
      "address": "Calle Tacuba",
      "road_geometry": null
    },
    {
      "name": "Terraza Catedral",
      "category": [
        "amenity.bar"
      ],
      "lat": 19.4353214,
      "lon": -99.1336112,
      "osm_id": 12768674101,
      "osm_type": "node",
      "address": "Calle Rep\u00fablica de Guatemala",
      "road_geometry": null
    },
    {
      "name": "Mandrake",
      "category": [
        "amenity.cafe"
      ],
      "lat": 19.4358716,
      "lon": -99.1343393,
      "osm_id": 13011944450,
      "osm_type": "node",
      "address": null,
      "road_geometry": null
    },
    {
      "name": "Galer\u00eda de la SHCP",
      "category": [
        "tourism.gallery"
      ],
      "lat": 19.4352312,
      "lon": -99.1334951,
      "osm_id": 13076849597,
      "osm_type": "node",
      "address": "Calle Rep\u00fablica de Guatemala",
      "road_geometry": null
    },
    {
      "name": "Fantasias Irma",
      "category": [
        "shop.craft"
      ],
      "lat": 19.435139,
      "lon": -99.1332274,
      "osm_id": 13076849599,
      "osm_type": "node",
      "address": "Calle Rep\u00fablica de Guatemala",
      "road_geometry": null
    },
    {
      "name": "La Parroquia de Veracruz",
      "category": [
        "amenity.cafe"
      ],
      "lat": 19.4354716,
      "lon": -99.133763,
      "osm_id": 13076911411,
      "osm_type": "node",
      "address": "Calle Rep\u00fablica de Brasil",
      "road_geometry": null
    },
    {
      "name": "Plaza Centro Historico",
      "category": [
        "shop.department_store"
      ],
      "lat": 19.4356459,
      "lon": -99.133732,
      "osm_id": 13076911412,
      "osm_type": "node",
      "address": "Calle Rep\u00fablica de Brasil",
      "road_geometry": null
    },
    {
      "name": "Plaza Bialos",
      "category": [
        "shop.fashion_accessories"
      ],
      "lat": 19.4358501,
      "lon": -99.133667,
      "osm_id": 13076911415,
      "osm_type": "node",
      "address": "Calle Rep\u00fablica de Brasil",
      "road_geometry": null
    }
  ]
}