{
  "image": "dataset/images/797.png",
  "center_lat": 40.80563063063063,
  "center_lon": -73.93900316199962,
  "bbox": [
    -73.94049088975572,
    40.80450450450451,
    -73.93751543424351,
    40.80675675675676
  ],
  "unique_categories": [
    "amenity.bicycle_rental",
    "shop.deli",
    "highway.bus_stop",
    "railway.stop",
    "amenity.bank",
    "amenity.clinic",
    "railway.station",
    "amenity.fast_food",
    "amenity.restaurant",
    "shop.furniture",
    "amenity.place_of_worship",
    "shop.alcohol",
    "shop.beauty",
    "shop.hairdresser",
    "shop.yes"
  ],
  "poi_count_per_category": {
    "amenity.bicycle_rental": 1,
    "shop.deli": 1,
    "highway.bus_stop": 4,
    "railway.stop": 4,
    "amenity.bank": 1,
    "amenity.clinic": 1,
    "railway.station": 1,
    "amenity.fast_food": 3,
    "amenity.restaurant": 2,
    "shop.furniture": 1,
    "amenity.place_of_worship": 3,
    "shop.alcohol": 1,
    "shop.beauty": 1,
    "shop.hairdresser": 1,
    "shop.yes": 1
  },
  "poi_count": 26,
  "pois": [
    {
      "name": "Metropolitan Community Methodist Church",
      "category": [
        "amenity.place_of_worship"
      ],
      "lat": 40.8063786,
      "lon": -73.9397545,
      "osm_id": 357621082,
      "osm_type": "node",
      "address": "Madison Avenue",
      "road_geometry": null
    },
    {
      "name": "Harlem\u2013125th Street",
      "category": [
        "railway.stop"
      ],
      "lat": 40.8061758,
      "lon": -73.9380989,
      "osm_id": 1912138234,
      "osm_type": "node",
      "address": null,
      "road_geometry": null
    },
    {
      "name": "Harlem\u2013125th Street",
      "category": [
        "railway.stop"
      ],
      "lat": 40.8062672,
      "lon": -73.9383084,
      "osm_id": 1912138237,
      "osm_type": "node",
      "address": null,
      "road_geometry": null
    },
    {
      "name": "Uptown Liquor",
      "category": [
        "shop.alcohol"
      ],
      "lat": 40.805611,
      "lon": -73.9399502,
      "osm_id": 2765639628,
      "osm_type": "node",
      "address": "East 125th Street",
      "road_geometry": null
    },
    {
      "name": "Chase",
      "category": [
        "amenity.bank"
      ],
      "lat": 40.805106,
      "lon": -73.9386709,
      "osm_id": 2883793060,
      "osm_type": "node",
      "address": null,
      "road_geometry": null
    },
    {
      "name": "Popeyes",
      "category": [
        "amenity.fast_food"
      ],
      "lat": 40.805029,
      "lon": -73.9385081,
      "osm_id": 2883793061,
      "osm_type": "node",
      "address": "East 125 Street",
      "road_geometry": null
    },
    {
      "name": "Q&N Food",
      "category": [
        "shop.yes"
      ],
      "lat": 40.8049736,
      "lon": -73.9384037,
      "osm_id": 2883793062,
      "osm_type": "node",
      "address": null,
      "road_geometry": null
    },
    {
      "name": "United New Church of Christ",
      "category": [
        "amenity.place_of_worship"
      ],
      "lat": 40.8060747,
      "lon": -73.9390764,
      "osm_id": 5000630008,
      "osm_type": "node",
      "address": "East 126th Street",
      "road_geometry": null
    },
    {
      "name": "La Sinagoga",
      "category": [
        "amenity.place_of_worship"
      ],
      "lat": 40.8048196,
      "lon": -73.9380019,
      "osm_id": 5171173318,
      "osm_type": "node",
      "address": "East 125th Street",
      "road_geometry": null
    },
    {
      "name": "East 125th Street & Lexington Avenue",
      "category": [
        "highway.bus_stop"
      ],
      "lat": 40.8046836,
      "lon": -73.9378389,
      "osm_id": 5171180851,
      "osm_type": "node",
      "address": null,
      "road_geometry": null
    },
    {
      "name": "Madison Avenue & East 125th Street",
      "category": [
        "highway.bus_stop"
      ],
      "lat": 40.8059659,
      "lon": -73.9403987,
      "osm_id": 5235581443,
      "osm_type": "node",
      "address": null,
      "road_geometry": null
    },
    {
      "name": "East 125th Street & Park Avenue",
      "category": [
        "highway.bus_stop"
      ],
      "lat": 40.805331,
      "lon": -73.9394122,
      "osm_id": 5235581670,
      "osm_type": "node",
      "address": null,
      "road_geometry": null
    },
    {
      "name": "2 Bros. Pizza",
      "category": [
        "amenity.fast_food"
      ],
      "lat": 40.8048767,
      "lon": -73.9381538,
      "osm_id": 5799683086,
      "osm_type": "node",
      "address": "East 125th Street",
      "road_geometry": null
    },
    {
      "name": "East 125th Street & Madison Avenue",
      "category": [
        "highway.bus_stop"
      ],
      "lat": 40.8054874,
      "lon": -73.9403049,
      "osm_id": 6223304365,
      "osm_type": "node",
      "address": null,
      "road_geometry": null
    },
    {
      "name": "Foot Center of New York",
      "category": [
        "amenity.clinic"
      ],
      "lat": 40.8048134,
      "lon": -73.9402618,
      "osm_id": 6296851690,
      "osm_type": "node",
      "address": "East 124th Street",
      "road_geometry": null
    },
    {
      "name": "Alexis Furniture",
      "category": [
        "shop.furniture"
      ],
      "lat": 40.8058081,
      "lon": -73.9404039,
      "osm_id": 6680604279,
      "osm_type": "node",
      "address": "West 125th Street",
      "road_geometry": null
    },
    {
      "name": "Eatery 125",
      "category": [
        "shop.deli"
      ],
      "lat": 40.8057261,
      "lon": -73.9402243,
      "osm_id": 6680604280,
      "osm_type": "node",
      "address": "West 125th Street",
      "road_geometry": null
    },
    {
      "name": "Dunkin'",
      "category": [
        "amenity.fast_food"
      ],
      "lat": 40.805705,
      "lon": -73.9401762,
      "osm_id": 6680604281,
      "osm_type": "node",
      "address": "Lexington Avenue",
      "road_geometry": null
    },
    {
      "name": "African Hair Braiding",
      "category": [
        "shop.hairdresser"
      ],
      "lat": 40.8056564,
      "lon": -73.9400586,
      "osm_id": 6680604283,
      "osm_type": "node",
      "address": "West 125th Street",
      "road_geometry": null
    },
    {
      "name": "Daps Caribbean Cuisine",
      "category": [
        "amenity.restaurant"
      ],
      "lat": 40.80563,
      "lon": -73.9399632,
      "osm_id": 6680604284,
      "osm_type": "node",
      "address": "West 125th Street",
      "road_geometry": null
    },
    {
      "name": "Harlem\u2013125th Street",
      "category": [
        "railway.station"
      ],
      "lat": 40.8052372,
      "lon": -73.938911,
      "osm_id": 7006541550,
      "osm_type": "node",
      "address": null,
      "road_geometry": null
    },
    {
      "name": "Harlem\u2013125th Street",
      "category": [
        "railway.stop"
      ],
      "lat": 40.8062255,
      "lon": -73.9382181,
      "osm_id": 7100222069,
      "osm_type": "node",
      "address": null,
      "road_geometry": null
    },
    {
      "name": "Harlem\u2013125th Street",
      "category": [
        "railway.stop"
      ],
      "lat": 40.8062073,
      "lon": -73.9381765,
      "osm_id": 7100222070,
      "osm_type": "node",
      "address": null,
      "road_geometry": null
    },
    {
      "name": "Charlie's Place",
      "category": [
        "amenity.restaurant"
      ],
      "lat": 40.8061731,
      "lon": -73.9404894,
      "osm_id": 10570579768,
      "osm_type": "node",
      "address": null,
      "road_geometry": null
    },
    {
      "name": "Infinity Nails Studio",
      "category": [
        "shop.beauty"
      ],
      "lat": 40.8060518,
      "lon": -73.9401974,
      "osm_id": 12828976082,
      "osm_type": "node",
      "address": "Madison Avenue",
      "road_geometry": null
    },
    {
      "name": "Citi Bike - Park Ave & E 124 St",
      "category": [
        "amenity.bicycle_rental"
      ],
      "lat": 40.8045625,
      "lon": -73.939662,
      "osm_id": 13243922881,
      "osm_type": "node",
      "address": null,
      "road_geometry": null
    }
  ]
}