{
  "image": "dataset/images/80.png",
  "center_lat": 48.862882882882886,
  "center_lon": 2.350405795439957,
  "bbox": [
    2.3486940403910728,
    48.86175675675676,
    2.352117550488841,
    48.86400900900902
  ],
  "unique_categories": [
    "shop.books",
    "shop.motorcycle",
    "amenity.restaurant",
    "tourism.museum",
    "shop.cannabis",
    "amenity.cafe",
    "railway.stop",
    "amenity.arts_centre",
    "railway.station",
    "shop.tobacco",
    "tourism.hostel",
    "shop.bicycle",
    "shop.kitchen",
    "tourism.information",
    "shop.mobile_phone",
    "shop.optician",
    "shop.hairdresser",
    "shop.photo",
    "shop.tea",
    "amenity.ice_cream",
    "shop.music",
    "shop.locksmith",
    "railway.subway_entrance",
    "shop.convenience",
    "amenity.bicycle_rental",
    "shop.motorcycle_repair",
    "highway.bus_stop",
    "amenity.dancing_school",
    "shop.confectionery",
    "shop.copyshop",
    "amenity.university",
    "shop.flooring",
    "shop.alcohol",
    "tourism.gallery",
    "amenity.dentist",
    "amenity.fast_food",
    "amenity.stripclub",
    "tourism.hotel",
    "shop.stationery",
    "shop.clothes",
    "shop.erotic",
    "shop.perfumery",
    "amenity.love_hotel",
    "shop.variety_store",
    "tourism.artwork",
    "shop.massage",
    "amenity.hookah_lounge",
    "leisure.dance",
    "amenity.nightclub",
    "shop.fashion_accessories",
    "shop.furniture",
    "shop.bag",
    "amenity.community_centre",
    "shop.pastry",
    "shop.beauty",
    "shop.cosmetics",
    "shop.bakery",
    "leisure.sauna",
    "shop.fabric",
    "shop.tattoo",
    "amenity.bar",
    "amenity.social_centre",
    "amenity.bank",
    "shop.shoes",
    "shop.jewelry"
  ],
  "poi_count_per_category": {
    "shop.books": 3,
    "shop.motorcycle": 1,
    "amenity.restaurant": 38,
    "tourism.museum": 1,
    "shop.cannabis": 1,
    "amenity.cafe": 21,
    "railway.stop": 1,
    "amenity.arts_centre": 1,
    "railway.station": 1,
    "shop.tobacco": 1,
    "tourism.hostel": 1,
    "shop.bicycle": 1,
    "shop.kitchen": 2,
    "tourism.information": 1,
    "shop.mobile_phone": 2,
    "shop.optician": 2,
    "shop.hairdresser": 8,
    "shop.photo": 1,
    "shop.tea": 1,
    "amenity.ice_cream": 2,
    "shop.music": 2,
    "shop.locksmith": 1,
    "railway.subway_entrance": 1,
    "shop.convenience": 4,
    "amenity.bicycle_rental": 1,
    "shop.motorcycle_repair": 1,
    "highway.bus_stop": 3,
    "amenity.dancing_school": 1,
    "shop.confectionery": 1,
    "shop.copyshop": 1,
    "amenity.university": 1,
    "shop.flooring": 1,
    "shop.alcohol": 1,
    "tourism.gallery": 5,
    "amenity.dentist": 2,
    "amenity.fast_food": 20,
    "amenity.stripclub": 1,
    "tourism.hotel": 4,
    "shop.stationery": 2,
    "shop.clothes": 22,
    "shop.erotic": 5,
    "shop.perfumery": 1,
    "amenity.love_hotel": 1,
    "shop.variety_store": 3,
    "tourism.artwork": 1,
    "shop.massage": 2,
    "amenity.hookah_lounge": 2,
    "leisure.dance": 1,
    "amenity.nightclub": 2,
    "shop.fashion_accessories": 5,
    "shop.furniture": 1,
    "shop.bag": 1,
    "amenity.community_centre": 1,
    "shop.pastry": 1,
    "shop.beauty": 2,
    "shop.cosmetics": 1,
    "shop.bakery": 2,
    "leisure.sauna": 3,
    "shop.fabric": 1,
    "shop.tattoo": 1,
    "amenity.bar": 19,
    "amenity.social_centre": 3,
    "amenity.bank": 2,
    "shop.shoes": 8,
    "shop.jewelry": 1
  },
  "poi_count": 233,
  "pois": [
    {
      "name": "\u00c9tienne Marcel",
      "category": [
        "railway.stop"
      ],
      "lat": 48.8639526,
      "lon": 2.3493931,
      "osm_id": 264509793,
      "osm_type": "node",
      "address": null,
      "road_geometry": null
    },
    {
      "name": "Au R\u00e9parateur de Bicyclettes",
      "category": [
        "shop.bicycle"
      ],
      "lat": 48.8626984,
      "lon": 2.3508343,
      "osm_id": 287611762,
      "osm_type": "node",
      "address": "Boulevard de S\u00e9bastopol",
      "road_geometry": null
    },
    {
      "name": "Boulangerie Beaubourg",
      "category": [
        "shop.bakery"
      ],
      "lat": 48.8618726,
      "lon": 2.3516408,
      "osm_id": 667339448,
      "osm_type": "node",
      "address": "Rue Saint-Martin",
      "road_geometry": null
    },
    {
      "name": "Le Relais Du Vin",
      "category": [
        "amenity.bar"
      ],
      "lat": 48.8619643,
      "lon": 2.3491461,
      "osm_id": 680443085,
      "osm_type": "node",
      "address": "Rue Saint-Denis",
      "road_geometry": null
    },
    {
      "name": "Joe Allen",
      "category": [
        "amenity.restaurant"
      ],
      "lat": 48.8635177,
      "lon": 2.3491047,
      "osm_id": 680617533,
      "osm_type": "node",
      "address": "Rue Pierre Lescot",
      "road_geometry": null
    },
    {
      "name": "Trantranzai",
      "category": [
        "amenity.restaurant"
      ],
      "lat": 48.8631582,
      "lon": 2.3498973,
      "osm_id": 680617611,
      "osm_type": "node",
      "address": "Rue Saint-Denis",
      "road_geometry": null
    },
    {
      "name": "\u00c9tienne Marcel",
      "category": [
        "railway.subway_entrance"
      ],
      "lat": 48.8637067,
      "lon": 2.3489863,
      "osm_id": 681294134,
      "osm_type": "node",
      "address": null,
      "road_geometry": null
    },
    {
      "name": "Maison Hubert",
      "category": [
        "shop.bakery"
      ],
      "lat": 48.8618685,
      "lon": 2.3510527,
      "osm_id": 691742310,
      "osm_type": "node",
      "address": null,
      "road_geometry": null
    },
    {
      "name": "The Pirate's Candies",
      "category": [
        "shop.confectionery"
      ],
      "lat": 48.86177,
      "lon": 2.3507515,
      "osm_id": 697281523,
      "osm_type": "node",
      "address": "Rue Rambuteau",
      "road_geometry": null
    },
    {
      "name": "S\u00e9bastopol - \u00c9tienne Marcel",
      "category": [
        "highway.bus_stop"
      ],
      "lat": 48.8632045,
      "lon": 2.3514764,
      "osm_id": 705657776,
      "osm_type": "node",
      "address": null,
      "road_geometry": null
    },
    {
      "name": "L'Art Brut Bistrot",
      "category": [
        "amenity.bar"
      ],
      "lat": 48.8621881,
      "lon": 2.3511485,
      "osm_id": 705657876,
      "osm_type": "node",
      "address": "Rue Quincampoix",
      "road_geometry": null
    },
    {
      "name": "Paya Tha\u00ef",
      "category": [
        "amenity.restaurant"
      ],
      "lat": 48.8619125,
      "lon": 2.3510063,
      "osm_id": 705657903,
      "osm_type": "node",
      "address": null,
      "road_geometry": null
    },
    {
      "name": "Les Bains Paris",
      "category": [
        "tourism.hotel"
      ],
      "lat": 48.8639041,
      "lon": 2.3519964,
      "osm_id": 706168394,
      "osm_type": "node",
      "address": null,
      "road_geometry": null
    },
    {
      "name": "Euro Fried Chicken",
      "category": [
        "amenity.fast_food"
      ],
      "lat": 48.863552,
      "lon": 2.3513197,
      "osm_id": 722231692,
      "osm_type": "node",
      "address": "Boulevard de S\u00e9bastopol",
      "road_geometry": null
    },
    {
      "name": "BRED",
      "category": [
        "amenity.bank"
      ],
      "lat": 48.8630706,
      "lon": 2.351037,
      "osm_id": 722234865,
      "osm_type": "node",
      "address": "Boulevard de S\u00e9bastopol",
      "road_geometry": null
    },
    {
      "name": "Maison de la Po\u00e9sie",
      "category": [
        "amenity.arts_centre"
      ],
      "lat": 48.8623766,
      "lon": 2.3515821,
      "osm_id": 1427038398,
      "osm_type": "node",
      "address": "Passage Moli\u00e8re",
      "road_geometry": null
    },
    {
      "name": "CCF",
      "category": [
        "amenity.bank"
      ],
      "lat": 48.8620645,
      "lon": 2.3504828,
      "osm_id": 1986782616,
      "osm_type": "node",
      "address": "Boulevard de S\u00e9bastopol",
      "road_geometry": null
    },
    {
      "name": "Cafe Blanchet",
      "category": [
        "amenity.cafe"
      ],
      "lat": 48.8619465,
      "lon": 2.3507962,
      "osm_id": 1986782620,
      "osm_type": "node",
      "address": null,
      "road_geometry": null
    },
    {
      "name": "Halles Optique",
      "category": [
        "shop.optician"
      ],
      "lat": 48.8617875,
      "lon": 2.3506857,
      "osm_id": 1986782622,
      "osm_type": "node",
      "address": null,
      "road_geometry": null
    },
    {
      "name": "C'Roll Sushi",
      "category": [
        "amenity.restaurant"
      ],
      "lat": 48.8618029,
      "lon": 2.351834,
      "osm_id": 1986782626,
      "osm_type": "node",
      "address": null,
      "road_geometry": null
    },
    {
      "name": "Le Marigny",
      "category": [
        "amenity.cafe"
      ],
      "lat": 48.8618146,
      "lon": 2.3505668,
      "osm_id": 1986782629,
      "osm_type": "node",
      "address": null,
      "road_geometry": null
    },
    {
      "name": "Cr\u00eaperie de Paris",
      "category": [
        "amenity.fast_food"
      ],
      "lat": 48.8618218,
      "lon": 2.351243,
      "osm_id": 1986782651,
      "osm_type": "node",
      "address": null,
      "road_geometry": null
    },
    {
      "name": "Dessange",
      "category": [
        "shop.hairdresser"
      ],
      "lat": 48.8627591,
      "lon": 2.3508697,
      "osm_id": 2003145938,
      "osm_type": "node",
      "address": "Boulevard de S\u00e9bastopol",
      "road_geometry": null
    },
    {
      "name": "Lunigal",
      "category": [
        "shop.optician"
      ],
      "lat": 48.8628316,
      "lon": 2.350915,
      "osm_id": 2003145940,
      "osm_type": "node",
      "address": "Boulevard de S\u00e9bastopol",
      "road_geometry": null
    },
    {
      "name": "Copyprint",
      "category": [
        "shop.copyshop"
      ],
      "lat": 48.8630857,
      "lon": 2.3516501,
      "osm_id": 2003145954,
      "osm_type": "node",
      "address": "Rue aux Ours",
      "road_geometry": null
    },
    {
      "name": "Peppe \u00c9tienne Marcel",
      "category": [
        "amenity.restaurant"
      ],
      "lat": 48.8634806,
      "lon": 2.3500559,
      "osm_id": 2003233896,
      "osm_type": "node",
      "address": "Rue \u00c9tienne Marcel",
      "road_geometry": null
    },
    {
      "name": "Caf\u00e9 \u00c9tienne",
      "category": [
        "amenity.cafe"
      ],
      "lat": 48.8636482,
      "lon": 2.348932,
      "osm_id": 2003233906,
      "osm_type": "node",
      "address": "Rue Pierre Lescot",
      "road_geometry": null
    },
    {
      "name": "L'Engrenage",
      "category": [
        "amenity.bar"
      ],
      "lat": 48.8637169,
      "lon": 2.3501673,
      "osm_id": 2003233907,
      "osm_type": "node",
      "address": "Rue Saint-Denis",
      "road_geometry": null
    },
    {
      "name": "Hoki Sushi",
      "category": [
        "amenity.restaurant"
      ],
      "lat": 48.8629594,
      "lon": 2.3487932,
      "osm_id": 2003233913,
      "osm_type": "node",
      "address": null,
      "road_geometry": null
    },
    {
      "name": "Le Ciel De Marcel",
      "category": [
        "amenity.bar"
      ],
      "lat": 48.8636582,
      "lon": 2.3493356,
      "osm_id": 2003233916,
      "osm_type": "node",
      "address": "Rue \u00c9tienne Marcel",
      "road_geometry": null
    },
    {
      "name": "Le Vieux L\u00e9on",
      "category": [
        "amenity.bar"
      ],
      "lat": 48.862902,
      "lon": 2.3488808,
      "osm_id": 2003233919,
      "osm_type": "node",
      "address": "Rue de la Grande-Truanderie",
      "road_geometry": null
    },
    {
      "name": "New Shanga\u00ef",
      "category": [
        "amenity.restaurant"
      ],
      "lat": 48.8637856,
      "lon": 2.3498698,
      "osm_id": 2003233923,
      "osm_type": "node",
      "address": null,
      "road_geometry": null
    },
    {
      "name": "Passage du D\u00e9sir",
      "category": [
        "shop.erotic"
      ],
      "lat": 48.8632528,
      "lon": 2.3487259,
      "osm_id": 2003233924,
      "osm_type": "node",
      "address": "Rue Pierre Lescot",
      "road_geometry": null
    },
    {
      "name": "Starbucks",
      "category": [
        "amenity.cafe"
      ],
      "lat": 48.8620342,
      "lon": 2.3495444,
      "osm_id": 2003233925,
      "osm_type": "node",
      "address": null,
      "road_geometry": null
    },
    {
      "name": "S\u00e9bastopol - \u00c9tienne Marcel",
      "category": [
        "highway.bus_stop"
      ],
      "lat": 48.8635587,
      "lon": 2.3506146,
      "osm_id": 2042462217,
      "osm_type": "node",
      "address": null,
      "road_geometry": null
    },
    {
      "name": "C'est Deux Euros",
      "category": [
        "shop.variety_store"
      ],
      "lat": 48.8617764,
      "lon": 2.3503163,
      "osm_id": 2178148280,
      "osm_type": "node",
      "address": "Boulevard de S\u00e9bastopol",
      "road_geometry": null
    },
    {
      "name": "IT",
      "category": [
        "amenity.restaurant"
      ],
      "lat": 48.8622021,
      "lon": 2.349532,
      "osm_id": 2700561974,
      "osm_type": "node",
      "address": null,
      "road_geometry": null
    },
    {
      "name": "Jean-Marc Joubert - Paris Etienne Marcel",
      "category": [
        "shop.hairdresser"
      ],
      "lat": 48.8635715,
      "lon": 2.3498123,
      "osm_id": 3205830472,
      "osm_type": "node",
      "address": "Rue \u00c9tienne Marcel",
      "road_geometry": null
    },
    {
      "name": "Chez Vong",
      "category": [
        "amenity.restaurant"
      ],
      "lat": 48.8628024,
      "lon": 2.3492324,
      "osm_id": 3257543027,
      "osm_type": "node",
      "address": "Rue de la Grande Truanderie",
      "road_geometry": null
    },
    {
      "name": "Hippy Market",
      "category": [
        "shop.clothes"
      ],
      "lat": 48.8618389,
      "lon": 2.3503578,
      "osm_id": 3293288637,
      "osm_type": "node",
      "address": null,
      "road_geometry": null
    },
    {
      "name": "Matka",
      "category": [
        "amenity.restaurant"
      ],
      "lat": 48.8621474,
      "lon": 2.3511299,
      "osm_id": 3293288638,
      "osm_type": "node",
      "address": null,
      "road_geometry": null
    },
    {
      "name": "Bonobo",
      "category": [
        "shop.clothes"
      ],
      "lat": 48.8638688,
      "lon": 2.3496664,
      "osm_id": 3387741294,
      "osm_type": "node",
      "address": null,
      "road_geometry": null
    },
    {
      "name": "Le Depot",
      "category": [
        "amenity.nightclub"
      ],
      "lat": 48.8634056,
      "lon": 2.3514985,
      "osm_id": 3429408400,
      "osm_type": "node",
      "address": "Rue aux Ours",
      "road_geometry": null
    },
    {
      "name": "Sun City",
      "category": [
        "leisure.sauna"
      ],
      "lat": 48.8638015,
      "lon": 2.351465,
      "osm_id": 3429458693,
      "osm_type": "node",
      "address": "Boulevard de S\u00e9bastopol",
      "road_geometry": null
    },
    {
      "name": "Man'Ouch\u00e9",
      "category": [
        "amenity.fast_food"
      ],
      "lat": 48.8618464,
      "lon": 2.3511448,
      "osm_id": 3438081463,
      "osm_type": "node",
      "address": null,
      "road_geometry": null
    },
    {
      "name": "Baobab",
      "category": [
        "amenity.fast_food"
      ],
      "lat": 48.8617926,
      "lon": 2.3492934,
      "osm_id": 3588249493,
      "osm_type": "node",
      "address": null,
      "road_geometry": null
    },
    {
      "name": "Hakata Choten",
      "category": [
        "amenity.restaurant"
      ],
      "lat": 48.8628796,
      "lon": 2.348966,
      "osm_id": 3588251093,
      "osm_type": "node",
      "address": "Rue de la Grande Truanderie",
      "road_geometry": null
    },
    {
      "name": "Panier Sympa - Market Express",
      "category": [
        "shop.convenience"
      ],
      "lat": 48.86275,
      "lon": 2.3494114,
      "osm_id": 3588253793,
      "osm_type": "node",
      "address": "Rue de la Grande Truanderie",
      "road_geometry": null
    },
    {
      "name": "Zoom Flight Paris",
      "category": [
        "shop.clothes"
      ],
      "lat": 48.8627412,
      "lon": 2.3495001,
      "osm_id": 3588253794,
      "osm_type": "node",
      "address": "Rue Saint-Denis",
      "road_geometry": null
    },
    {
      "name": "Les Petites Casseroles",
      "category": [
        "amenity.restaurant"
      ],
      "lat": 48.8619818,
      "lon": 2.3506216,
      "osm_id": 3672093581,
      "osm_type": "node",
      "address": null,
      "road_geometry": null
    },
    {
      "name": "Tilal",
      "category": [
        "amenity.fast_food"
      ],
      "lat": 48.862174,
      "lon": 2.3496678,
      "osm_id": 3672093582,
      "osm_type": "node",
      "address": "Rue Rambuteau",
      "road_geometry": null
    },
    {
      "name": "Tropico",
      "category": [
        "shop.shoes"
      ],
      "lat": 48.8623621,
      "lon": 2.3488862,
      "osm_id": 3672098022,
      "osm_type": "node",
      "address": "rue Rambuteau",
      "road_geometry": null
    },
    {
      "name": "Magic Art",
      "category": [
        "shop.tattoo"
      ],
      "lat": 48.862121,
      "lon": 2.3492099,
      "osm_id": 3672098023,
      "osm_type": "node",
      "address": "Rue Saint-Denis",
      "road_geometry": null
    },
    {
      "name": "Leader Sushi",
      "category": [
        "amenity.fast_food"
      ],
      "lat": 48.8623073,
      "lon": 2.3491106,
      "osm_id": 3672098133,
      "osm_type": "node",
      "address": "Rue Rambuteau",
      "road_geometry": null
    },
    {
      "name": "Kipli",
      "category": [
        "shop.furniture"
      ],
      "lat": 48.8639439,
      "lon": 2.3499125,
      "osm_id": 3680769923,
      "osm_type": "node",
      "address": "Rue de Turbigo",
      "road_geometry": null
    },
    {
      "name": "Galice Burger Grill",
      "category": [
        "amenity.restaurant"
      ],
      "lat": 48.8637603,
      "lon": 2.3501602,
      "osm_id": 3680774398,
      "osm_type": "node",
      "address": "Rue Saint-Denis",
      "road_geometry": null
    },
    {
      "name": "Ichi Ramen",
      "category": [
        "amenity.fast_food"
      ],
      "lat": 48.8638944,
      "lon": 2.3499349,
      "osm_id": 3680774436,
      "osm_type": "node",
      "address": "Rue Saint-Denis",
      "road_geometry": null
    },
    {
      "name": "Libanito",
      "category": [
        "amenity.fast_food"
      ],
      "lat": 48.8638058,
      "lon": 2.3501627,
      "osm_id": 3680774438,
      "osm_type": "node",
      "address": "Rue Saint-Denis",
      "road_geometry": null
    },
    {
      "name": "H\u00f4tel du Cygne",
      "category": [
        "tourism.hotel"
      ],
      "lat": 48.8631266,
      "lon": 2.3493066,
      "osm_id": 3778549266,
      "osm_type": "node",
      "address": "Rue du Cygne",
      "road_geometry": null
    },
    {
      "name": "Vintage Mania",
      "category": [
        "shop.clothes"
      ],
      "lat": 48.8631958,
      "lon": 2.3496589,
      "osm_id": 3889206159,
      "osm_type": "node",
      "address": "Rue Saint-Denis",
      "road_geometry": null
    },
    {
      "name": "Libshop",
      "category": [
        "amenity.restaurant"
      ],
      "lat": 48.8632634,
      "lon": 2.3499246,
      "osm_id": 3889206258,
      "osm_type": "node",
      "address": "Rue Saint-Denis",
      "road_geometry": null
    },
    {
      "name": "Poulette",
      "category": [
        "amenity.restaurant"
      ],
      "lat": 48.8634248,
      "lon": 2.3503637,
      "osm_id": 3889206259,
      "osm_type": "node",
      "address": "Rue \u00c9tienne Marcel",
      "road_geometry": null
    },
    {
      "name": "Folie crabe",
      "category": [
        "amenity.restaurant"
      ],
      "lat": 48.8636723,
      "lon": 2.3503952,
      "osm_id": 3889211357,
      "osm_type": "node",
      "address": "Rue \u00c9tienne Marcel",
      "road_geometry": null
    },
    {
      "name": "Parcellaire",
      "category": [
        "shop.alcohol"
      ],
      "lat": 48.862898,
      "lon": 2.351496,
      "osm_id": 4081642874,
      "osm_type": "node",
      "address": null,
      "road_geometry": null
    },
    {
      "name": "Ravioli Nord-Est",
      "category": [
        "amenity.restaurant"
      ],
      "lat": 48.8628462,
      "lon": 2.3495362,
      "osm_id": 4181820389,
      "osm_type": "node",
      "address": "Rue Saint-Denis",
      "road_geometry": null
    },
    {
      "name": "D\u00e9lices de Beyrouth",
      "category": [
        "amenity.restaurant"
      ],
      "lat": 48.8619175,
      "lon": 2.351673,
      "osm_id": 4878441121,
      "osm_type": "node",
      "address": "Rue Saint-Martin",
      "road_geometry": null
    },
    {
      "name": "Chez Elie",
      "category": [
        "amenity.fast_food"
      ],
      "lat": 48.8618336,
      "lon": 2.3504845,
      "osm_id": 5127021443,
      "osm_type": "node",
      "address": "Rue Rambuteau",
      "road_geometry": null
    },
    {
      "name": "Bachir",
      "category": [
        "amenity.ice_cream"
      ],
      "lat": 48.8617812,
      "lon": 2.3514536,
      "osm_id": 5127021444,
      "osm_type": "node",
      "address": "Rue Rambuteau",
      "road_geometry": null
    },
    {
      "name": "O'CD",
      "category": [
        "shop.music"
      ],
      "lat": 48.8631184,
      "lon": 2.3488845,
      "osm_id": 5151739621,
      "osm_type": "node",
      "address": "Rue Pierre Lescot",
      "road_geometry": null
    },
    {
      "name": "Fresh noodles",
      "category": [
        "amenity.restaurant"
      ],
      "lat": 48.8618051,
      "lon": 2.3513543,
      "osm_id": 5250424021,
      "osm_type": "node",
      "address": null,
      "road_geometry": null
    },
    {
      "name": "Snob Hotel by Elegancia",
      "category": [
        "tourism.hotel"
      ],
      "lat": 48.8622641,
      "lon": 2.3495223,
      "osm_id": 5286247922,
      "osm_type": "node",
      "address": "Rue Saint-Denis",
      "road_geometry": null
    },
    {
      "name": "L'everest",
      "category": [
        "amenity.bar"
      ],
      "lat": 48.862111,
      "lon": 2.3520432,
      "osm_id": 5353492568,
      "osm_type": "node",
      "address": "Rue Saint-Martin",
      "road_geometry": null
    },
    {
      "name": "D. S. Coiffure",
      "category": [
        "shop.hairdresser"
      ],
      "lat": 48.8620263,
      "lon": 2.3519752,
      "osm_id": 5353492570,
      "osm_type": "node",
      "address": "Rue Saint-Martin",
      "road_geometry": null
    },
    {
      "name": "Les Barytons",
      "category": [
        "amenity.bar"
      ],
      "lat": 48.8619569,
      "lon": 2.3519254,
      "osm_id": 5353492571,
      "osm_type": "node",
      "address": "Rue Saint-Martin",
      "road_geometry": null
    },
    {
      "name": "Le Mousk",
      "category": [
        "amenity.bar"
      ],
      "lat": 48.8621703,
      "lon": 2.3520679,
      "osm_id": 5353492574,
      "osm_type": "node",
      "address": null,
      "road_geometry": null
    },
    {
      "name": "Caf\u00e9 la Fus\u00e9e",
      "category": [
        "amenity.cafe"
      ],
      "lat": 48.862208,
      "lon": 2.3520899,
      "osm_id": 5353492575,
      "osm_type": "node",
      "address": null,
      "road_geometry": null
    },
    {
      "name": "Bubbleteacup",
      "category": [
        "amenity.cafe"
      ],
      "lat": 48.8620599,
      "lon": 2.3519869,
      "osm_id": 5353492577,
      "osm_type": "node",
      "address": null,
      "road_geometry": null
    },
    {
      "name": "Marie Madeleine",
      "category": [
        "amenity.fast_food"
      ],
      "lat": 48.8618879,
      "lon": 2.3518982,
      "osm_id": 5353492580,
      "osm_type": "node",
      "address": "Rue Saint-Martin",
      "road_geometry": null
    },
    {
      "name": "Opium Sneaker Store",
      "category": [
        "shop.shoes"
      ],
      "lat": 48.8633994,
      "lon": 2.348799,
      "osm_id": 5478886377,
      "osm_type": "node",
      "address": "Rue Pierre Lescot",
      "road_geometry": null
    },
    {
      "name": "Le 153",
      "category": [
        "amenity.bar"
      ],
      "lat": 48.8619804,
      "lon": 2.3516954,
      "osm_id": 5508874924,
      "osm_type": "node",
      "address": "Rue Saint-Martin",
      "road_geometry": null
    },
    {
      "name": "\u00c9tienne Marcel",
      "category": [
        "railway.station"
      ],
      "lat": 48.8638718,
      "lon": 2.3490301,
      "osm_id": 5527829165,
      "osm_type": "node",
      "address": null,
      "road_geometry": null
    },
    {
      "name": "Creperie-alo",
      "category": [
        "amenity.restaurant"
      ],
      "lat": 48.862975,
      "lon": 2.3520972,
      "osm_id": 5594769740,
      "osm_type": "node",
      "address": "Rue aux Ours",
      "road_geometry": null
    },
    {
      "name": "Le Carlie",
      "category": [
        "amenity.bar"
      ],
      "lat": 48.8626955,
      "lon": 2.3521138,
      "osm_id": 5602730924,
      "osm_type": "node",
      "address": "Rue Saint-Martin",
      "road_geometry": null
    },
    {
      "name": "Turbigo - \u00c9tienne Marcel",
      "category": [
        "highway.bus_stop"
      ],
      "lat": 48.8639109,
      "lon": 2.3513701,
      "osm_id": 5979566338,
      "osm_type": "node",
      "address": null,
      "road_geometry": null
    },
    {
      "name": "Institut du Management de l'Information - UTC",
      "category": [
        "amenity.university"
      ],
      "lat": 48.8637322,
      "lon": 2.3515653,
      "osm_id": 6055885501,
      "osm_type": "node",
      "address": null,
      "road_geometry": null
    },
    {
      "name": "Handsome Hotel",
      "category": [
        "tourism.hostel"
      ],
      "lat": 48.8621857,
      "lon": 2.3488295,
      "osm_id": 6388594692,
      "osm_type": "node",
      "address": "Rue Rambuteau",
      "road_geometry": null
    },
    {
      "name": "Grande Truanderie - Saint-Denis",
      "category": [
        "amenity.bicycle_rental"
      ],
      "lat": 48.8626276,
      "lon": 2.3499155,
      "osm_id": 6439759681,
      "osm_type": "node",
      "address": null,
      "road_geometry": null
    },
    {
      "name": "Anatolien",
      "category": [
        "amenity.fast_food"
      ],
      "lat": 48.8629959,
      "lon": 2.3520105,
      "osm_id": 6698785664,
      "osm_type": "node",
      "address": "Rue aux Ours",
      "road_geometry": null
    },
    {
      "name": "Picard Serrures",
      "category": [
        "shop.locksmith"
      ],
      "lat": 48.8630125,
      "lon": 2.3519424,
      "osm_id": 6698785665,
      "osm_type": "node",
      "address": null,
      "road_geometry": null
    },
    {
      "name": "Bao's",
      "category": [
        "amenity.restaurant"
      ],
      "lat": 48.863049,
      "lon": 2.3488379,
      "osm_id": 6814360459,
      "osm_type": "node",
      "address": "Rue Pierre Lescot",
      "road_geometry": null
    },
    {
      "name": "L'\u00c9nigme",
      "category": [
        "amenity.restaurant"
      ],
      "lat": 48.8629563,
      "lon": 2.3515589,
      "osm_id": 6833100797,
      "osm_type": "node",
      "address": null,
      "road_geometry": null
    },
    {
      "name": "2A Barber",
      "category": [
        "shop.hairdresser"
      ],
      "lat": 48.8626036,
      "lon": 2.3494406,
      "osm_id": 7028008453,
      "osm_type": "node",
      "address": "Rue Saint-Denis",
      "road_geometry": null
    },
    {
      "name": "\u00c9glise Saint-Leu-Saint-Gilles",
      "category": [
        "tourism.information"
      ],
      "lat": 48.8630451,
      "lon": 2.3497965,
      "osm_id": 7028008457,
      "osm_type": "node",
      "address": null,
      "road_geometry": null
    },
    {
      "name": "Asian Food",
      "category": [
        "amenity.restaurant"
      ],
      "lat": 48.862308,
      "lon": 2.3493242,
      "osm_id": 7028008472,
      "osm_type": "node",
      "address": "Rue Saint-Denis",
      "road_geometry": null
    },
    {
      "name": "Carrefour Express",
      "category": [
        "shop.convenience"
      ],
      "lat": 48.8619991,
      "lon": 2.3497161,
      "osm_id": 7028008473,
      "osm_type": "node",
      "address": "Rue Rambuteau",
      "road_geometry": null
    },
    {
      "name": "Franprix",
      "category": [
        "shop.convenience"
      ],
      "lat": 48.8639146,
      "lon": 2.3509474,
      "osm_id": 7031582751,
      "osm_type": "node",
      "address": "Boulevard de S\u00e9bastopol",
      "road_geometry": null
    },
    {
      "name": "DNoodles 70",
      "category": [
        "amenity.restaurant"
      ],
      "lat": 48.8619376,
      "lon": 2.3509982,
      "osm_id": 7069198185,
      "osm_type": "node",
      "address": "Rue Quincampoix",
      "road_geometry": null
    },
    {
      "name": "YiTh\u00e9",
      "category": [
        "shop.tea"
      ],
      "lat": 48.8619289,
      "lon": 2.349843,
      "osm_id": 7133475332,
      "osm_type": "node",
      "address": null,
      "road_geometry": null
    },
    {
      "name": "DVD 96 Toys",
      "category": [
        "shop.erotic"
      ],
      "lat": 48.8632278,
      "lon": 2.3499207,
      "osm_id": 7160893734,
      "osm_type": "node",
      "address": "Rue Saint-Denis",
      "road_geometry": null
    },
    {
      "name": "La canop\u00e9e",
      "category": [
        "amenity.cafe"
      ],
      "lat": 48.8629833,
      "lon": 2.3509844,
      "osm_id": 7179679714,
      "osm_type": "node",
      "address": "Boulevard de S\u00e9bastopol",
      "road_geometry": null
    },
    {
      "name": "CoCo Fresh Tea & Juice",
      "category": [
        "amenity.cafe"
      ],
      "lat": 48.861784,
      "lon": 2.3515963,
      "osm_id": 7778236541,
      "osm_type": "node",
      "address": "Rue Saint-Martin",
      "road_geometry": null
    },
    {
      "name": "Vertus Bar \u00e0 Jus",
      "category": [
        "amenity.fast_food"
      ],
      "lat": 48.8617984,
      "lon": 2.3506292,
      "osm_id": 7778255926,
      "osm_type": "node",
      "address": null,
      "road_geometry": null
    },
    {
      "name": "Dutilleux & Minart",
      "category": [
        "shop.clothes"
      ],
      "lat": 48.8636699,
      "lon": 2.3487091,
      "osm_id": 7815909183,
      "osm_type": "node",
      "address": "Rue de Turbigo",
      "road_geometry": null
    },
    {
      "name": "Schmidt",
      "category": [
        "shop.kitchen"
      ],
      "lat": 48.8631303,
      "lon": 2.3505341,
      "osm_id": 7923610495,
      "osm_type": "node",
      "address": "Boulevard de S\u00e9bastopol",
      "road_geometry": null
    },
    {
      "name": "Cuisinella",
      "category": [
        "shop.kitchen"
      ],
      "lat": 48.8637027,
      "lon": 2.3508305,
      "osm_id": 7923610568,
      "osm_type": "node",
      "address": "Boulevard de S\u00e9bastopol",
      "road_geometry": null
    },
    {
      "name": "Sous le Parasol",
      "category": [
        "shop.perfumery"
      ],
      "lat": 48.8639986,
      "lon": 2.3510141,
      "osm_id": 7923610580,
      "osm_type": "node",
      "address": "Boulevard de S\u00e9bastopol",
      "road_geometry": null
    },
    {
      "name": "Decoplus Parquets",
      "category": [
        "shop.flooring"
      ],
      "lat": 48.8630489,
      "lon": 2.3504839,
      "osm_id": 7923610599,
      "osm_type": "node",
      "address": "Boulevard de S\u00e9bastopol",
      "road_geometry": null
    },
    {
      "name": "Oishi",
      "category": [
        "amenity.restaurant"
      ],
      "lat": 48.8624941,
      "lon": 2.3520043,
      "osm_id": 8140200741,
      "osm_type": "node",
      "address": "Rue Saint-Martin",
      "road_geometry": null
    },
    {
      "name": "Le Workshow Paris",
      "category": [
        "amenity.bar"
      ],
      "lat": 48.8625872,
      "lon": 2.3519802,
      "osm_id": 8140200742,
      "osm_type": "node",
      "address": "Rue Saint-Martin",
      "road_geometry": null
    },
    {
      "name": "Canal BD - Librairie Super H\u00e9ros",
      "category": [
        "shop.books"
      ],
      "lat": 48.8626508,
      "lon": 2.3520925,
      "osm_id": 8140200743,
      "osm_type": "node",
      "address": "Rue Saint-Martin",
      "road_geometry": null
    },
    {
      "name": "Arco steakhouse",
      "category": [
        "amenity.fast_food"
      ],
      "lat": 48.8629501,
      "lon": 2.3495715,
      "osm_id": 8175124517,
      "osm_type": "node",
      "address": "Rue Saint-Denis",
      "road_geometry": null
    },
    {
      "name": "Mus\u00e9e de l'illusion",
      "category": [
        "tourism.museum"
      ],
      "lat": 48.863307,
      "lon": 2.3499796,
      "osm_id": 8555209092,
      "osm_type": "node",
      "address": "Rue Saint-Denis",
      "road_geometry": null
    },
    {
      "name": "Cactus",
      "category": [
        "shop.jewelry"
      ],
      "lat": 48.8635337,
      "lon": 2.3498057,
      "osm_id": 8763382369,
      "osm_type": "node",
      "address": null,
      "road_geometry": null
    },
    {
      "name": "Kurashi cafe & mart",
      "category": [
        "amenity.cafe",
        "shop.convenience"
      ],
      "lat": 48.8634427,
      "lon": 2.3497736,
      "osm_id": 9545303202,
      "osm_type": "node",
      "address": null,
      "road_geometry": null
    },
    {
      "name": "Baby Swag Store",
      "category": [
        "shop.clothes"
      ],
      "lat": 48.8630293,
      "lon": 2.349602,
      "osm_id": 9545303203,
      "osm_type": "node",
      "address": "Rue Saint-Denis",
      "road_geometry": null
    },
    {
      "name": "Yi Fang Tea",
      "category": [
        "amenity.cafe"
      ],
      "lat": 48.8630761,
      "lon": 2.3496251,
      "osm_id": 9545303204,
      "osm_type": "node",
      "address": "Rue Saint-Denis",
      "road_geometry": null
    },
    {
      "name": "Uptown",
      "category": [
        "shop.clothes"
      ],
      "lat": 48.8629946,
      "lon": 2.3495907,
      "osm_id": 9545303205,
      "osm_type": "node",
      "address": "Rue Saint-Denis",
      "road_geometry": null
    },
    {
      "name": "Centre dentaire \u00c9tienne Marcel",
      "category": [
        "amenity.dentist"
      ],
      "lat": 48.8633975,
      "lon": 2.3499997,
      "osm_id": 9545303206,
      "osm_type": "node",
      "address": "Rue Saint-Denis",
      "road_geometry": null
    },
    {
      "name": "Caf\u00e9 Beyrout",
      "category": [
        "amenity.hookah_lounge"
      ],
      "lat": 48.8632285,
      "lon": 2.3494343,
      "osm_id": 9545319579,
      "osm_type": "node",
      "address": null,
      "road_geometry": null
    },
    {
      "name": "The Barber Shop",
      "category": [
        "shop.hairdresser"
      ],
      "lat": 48.8631188,
      "lon": 2.3494366,
      "osm_id": 9545319581,
      "osm_type": "node",
      "address": "Rue du Cygne",
      "road_geometry": null
    },
    {
      "name": "Diego",
      "category": [
        "shop.clothes"
      ],
      "lat": 48.8627398,
      "lon": 2.3488351,
      "osm_id": 9560681484,
      "osm_type": "node",
      "address": "Rue de la Grande Truanderie",
      "road_geometry": null
    },
    {
      "name": "Mon Waffle",
      "category": [
        "amenity.cafe"
      ],
      "lat": 48.862167,
      "lon": 2.3489709,
      "osm_id": 9560681485,
      "osm_type": "node",
      "address": "Rue Rambuteau",
      "road_geometry": null
    },
    {
      "name": "Happy Lemon",
      "category": [
        "amenity.cafe"
      ],
      "lat": 48.8627789,
      "lon": 2.3489298,
      "osm_id": 9560681486,
      "osm_type": "node",
      "address": "Rue de la Grande Truanderie",
      "road_geometry": null
    },
    {
      "name": "Savage Couture",
      "category": [
        "shop.clothes"
      ],
      "lat": 48.8621529,
      "lon": 2.3490536,
      "osm_id": 9560681487,
      "osm_type": "node",
      "address": "Rue Rambuteau",
      "road_geometry": null
    },
    {
      "name": "Rosa",
      "category": [
        "shop.fashion_accessories"
      ],
      "lat": 48.862356,
      "lon": 2.3493434,
      "osm_id": 9560681490,
      "osm_type": "node",
      "address": "Rue Saint-Denis",
      "road_geometry": null
    },
    {
      "name": "Lalaland",
      "category": [
        "amenity.bar"
      ],
      "lat": 48.862647,
      "lon": 2.3494594,
      "osm_id": 9560681491,
      "osm_type": "node",
      "address": "Rue Saint-Denis",
      "road_geometry": null
    },
    {
      "name": "Le Rexy",
      "category": [
        "amenity.nightclub"
      ],
      "lat": 48.8627212,
      "lon": 2.3491433,
      "osm_id": 9560681493,
      "osm_type": "node",
      "address": "Rue de la Grande Truanderie",
      "road_geometry": null
    },
    {
      "name": "Rayon d\u2019or",
      "category": [
        "shop.bag"
      ],
      "lat": 48.8622307,
      "lon": 2.348704,
      "osm_id": 9560681494,
      "osm_type": "node",
      "address": "Rue Rambuteau",
      "road_geometry": null
    },
    {
      "name": "Dandy Bar & Kitchen",
      "category": [
        "amenity.bar"
      ],
      "lat": 48.8623459,
      "lon": 2.3495466,
      "osm_id": 9560681495,
      "osm_type": "node",
      "address": "Rue Saint-Denis",
      "road_geometry": null
    },
    {
      "name": "Remix Line",
      "category": [
        "shop.clothes"
      ],
      "lat": 48.8621823,
      "lon": 2.3489031,
      "osm_id": 9560681496,
      "osm_type": "node",
      "address": "Rue Rambuteau",
      "road_geometry": null
    },
    {
      "name": "Le Cent Un",
      "category": [
        "shop.clothes"
      ],
      "lat": 48.8624633,
      "lon": 2.3493885,
      "osm_id": 9560681497,
      "osm_type": "node",
      "address": "Rue Saint-Denis",
      "road_geometry": null
    },
    {
      "name": "Donatien Ma\u00eetre \u00c9clair",
      "category": [
        "shop.pastry"
      ],
      "lat": 48.8621553,
      "lon": 2.349803,
      "osm_id": 9560681498,
      "osm_type": "node",
      "address": "Rue Saint-Denis",
      "road_geometry": null
    },
    {
      "name": "Paris Sexy",
      "category": [
        "shop.erotic"
      ],
      "lat": 48.8624107,
      "lon": 2.3493702,
      "osm_id": 9560681499,
      "osm_type": "node",
      "address": "Rue Saint-Denis",
      "road_geometry": null
    },
    {
      "name": "LoveHotel Ch\u00e2telet",
      "category": [
        "amenity.love_hotel"
      ],
      "lat": 48.8624107,
      "lon": 2.3495792,
      "osm_id": 9560681500,
      "osm_type": "node",
      "address": "Rue Saint-Denis",
      "road_geometry": null
    },
    {
      "name": "Flipside",
      "category": [
        "shop.clothes"
      ],
      "lat": 48.8625205,
      "lon": 2.3494168,
      "osm_id": 9560681501,
      "osm_type": "node",
      "address": "Rue Saint-Denis",
      "road_geometry": null
    },
    {
      "name": "AD9",
      "category": [
        "shop.fashion_accessories"
      ],
      "lat": 48.8621377,
      "lon": 2.3491372,
      "osm_id": 9560681502,
      "osm_type": "node",
      "address": "Rue Rambuteau",
      "road_geometry": null
    },
    {
      "name": "Le salon de l\u2019Ongle",
      "category": [
        "shop.beauty"
      ],
      "lat": 48.8627567,
      "lon": 2.3490413,
      "osm_id": 9560681503,
      "osm_type": "node",
      "address": "Rue de la Grande Truanderie",
      "road_geometry": null
    },
    {
      "name": "Restaurant tib\u00e9tain",
      "category": [
        "amenity.fast_food"
      ],
      "lat": 48.8619038,
      "lon": 2.3489048,
      "osm_id": 9560732247,
      "osm_type": "node",
      "address": "Rue des Pr\u00eacheurs",
      "road_geometry": null
    },
    {
      "name": "Chez Serge",
      "category": [
        "amenity.cafe",
        "shop.tobacco"
      ],
      "lat": 48.8619161,
      "lon": 2.3488404,
      "osm_id": 9560732248,
      "osm_type": "node",
      "address": "Rue des Pr\u00eacheurs",
      "road_geometry": null
    },
    {
      "name": "Ethniks",
      "category": [
        "shop.fashion_accessories"
      ],
      "lat": 48.8625135,
      "lon": 2.348702,
      "osm_id": 9560732250,
      "osm_type": "node",
      "address": "Rue Pierre Lescot",
      "road_geometry": null
    },
    {
      "name": "Pentagramme",
      "category": [
        "shop.clothes"
      ],
      "lat": 48.8619413,
      "lon": 2.348772,
      "osm_id": 9560732251,
      "osm_type": "node",
      "address": "Rue des Pr\u00eacheurs",
      "road_geometry": null
    },
    {
      "name": "Flying Tiger Copenhagen",
      "category": [
        "shop.variety_store"
      ],
      "lat": 48.8621546,
      "lon": 2.3499867,
      "osm_id": 9560894282,
      "osm_type": "node",
      "address": null,
      "road_geometry": null
    },
    {
      "name": "Pearl",
      "category": [
        "shop.variety_store"
      ],
      "lat": 48.8622596,
      "lon": 2.3500334,
      "osm_id": 9560894283,
      "osm_type": "node",
      "address": "Boulevard de S\u00e9bastopol",
      "road_geometry": null
    },
    {
      "name": "Dandy",
      "category": [
        "tourism.hotel"
      ],
      "lat": 48.8623299,
      "lon": 2.3495305,
      "osm_id": 9803522107,
      "osm_type": "node",
      "address": "Rue Saint-Denis",
      "road_geometry": null
    },
    {
      "name": "Hug",
      "category": [
        "amenity.cafe"
      ],
      "lat": 48.8624244,
      "lon": 2.350124,
      "osm_id": 9869273474,
      "osm_type": "node",
      "address": null,
      "road_geometry": null
    },
    {
      "name": "Tosakko ramen",
      "category": [
        "amenity.restaurant"
      ],
      "lat": 48.8623563,
      "lon": 2.3500962,
      "osm_id": 9869273475,
      "osm_type": "node",
      "address": "Boulevard de S\u00e9bastopol",
      "road_geometry": null
    },
    {
      "name": "Beauty Success",
      "category": [
        "shop.cosmetics"
      ],
      "lat": 48.8617905,
      "lon": 2.3497747,
      "osm_id": 9869273486,
      "osm_type": "node",
      "address": "Boulevard de S\u00e9bastopol",
      "road_geometry": null
    },
    {
      "name": "Shisha One",
      "category": [
        "amenity.hookah_lounge"
      ],
      "lat": 48.8624708,
      "lon": 2.3500289,
      "osm_id": 9938103909,
      "osm_type": "node",
      "address": null,
      "road_geometry": null
    },
    {
      "name": "Doc' Biker",
      "category": [
        "shop.motorcycle_repair"
      ],
      "lat": 48.8622663,
      "lon": 2.3505896,
      "osm_id": 9938103913,
      "osm_type": "node",
      "address": "Boulevard de S\u00e9bastopol",
      "road_geometry": null
    },
    {
      "name": "Shop 117",
      "category": [
        "shop.erotic"
      ],
      "lat": 48.8628975,
      "lon": 2.3495527,
      "osm_id": 9938103914,
      "osm_type": "node",
      "address": "Rue Saint-Denis",
      "road_geometry": null
    },
    {
      "name": "Expres' So Tea",
      "category": [
        "amenity.cafe"
      ],
      "lat": 48.862799,
      "lon": 2.3495213,
      "osm_id": 9938103915,
      "osm_type": "node",
      "address": "Rue Saint-Denis",
      "road_geometry": null
    },
    {
      "name": "Lyca Mobile",
      "category": [
        "shop.mobile_phone"
      ],
      "lat": 48.8634975,
      "lon": 2.3497981,
      "osm_id": 9938103916,
      "osm_type": "node",
      "address": null,
      "road_geometry": null
    },
    {
      "name": "Machi machi",
      "category": [
        "amenity.cafe"
      ],
      "lat": 48.8620296,
      "lon": 2.3492022,
      "osm_id": 9938105017,
      "osm_type": "node",
      "address": "Rue Saint-Denis",
      "road_geometry": null
    },
    {
      "name": "L'univers du 2 roues",
      "category": [
        "shop.motorcycle"
      ],
      "lat": 48.8636358,
      "lon": 2.3513666,
      "osm_id": 10025838435,
      "osm_type": "node",
      "address": "Boulevard de S\u00e9bastopol",
      "road_geometry": null
    },
    {
      "name": "La maison de l'homme",
      "category": [
        "shop.clothes"
      ],
      "lat": 48.8623644,
      "lon": 2.3506652,
      "osm_id": 10025838436,
      "osm_type": "node",
      "address": "Boulevard de S\u00e9bastopol",
      "road_geometry": null
    },
    {
      "name": "Jonak",
      "category": [
        "shop.shoes"
      ],
      "lat": 48.8621937,
      "lon": 2.3505599,
      "osm_id": 10025838437,
      "osm_type": "node",
      "address": "Boulevard de S\u00e9bastopol",
      "road_geometry": null
    },
    {
      "name": "Sacr\u00e9 Frenchy !",
      "category": [
        "amenity.bar"
      ],
      "lat": 48.8632185,
      "lon": 2.3511346,
      "osm_id": 10025838438,
      "osm_type": "node",
      "address": "Boulevard de S\u00e9bastopol",
      "road_geometry": null
    },
    {
      "name": "Street Bangkok",
      "category": [
        "amenity.restaurant"
      ],
      "lat": 48.8639328,
      "lon": 2.3501976,
      "osm_id": 10114786217,
      "osm_type": "node",
      "address": "Rue Saint-Denis",
      "road_geometry": null
    },
    {
      "name": "Mon Petit Banh Mi",
      "category": [
        "amenity.fast_food"
      ],
      "lat": 48.862417,
      "lon": 2.3519581,
      "osm_id": 10153088246,
      "osm_type": "node",
      "address": "Rue Saint-Martin",
      "road_geometry": null
    },
    {
      "name": "Memories",
      "category": [
        "amenity.cafe"
      ],
      "lat": 48.8623805,
      "lon": 2.3519341,
      "osm_id": 10153088256,
      "osm_type": "node",
      "address": "Rue Saint-Martin",
      "road_geometry": null
    },
    {
      "name": "Baguette Brochette",
      "category": [
        "amenity.fast_food"
      ],
      "lat": 48.8625645,
      "lon": 2.3494296,
      "osm_id": 10206765608,
      "osm_type": "node",
      "address": "Rue Saint-Denis",
      "road_geometry": null
    },
    {
      "name": "Gomu",
      "category": [
        "amenity.fast_food"
      ],
      "lat": 48.8622736,
      "lon": 2.3492611,
      "osm_id": 10206774127,
      "osm_type": "node",
      "address": "Rue Rambuteau",
      "road_geometry": null
    },
    {
      "name": "In Cha",
      "category": [
        "amenity.cafe"
      ],
      "lat": 48.8632432,
      "lon": 2.3496889,
      "osm_id": 10224486286,
      "osm_type": "node",
      "address": "Rue Saint-Denis",
      "road_geometry": null
    },
    {
      "name": "L\u2019Appartement 235",
      "category": [
        "shop.hairdresser"
      ],
      "lat": 48.8636486,
      "lon": 2.3494824,
      "osm_id": 10224518747,
      "osm_type": "node",
      "address": "Rue \u00c9tienne Marcel",
      "road_geometry": null
    },
    {
      "name": "Studio30",
      "category": [
        "shop.shoes"
      ],
      "lat": 48.8636111,
      "lon": 2.349143,
      "osm_id": 10224518755,
      "osm_type": "node",
      "address": "Rue Pierre Lescot",
      "road_geometry": null
    },
    {
      "name": "Le Petit Bouillon Pharamond - l\u2019Annexe",
      "category": [
        "amenity.restaurant"
      ],
      "lat": 48.8634294,
      "lon": 2.3490462,
      "osm_id": 10224518756,
      "osm_type": "node",
      "address": null,
      "road_geometry": null
    },
    {
      "name": "Fondue Dragon",
      "category": [
        "amenity.restaurant"
      ],
      "lat": 48.8634577,
      "lon": 2.3502266,
      "osm_id": 10655545091,
      "osm_type": "node",
      "address": "Rue \u00c9tienne Marcel",
      "road_geometry": null
    },
    {
      "name": "Plan\u00e8te 70",
      "category": [
        "shop.clothes"
      ],
      "lat": 48.8618274,
      "lon": 2.3516271,
      "osm_id": 10744217137,
      "osm_type": "node",
      "address": "Rue Saint-Martin",
      "road_geometry": null
    },
    {
      "name": "Labo des histoires",
      "category": [
        "shop.books"
      ],
      "lat": 48.862336,
      "lon": 2.3519267,
      "osm_id": 10744217138,
      "osm_type": "node",
      "address": null,
      "road_geometry": null
    },
    {
      "name": "L'extr\u00eame Contemporain",
      "category": [
        "shop.books"
      ],
      "lat": 48.862274,
      "lon": 2.3515067,
      "osm_id": 10832019292,
      "osm_type": "node",
      "address": "Passage Moli\u00e8re",
      "road_geometry": null
    },
    {
      "name": "L'\u00e9critoire",
      "category": [
        "shop.stationery"
      ],
      "lat": 48.8622391,
      "lon": 2.3516509,
      "osm_id": 10832057952,
      "osm_type": "node",
      "address": "Passage Moli\u00e8re",
      "road_geometry": null
    },
    {
      "name": "El Paso Booty",
      "category": [
        "shop.shoes"
      ],
      "lat": 48.8617881,
      "lon": 2.3490654,
      "osm_id": 11212390916,
      "osm_type": "node",
      "address": "Rue Sant-Denis",
      "road_geometry": null
    },
    {
      "name": "Mamma Orso",
      "category": [
        "amenity.restaurant"
      ],
      "lat": 48.8631715,
      "lon": 2.3513643,
      "osm_id": 11300128169,
      "osm_type": "node",
      "address": "Rue aux Ours",
      "road_geometry": null
    },
    {
      "name": "Balou Paris 3",
      "category": [
        "amenity.bar"
      ],
      "lat": 48.8630437,
      "lon": 2.3518446,
      "osm_id": 11300184869,
      "osm_type": "node",
      "address": "Rue aux Ours",
      "road_geometry": null
    },
    {
      "name": "Cicciolina",
      "category": [
        "amenity.bar"
      ],
      "lat": 48.8635258,
      "lon": 2.3488469,
      "osm_id": 11368603769,
      "osm_type": "node",
      "address": "Rue Pierre Lescot",
      "road_geometry": null
    },
    {
      "name": "Love Shop",
      "category": [
        "shop.erotic"
      ],
      "lat": 48.86185,
      "lon": 2.3493111,
      "osm_id": 11503859257,
      "osm_type": "node",
      "address": "Rue Saint-Denis",
      "road_geometry": null
    },
    {
      "name": "Baidou",
      "category": [
        "shop.clothes"
      ],
      "lat": 48.8618375,
      "lon": 2.3491078,
      "osm_id": 11503860932,
      "osm_type": "node",
      "address": null,
      "road_geometry": null
    },
    {
      "name": "Miss coquines",
      "category": [
        "shop.clothes"
      ],
      "lat": 48.8619057,
      "lon": 2.3493392,
      "osm_id": 11503914372,
      "osm_type": "node",
      "address": "Rue Saint-Denis",
      "road_geometry": null
    },
    {
      "name": "Jeanus",
      "category": [
        "shop.clothes"
      ],
      "lat": 48.8619721,
      "lon": 2.3493731,
      "osm_id": 11503931813,
      "osm_type": "node",
      "address": "Rue Saint-Denis",
      "road_geometry": null
    },
    {
      "name": "Vintage store",
      "category": [
        "shop.music"
      ],
      "lat": 48.8619936,
      "lon": 2.3491893,
      "osm_id": 11503933262,
      "osm_type": "node",
      "address": "Rue Saint-Denis",
      "road_geometry": null
    },
    {
      "name": "Concord",
      "category": [
        "shop.clothes"
      ],
      "lat": 48.8620327,
      "lon": 2.3494031,
      "osm_id": 11503934113,
      "osm_type": "node",
      "address": "Rue Saint-Denis",
      "road_geometry": null
    },
    {
      "name": "Eclipse",
      "category": [
        "leisure.sauna"
      ],
      "lat": 48.8637421,
      "lon": 2.3514466,
      "osm_id": 11506426002,
      "osm_type": "node",
      "address": "Boulevard de S\u00e9bastopol",
      "road_geometry": null
    },
    {
      "name": "Allo Beirut",
      "category": [
        "amenity.restaurant"
      ],
      "lat": 48.8639282,
      "lon": 2.3514959,
      "osm_id": 11506434139,
      "osm_type": "node",
      "address": "Boulevard de S\u00e9bastopol",
      "road_geometry": null
    },
    {
      "name": "Welcome to Paris",
      "category": [
        "shop.fashion_accessories"
      ],
      "lat": 48.8619691,
      "lon": 2.3498777,
      "osm_id": 11506470997,
      "osm_type": "node",
      "address": null,
      "road_geometry": null
    },
    {
      "name": "Japanos",
      "category": [
        "amenity.restaurant"
      ],
      "lat": 48.8633838,
      "lon": 2.3505485,
      "osm_id": 11522760023,
      "osm_type": "node",
      "address": "Rue \u00c9tienne Marcel",
      "road_geometry": null
    },
    {
      "name": "Donna",
      "category": [
        "amenity.restaurant"
      ],
      "lat": 48.8621817,
      "lon": 2.3518316,
      "osm_id": 11522778048,
      "osm_type": "node",
      "address": null,
      "road_geometry": null
    },
    {
      "name": "Hairy TaJ",
      "category": [
        "shop.hairdresser"
      ],
      "lat": 48.8631266,
      "lon": 2.3515084,
      "osm_id": 11522796966,
      "osm_type": "node",
      "address": null,
      "road_geometry": null
    },
    {
      "name": "L\u2019Achta",
      "category": [
        "amenity.ice_cream"
      ],
      "lat": 48.8624491,
      "lon": 2.3519842,
      "osm_id": 11522807539,
      "osm_type": "node",
      "address": "Rue Saint-Martin",
      "road_geometry": null
    },
    {
      "name": "So fresh",
      "category": [
        "amenity.restaurant"
      ],
      "lat": 48.8631569,
      "lon": 2.3514355,
      "osm_id": 11522827482,
      "osm_type": "node",
      "address": "Rue aux Ours",
      "road_geometry": null
    },
    {
      "name": "Dermolift x 8Beauty",
      "category": [
        "shop.beauty"
      ],
      "lat": 48.8634109,
      "lon": 2.3504467,
      "osm_id": 11522830373,
      "osm_type": "node",
      "address": "Rue \u00c9tienne Marcel",
      "road_geometry": null
    },
    {
      "name": "Declercq",
      "category": [
        "shop.fabric"
      ],
      "lat": 48.8636301,
      "lon": 2.3495679,
      "osm_id": 11522830374,
      "osm_type": "node",
      "address": "Rue \u00c9tienne Marcel",
      "road_geometry": null
    },
    {
      "name": "Bloom",
      "category": [
        "shop.massage"
      ],
      "lat": 48.8636195,
      "lon": 2.3505349,
      "osm_id": 11556739764,
      "osm_type": "node",
      "address": null,
      "road_geometry": null
    },
    {
      "name": "Barreshape",
      "category": [
        "leisure.dance"
      ],
      "lat": 48.8626589,
      "lon": 2.351414,
      "osm_id": 11556766513,
      "osm_type": "node",
      "address": null,
      "road_geometry": null
    },
    {
      "name": "Sokha Royal Spa",
      "category": [
        "leisure.sauna"
      ],
      "lat": 48.8620877,
      "lon": 2.3511129,
      "osm_id": 11556771762,
      "osm_type": "node",
      "address": "Rue Quincampoix",
      "road_geometry": null
    },
    {
      "name": "Tropico homme",
      "category": [
        "shop.shoes"
      ],
      "lat": 48.8623877,
      "lon": 2.348766,
      "osm_id": 11556771763,
      "osm_type": "node",
      "address": "rue Rambuteau",
      "road_geometry": null
    },
    {
      "name": "Misaki iinuma - \u306e\u30b3\u30d4",
      "category": [
        "shop.stationery"
      ],
      "lat": 48.8623687,
      "lon": 2.3512535,
      "osm_id": 11556773614,
      "osm_type": "node",
      "address": "Rue Quincampoix",
      "road_geometry": null
    },
    {
      "name": "Galerie Peyroulet",
      "category": [
        "tourism.gallery"
      ],
      "lat": 48.8622898,
      "lon": 2.3512278,
      "osm_id": 11556774025,
      "osm_type": "node",
      "address": null,
      "road_geometry": null
    },
    {
      "name": "Chromo-chroma",
      "category": [
        "tourism.gallery"
      ],
      "lat": 48.862934,
      "lon": 2.351526,
      "osm_id": 11556779168,
      "osm_type": "node",
      "address": null,
      "road_geometry": null
    },
    {
      "name": "Galerie Koralewski",
      "category": [
        "tourism.gallery"
      ],
      "lat": 48.8628231,
      "lon": 2.3514539,
      "osm_id": 11556782145,
      "osm_type": "node",
      "address": null,
      "road_geometry": null
    },
    {
      "name": "Mof\u00e9",
      "category": [
        "amenity.restaurant"
      ],
      "lat": 48.8630339,
      "lon": 2.3514524,
      "osm_id": 11556784962,
      "osm_type": "node",
      "address": null,
      "road_geometry": null
    },
    {
      "name": "Sulvam",
      "category": [
        "shop.clothes"
      ],
      "lat": 48.8620262,
      "lon": 2.3510755,
      "osm_id": 11556788203,
      "osm_type": "node",
      "address": null,
      "road_geometry": null
    },
    {
      "name": "Quickstrike",
      "category": [
        "shop.shoes"
      ],
      "lat": 48.8625813,
      "lon": 2.3513442,
      "osm_id": 11556792782,
      "osm_type": "node",
      "address": null,
      "road_geometry": null
    },
    {
      "name": "Club We",
      "category": [
        "amenity.stripclub"
      ],
      "lat": 48.8624126,
      "lon": 2.3511055,
      "osm_id": 11556795679,
      "osm_type": "node",
      "address": "Rue Quincampoix",
      "road_geometry": null
    },
    {
      "name": "Aroma cbd shop",
      "category": [
        "shop.cannabis"
      ],
      "lat": 48.8620559,
      "lon": 2.3509385,
      "osm_id": 11556799906,
      "osm_type": "node",
      "address": "Rue Quincampoix",
      "road_geometry": null
    },
    {
      "name": "Galerie Peuroulet Studio",
      "category": [
        "tourism.gallery"
      ],
      "lat": 48.8621808,
      "lon": 2.3509915,
      "osm_id": 11556802444,
      "osm_type": "node",
      "address": null,
      "road_geometry": null
    },
    {
      "name": "Galerie dohyang lee",
      "category": [
        "tourism.gallery"
      ],
      "lat": 48.8621434,
      "lon": 2.3509726,
      "osm_id": 11556802739,
      "osm_type": "node",
      "address": null,
      "road_geometry": null
    },
    {
      "name": "La M\u00e9dina",
      "category": [
        "amenity.bar"
      ],
      "lat": 48.8619864,
      "lon": 2.3510511,
      "osm_id": 11556814597,
      "osm_type": "node",
      "address": "Rue Quincampoix",
      "road_geometry": null
    },
    {
      "name": "Salon massage",
      "category": [
        "shop.massage"
      ],
      "lat": 48.862773,
      "lon": 2.3489815,
      "osm_id": 11599138466,
      "osm_type": "node",
      "address": "Rue de la Grande Truanderie",
      "road_geometry": null
    },
    {
      "name": "Opium",
      "category": [
        "shop.shoes"
      ],
      "lat": 48.8634487,
      "lon": 2.3488238,
      "osm_id": 11611798785,
      "osm_type": "node",
      "address": "Rue Pierre Lescot",
      "road_geometry": null
    },
    {
      "name": "PicMe",
      "category": [
        "shop.photo"
      ],
      "lat": 48.863208,
      "lon": 2.3490821,
      "osm_id": 11708261543,
      "osm_type": "node",
      "address": "Rue du Cygne",
      "road_geometry": null
    },
    {
      "name": "Prestige Barber",
      "category": [
        "shop.hairdresser"
      ],
      "lat": 48.8619851,
      "lon": 2.3489423,
      "osm_id": 11710832621,
      "osm_type": "node",
      "address": "Rue des Pr\u00eacheurs",
      "road_geometry": null
    },
    {
      "name": "Huqqa",
      "category": [
        "amenity.bar"
      ],
      "lat": 48.862856,
      "lon": 2.3490445,
      "osm_id": 11710853231,
      "osm_type": "node",
      "address": "Rue de la Grande Truanderie",
      "road_geometry": null
    },
    {
      "name": "Ode",
      "category": [
        "amenity.cafe"
      ],
      "lat": 48.8632084,
      "lon": 2.349535,
      "osm_id": 11710859649,
      "osm_type": "node",
      "address": null,
      "road_geometry": null
    },
    {
      "name": "Boy Loove Girl",
      "category": [
        "shop.clothes"
      ],
      "lat": 48.8632517,
      "lon": 2.3493538,
      "osm_id": 11710859650,
      "osm_type": "node",
      "address": "Rue du Cygne",
      "road_geometry": null
    },
    {
      "name": "L'Atelier",
      "category": [
        "amenity.dancing_school"
      ],
      "lat": 48.8633055,
      "lon": 2.3491225,
      "osm_id": 11710870097,
      "osm_type": "node",
      "address": "Rue du Cygne",
      "road_geometry": null
    },
    {
      "name": "Bentouya",
      "category": [
        "amenity.restaurant"
      ],
      "lat": 48.8620425,
      "lon": 2.3487229,
      "osm_id": 11710870362,
      "osm_type": "node",
      "address": "Rue des Pr\u00eacheurs",
      "road_geometry": null
    },
    {
      "name": "Condorse",
      "category": [
        "shop.clothes"
      ],
      "lat": 48.8618812,
      "lon": 2.3490277,
      "osm_id": 11710873485,
      "osm_type": "node",
      "address": "Rue des Pr\u00eacheurs",
      "road_geometry": null
    },
    {
      "name": "Son et Image Vintage store",
      "category": [
        "shop.fashion_accessories"
      ],
      "lat": 48.8620543,
      "lon": 2.3488102,
      "osm_id": 11710876812,
      "osm_type": "node",
      "address": null,
      "road_geometry": null
    },
    {
      "name": "Afoe",
      "category": [
        "amenity.restaurant"
      ],
      "lat": 48.8630785,
      "lon": 2.3517075,
      "osm_id": 12039317308,
      "osm_type": "node",
      "address": null,
      "road_geometry": null
    },
    {
      "name": "Blender",
      "category": [
        "amenity.fast_food"
      ],
      "lat": 48.8623322,
      "lon": 2.3490168,
      "osm_id": 12068729701,
      "osm_type": "node",
      "address": "rue Rambuteau",
      "road_geometry": null
    },
    {
      "name": "Maison de la Poesie",
      "category": [
        "amenity.community_centre"
      ],
      "lat": 48.8624679,
      "lon": 2.3513297,
      "osm_id": 12299849571,
      "osm_type": "node",
      "address": null,
      "road_geometry": null
    },
    {
      "name": "Le Cent Un",
      "category": [
        "amenity.social_centre"
      ],
      "lat": 48.8625363,
      "lon": 2.3496215,
      "osm_id": 12299865657,
      "osm_type": "node",
      "address": null,
      "road_geometry": null
    },
    {
      "name": "110, Les Halles",
      "category": [
        "amenity.social_centre"
      ],
      "lat": 48.8638545,
      "lon": 2.3501899,
      "osm_id": 12299879333,
      "osm_type": "node",
      "address": null,
      "road_geometry": null
    },
    {
      "name": "La clairiere",
      "category": [
        "amenity.social_centre"
      ],
      "lat": 48.862006,
      "lon": 2.3488745,
      "osm_id": 12304931629,
      "osm_type": "node",
      "address": null,
      "road_geometry": null
    },
    {
      "name": "Le Mousk",
      "category": [
        "amenity.bar"
      ],
      "lat": 48.8622545,
      "lon": 2.3521077,
      "osm_id": 12459495701,
      "osm_type": "node",
      "address": "Rue Saint-Martin",
      "road_geometry": null
    },
    {
      "name": "Mira d\u2019Or",
      "category": [
        "amenity.restaurant"
      ],
      "lat": 48.8622673,
      "lon": 2.3493161,
      "osm_id": 12728820987,
      "osm_type": "node",
      "address": "Rue Saint-Denis",
      "road_geometry": null
    },
    {
      "name": "Gigi Gourmet",
      "category": [
        "amenity.fast_food"
      ],
      "lat": 48.862061,
      "lon": 2.3492113,
      "osm_id": 12875672561,
      "osm_type": "node",
      "address": null,
      "road_geometry": null
    },
    {
      "name": "Crispy Chicken",
      "category": [
        "amenity.fast_food"
      ],
      "lat": 48.8628339,
      "lon": 2.3491356,
      "osm_id": 12912061759,
      "osm_type": "node",
      "address": "Rue de la Grande Truanderie",
      "road_geometry": null
    },
    {
      "name": "Brun",
      "category": [
        "amenity.dentist"
      ],
      "lat": 48.8633764,
      "lon": 2.3490317,
      "osm_id": 12965757654,
      "osm_type": "node",
      "address": null,
      "road_geometry": null
    },
    {
      "name": "Cha\u00ef Bubble",
      "category": [
        "amenity.cafe"
      ],
      "lat": 48.8618771,
      "lon": 2.3498387,
      "osm_id": 13051570171,
      "osm_type": "node",
      "address": null,
      "road_geometry": null
    },
    {
      "name": "Lyca Mobile",
      "category": [
        "shop.mobile_phone"
      ],
      "lat": 48.8630829,
      "lon": 2.3516894,
      "osm_id": 13055714987,
      "osm_type": "node",
      "address": "Rue aux Ours",
      "road_geometry": null
    },
    {
      "name": "One Corner",
      "category": [
        "amenity.cafe"
      ],
      "lat": 48.8623749,
      "lon": 2.3514071,
      "osm_id": 13200143130,
      "osm_type": "node",
      "address": null,
      "road_geometry": null
    },
    {
      "name": "PA_1553",
      "category": [
        "tourism.artwork"
      ],
      "lat": 48.863147,
      "lon": 2.3515415,
      "osm_id": 13376267103,
      "osm_type": "node",
      "address": null,
      "road_geometry": null
    }
  ]
}