{
  "image": "dataset/images/844.png",
  "center_lat": 40.81013513513514,
  "center_lon": -73.94197467901488,
  "bbox": [
    -73.94346250775808,
    40.80900900900902,
    -73.94048685027167,
    40.81126126126127
  ],
  "unique_categories": [
    "amenity.bicycle_rental",
    "highway.bus_stop",
    "amenity.cafe",
    "amenity.place_of_worship",
    "shop.supermarket",
    "tourism.museum"
  ],
  "poi_count_per_category": {
    "amenity.bicycle_rental": 1,
    "highway.bus_stop": 1,
    "amenity.cafe": 2,
    "amenity.place_of_worship": 1,
    "shop.supermarket": 1,
    "tourism.museum": 1
  },
  "poi_count": 7,
  "pois": [
    {
      "name": "Saint Ambrose Episcopal Church",
      "category": [
        "amenity.place_of_worship"
      ],
      "lat": 40.8101817,
      "lon": -73.9406493,
      "osm_id": 357621096,
      "osm_type": "node",
      "address": null,
      "road_geometry": null
    },
    {
      "name": "Lenox Coffee",
      "category": [
        "amenity.cafe"
      ],
      "lat": 40.810011,
      "lon": -73.9431823,
      "osm_id": 419367529,
      "osm_type": "node",
      "address": null,
      "road_geometry": null
    },
    {
      "name": "Astor Row Cafe",
      "category": [
        "amenity.cafe"
      ],
      "lat": 40.8109307,
      "lon": -73.9428375,
      "osm_id": 1967406009,
      "osm_type": "node",
      "address": "Lenox Avenue",
      "road_geometry": null
    },
    {
      "name": "Malcolm X Boulevard & West 129th Street",
      "category": [
        "highway.bus_stop"
      ],
      "lat": 40.8104757,
      "lon": -73.9433017,
      "osm_id": 5235585005,
      "osm_type": "node",
      "address": null,
      "road_geometry": null
    },
    {
      "name": "National Jazz Museum in Harlem",
      "category": [
        "tourism.museum"
      ],
      "lat": 40.8099499,
      "lon": -73.9430899,
      "osm_id": 8270992264,
      "osm_type": "node",
      "address": "West 129th Street",
      "road_geometry": null
    },
    {
      "name": "Pioneer Supermarket",
      "category": [
        "shop.supermarket"
      ],
      "lat": 40.8104444,
      "lon": -73.9431569,
      "osm_id": 11940452884,
      "osm_type": "node",
      "address": "Malcolm X Boulevard",
      "road_geometry": null
    },
    {
      "name": "Citi Bike - Lenox Ave & W 130 St",
      "category": [
        "amenity.bicycle_rental"
      ],
      "lat": 40.8108154,
      "lon": -73.9430805,
      "osm_id": 13244008718,
      "osm_type": "node",
      "address": null,
      "road_geometry": null
    }
  ]
}