{
  "image": "dataset/images/86.png",
  "center_lat": 48.86513513513514,
  "center_lon": 2.3504064887489813,
  "bbox": [
    2.348694656665761,
    48.86400900900902,
    2.352118320832201,
    48.86626126126127
  ],
  "unique_categories": [
    "shop.books",
    "shop.musical_instrument",
    "amenity.restaurant",
    "amenity.karaoke_box",
    "shop.cannabis",
    "amenity.cafe",
    "railway.stop",
    "shop.tobacco",
    "shop.toys",
    "shop.lighting",
    "shop.kitchen",
    "shop.bicycle",
    "tourism.information",
    "shop.supermarket",
    "shop.hairdresser",
    "shop.optician",
    "shop.florist",
    "amenity.bicycle_rental",
    "shop.convenience",
    "shop.vacant",
    "amenity.college",
    "shop.sports",
    "shop.interior_decoration",
    "shop.copyshop",
    "shop.travel_agency",
    "shop.alcohol",
    "tourism.gallery",
    "amenity.fast_food",
    "shop.frozen_food",
    "tourism.hotel",
    "shop.clothes",
    "shop.erotic",
    "leisure.fitness_centre",
    "shop.massage",
    "amenity.parking",
    "shop.wine",
    "amenity.doctors",
    "amenity.luggage_locker",
    "leisure.tanning_salon",
    "amenity.nightclub",
    "shop.fashion_accessories",
    "shop.furniture",
    "shop.beauty",
    "shop.watches",
    "shop.second_hand",
    "shop.sewing",
    "amenity.pharmacy",
    "shop.cosmetics",
    "shop.bakery",
    "shop.hearing_aids",
    "shop.pastry",
    "shop.fabric",
    "shop.tattoo",
    "amenity.bar",
    "amenity.bank",
    "shop.jewelry"
  ],
  "poi_count_per_category": {
    "shop.books": 2,
    "shop.musical_instrument": 1,
    "amenity.restaurant": 39,
    "amenity.karaoke_box": 1,
    "shop.cannabis": 1,
    "amenity.cafe": 12,
    "railway.stop": 1,
    "shop.tobacco": 1,
    "shop.toys": 1,
    "shop.lighting": 1,
    "shop.kitchen": 2,
    "shop.bicycle": 2,
    "tourism.information": 4,
    "shop.supermarket": 2,
    "shop.hairdresser": 7,
    "shop.optician": 4,
    "shop.florist": 2,
    "amenity.bicycle_rental": 3,
    "shop.convenience": 3,
    "shop.vacant": 1,
    "amenity.college": 1,
    "shop.sports": 1,
    "shop.interior_decoration": 1,
    "shop.copyshop": 1,
    "shop.travel_agency": 1,
    "shop.alcohol": 3,
    "tourism.gallery": 2,
    "amenity.fast_food": 14,
    "shop.frozen_food": 1,
    "tourism.hotel": 1,
    "shop.clothes": 17,
    "shop.erotic": 3,
    "leisure.fitness_centre": 2,
    "shop.massage": 3,
    "amenity.parking": 1,
    "shop.wine": 1,
    "amenity.doctors": 3,
    "amenity.luggage_locker": 1,
    "leisure.tanning_salon": 1,
    "amenity.nightclub": 1,
    "shop.fashion_accessories": 3,
    "shop.furniture": 4,
    "shop.beauty": 7,
    "shop.watches": 1,
    "shop.second_hand": 1,
    "shop.sewing": 1,
    "amenity.pharmacy": 1,
    "shop.cosmetics": 2,
    "shop.bakery": 2,
    "shop.hearing_aids": 1,
    "shop.pastry": 1,
    "shop.fabric": 6,
    "shop.tattoo": 1,
    "amenity.bar": 15,
    "amenity.bank": 1,
    "shop.jewelry": 7
  },
  "poi_count": 201,
  "pois": [
    {
      "name": "Tiquetonne H\u00f4tel",
      "category": [
        "tourism.hotel"
      ],
      "lat": 48.8644952,
      "lon": 2.3495828,
      "osm_id": 253986765,
      "osm_type": "node",
      "address": null,
      "road_geometry": null
    },
    {
      "name": "La Cordonnerie",
      "category": [
        "amenity.bar"
      ],
      "lat": 48.8652231,
      "lon": 2.3505935,
      "osm_id": 282468472,
      "osm_type": "node",
      "address": "Rue Greneta",
      "road_geometry": null
    },
    {
      "name": "Monoprix",
      "category": [
        "shop.supermarket"
      ],
      "lat": 48.8655996,
      "lon": 2.3519365,
      "osm_id": 283347984,
      "osm_type": "node",
      "address": "Boulevard de S\u00e9bastopol",
      "road_geometry": null
    },
    {
      "name": "Les Cariatides",
      "category": [
        "amenity.bar"
      ],
      "lat": 48.8644935,
      "lon": 2.3509011,
      "osm_id": 432147330,
      "osm_type": "node",
      "address": "Rue de Palestro",
      "road_geometry": null
    },
    {
      "name": "Avek Bar",
      "category": [
        "amenity.bar"
      ],
      "lat": 48.8659305,
      "lon": 2.3488929,
      "osm_id": 691436463,
      "osm_type": "node",
      "address": "Rue Saint-Sauveur",
      "road_geometry": null
    },
    {
      "name": "Duke Store",
      "category": [
        "shop.clothes"
      ],
      "lat": 48.8646872,
      "lon": 2.3499029,
      "osm_id": 691614074,
      "osm_type": "node",
      "address": null,
      "road_geometry": null
    },
    {
      "name": "Khara Tuki",
      "category": [
        "shop.jewelry"
      ],
      "lat": 48.8646929,
      "lon": 2.3500426,
      "osm_id": 691614099,
      "osm_type": "node",
      "address": "Passage du Grand-Cerf",
      "road_geometry": null
    },
    {
      "name": "BNP Paribas",
      "category": [
        "amenity.bank"
      ],
      "lat": 48.8645295,
      "lon": 2.3512403,
      "osm_id": 691720980,
      "osm_type": "node",
      "address": null,
      "road_geometry": null
    },
    {
      "name": "Kuccini",
      "category": [
        "amenity.restaurant"
      ],
      "lat": 48.8652615,
      "lon": 2.3503094,
      "osm_id": 691720992,
      "osm_type": "node",
      "address": "Rue Saint-Denis",
      "road_geometry": null
    },
    {
      "name": "La Boule Ma\u00eetre Kebabier",
      "category": [
        "amenity.fast_food"
      ],
      "lat": 48.8644934,
      "lon": 2.3502995,
      "osm_id": 691721089,
      "osm_type": "node",
      "address": "Rue Saint-Denis",
      "road_geometry": null
    },
    {
      "name": "Twinkie Breakfast & Lunch",
      "category": [
        "amenity.cafe"
      ],
      "lat": 48.8653296,
      "lon": 2.3503297,
      "osm_id": 691721320,
      "osm_type": "node",
      "address": "Rue Saint-Denis",
      "road_geometry": null
    },
    {
      "name": "Pharmacie Mutualiste",
      "category": [
        "amenity.pharmacy"
      ],
      "lat": 48.8644149,
      "lon": 2.3508382,
      "osm_id": 691721746,
      "osm_type": "node",
      "address": "Rue de Turbigo",
      "road_geometry": null
    },
    {
      "name": "Shabour",
      "category": [
        "amenity.restaurant"
      ],
      "lat": 48.8659208,
      "lon": 2.3490735,
      "osm_id": 691721840,
      "osm_type": "node",
      "address": "Rue Saint-Sauveur",
      "road_geometry": null
    },
    {
      "name": "Matsu Sushi",
      "category": [
        "amenity.restaurant"
      ],
      "lat": 48.864016,
      "lon": 2.3502461,
      "osm_id": 702537440,
      "osm_type": "node",
      "address": "Rue de Turbigo",
      "road_geometry": null
    },
    {
      "name": "Le Grand Cerf",
      "category": [
        "amenity.cafe"
      ],
      "lat": 48.8641724,
      "lon": 2.3510652,
      "osm_id": 702539703,
      "osm_type": "node",
      "address": "Rue de Turbigo",
      "road_geometry": null
    },
    {
      "name": "Le Ph\u00e9nix",
      "category": [
        "shop.books"
      ],
      "lat": 48.8647074,
      "lon": 2.3519394,
      "osm_id": 1430900295,
      "osm_type": "node",
      "address": null,
      "road_geometry": null
    },
    {
      "name": "Parking Turbigo - Saint-Denis",
      "category": [
        "amenity.parking"
      ],
      "lat": 48.8647821,
      "lon": 2.3501454,
      "osm_id": 1645046930,
      "osm_type": "node",
      "address": null,
      "road_geometry": null
    },
    {
      "name": "Sex shop",
      "category": [
        "shop.erotic"
      ],
      "lat": 48.8645268,
      "lon": 2.3503092,
      "osm_id": 2634121042,
      "osm_type": "node",
      "address": "Rue Saint-Denis",
      "road_geometry": null
    },
    {
      "name": "Bonhomme",
      "category": [
        "shop.hairdresser"
      ],
      "lat": 48.8646815,
      "lon": 2.3503255,
      "osm_id": 2634121043,
      "osm_type": "node",
      "address": "Rue Saint-Denis",
      "road_geometry": null
    },
    {
      "name": "V\u00e9locivette",
      "category": [
        "amenity.cafe"
      ],
      "lat": 48.864156,
      "lon": 2.3508435,
      "osm_id": 2712897712,
      "osm_type": "node",
      "address": "Rue de Turbigo",
      "road_geometry": null
    },
    {
      "name": "L'Impact",
      "category": [
        "amenity.nightclub"
      ],
      "lat": 48.8652653,
      "lon": 2.3511582,
      "osm_id": 3429417881,
      "osm_type": "node",
      "address": "Rue Greneta",
      "road_geometry": null
    },
    {
      "name": "Sushi Wasabi",
      "category": [
        "amenity.restaurant"
      ],
      "lat": 48.8655236,
      "lon": 2.3518622,
      "osm_id": 3430529393,
      "osm_type": "node",
      "address": "Boulevard de S\u00e9bastopol",
      "road_geometry": null
    },
    {
      "name": "Kroran",
      "category": [
        "amenity.restaurant"
      ],
      "lat": 48.8654654,
      "lon": 2.351834,
      "osm_id": 3430529493,
      "osm_type": "node",
      "address": "Boulevard de S\u00e9bastopol",
      "road_geometry": null
    },
    {
      "name": "Picard \u00c9tienne Marcel",
      "category": [
        "shop.frozen_food"
      ],
      "lat": 48.8640475,
      "lon": 2.3488475,
      "osm_id": 3462148793,
      "osm_type": "node",
      "address": "Rue \u00c9tienne Marcel",
      "road_geometry": null
    },
    {
      "name": "Cute",
      "category": [
        "shop.hairdresser"
      ],
      "lat": 48.8644115,
      "lon": 2.3500069,
      "osm_id": 3470014994,
      "osm_type": "node",
      "address": "Rue Saint-Denis",
      "road_geometry": null
    },
    {
      "name": "Le Royal",
      "category": [
        "amenity.bar"
      ],
      "lat": 48.8646057,
      "lon": 2.3500641,
      "osm_id": 3470039793,
      "osm_type": "node",
      "address": "Rue Saint-Denis",
      "road_geometry": null
    },
    {
      "name": "Taqueria",
      "category": [
        "amenity.fast_food"
      ],
      "lat": 48.8645206,
      "lon": 2.3500446,
      "osm_id": 3470039893,
      "osm_type": "node",
      "address": "Rue Saint-Denis",
      "road_geometry": null
    },
    {
      "name": "Episode",
      "category": [
        "shop.clothes"
      ],
      "lat": 48.8645577,
      "lon": 2.3492598,
      "osm_id": 3547454343,
      "osm_type": "node",
      "address": null,
      "road_geometry": null
    },
    {
      "name": "Bo&Mie",
      "category": [
        "shop.bakery"
      ],
      "lat": 48.8640561,
      "lon": 2.3504464,
      "osm_id": 3564025594,
      "osm_type": "node",
      "address": "Rue de Turbigo",
      "road_geometry": null
    },
    {
      "name": "Big Black Cook",
      "category": [
        "amenity.restaurant"
      ],
      "lat": 48.86433,
      "lon": 2.3497587,
      "osm_id": 3575298897,
      "osm_type": "node",
      "address": "Rue Tiquetonne",
      "road_geometry": null
    },
    {
      "name": "Point soleil",
      "category": [
        "leisure.tanning_salon",
        "shop.beauty"
      ],
      "lat": 48.8643027,
      "lon": 2.3517193,
      "osm_id": 3597241702,
      "osm_type": "node",
      "address": "Boulevard de S\u00e9bastopol",
      "road_geometry": null
    },
    {
      "name": "The Love shop",
      "category": [
        "shop.erotic"
      ],
      "lat": 48.8653618,
      "lon": 2.3505822,
      "osm_id": 3865667466,
      "osm_type": "node",
      "address": "Rue Saint-Denis",
      "road_geometry": null
    },
    {
      "name": "Aux fruits d'or",
      "category": [
        "shop.convenience"
      ],
      "lat": 48.8649879,
      "lon": 2.3504269,
      "osm_id": 3865928394,
      "osm_type": "node",
      "address": "Rue Saint-Denis",
      "road_geometry": null
    },
    {
      "name": "La Cantine des Pieds Nickel\u00e9s",
      "category": [
        "amenity.bar"
      ],
      "lat": 48.8646299,
      "lon": 2.3503197,
      "osm_id": 3889206160,
      "osm_type": "node",
      "address": "Rue Saint-Denis",
      "road_geometry": null
    },
    {
      "name": "Ylinne",
      "category": [
        "shop.beauty"
      ],
      "lat": 48.8654402,
      "lon": 2.3506176,
      "osm_id": 3889206162,
      "osm_type": "node",
      "address": "Rue Saint-Denis",
      "road_geometry": null
    },
    {
      "name": "Freddy's BBQ",
      "category": [
        "shop.vacant"
      ],
      "lat": 48.8652116,
      "lon": 2.3502483,
      "osm_id": 3889206261,
      "osm_type": "node",
      "address": "Rue Saint-Denis",
      "road_geometry": null
    },
    {
      "name": "Mini Market",
      "category": [
        "shop.convenience"
      ],
      "lat": 48.8653832,
      "lon": 2.3503384,
      "osm_id": 3889206262,
      "osm_type": "node",
      "address": "Rue Saint-Denis",
      "road_geometry": null
    },
    {
      "name": "Kik\u00e9",
      "category": [
        "amenity.restaurant"
      ],
      "lat": 48.8649415,
      "lon": 2.35038,
      "osm_id": 3889206360,
      "osm_type": "node",
      "address": "Rue Saint-Denis",
      "road_geometry": null
    },
    {
      "name": "Les Topains",
      "category": [
        "amenity.bar"
      ],
      "lat": 48.8648847,
      "lon": 2.350349,
      "osm_id": 3889220057,
      "osm_type": "node",
      "address": "Rue Saint-Denis",
      "road_geometry": null
    },
    {
      "name": "Mala Bavo",
      "category": [
        "amenity.bar"
      ],
      "lat": 48.86543,
      "lon": 2.3503684,
      "osm_id": 3889222457,
      "osm_type": "node",
      "address": "Rue Saint-Denis",
      "road_geometry": null
    },
    {
      "name": "La Goberie",
      "category": [
        "shop.wine"
      ],
      "lat": 48.8655394,
      "lon": 2.3504105,
      "osm_id": 3889241158,
      "osm_type": "node",
      "address": "Rue Saint-Denis",
      "road_geometry": null
    },
    {
      "name": "Lok\u00e9",
      "category": [
        "amenity.fast_food"
      ],
      "lat": 48.8655897,
      "lon": 2.3504299,
      "osm_id": 3889241159,
      "osm_type": "node",
      "address": "Rue Saint-Denis",
      "road_geometry": null
    },
    {
      "name": "The French Bastards",
      "category": [
        "shop.bakery"
      ],
      "lat": 48.8656624,
      "lon": 2.3504627,
      "osm_id": 3889241160,
      "osm_type": "node",
      "address": "Rue Saint-Denis",
      "road_geometry": null
    },
    {
      "name": "2plumes",
      "category": [
        "shop.jewelry"
      ],
      "lat": 48.8661037,
      "lon": 2.3507214,
      "osm_id": 3889241161,
      "osm_type": "node",
      "address": "Rue Saint-Denis",
      "road_geometry": null
    },
    {
      "name": "Caf\u00e9 Madam",
      "category": [
        "amenity.cafe"
      ],
      "lat": 48.8655882,
      "lon": 2.350679,
      "osm_id": 3889241357,
      "osm_type": "node",
      "address": "Rue Saint-Denis",
      "road_geometry": null
    },
    {
      "name": "French and the city",
      "category": [
        "shop.beauty"
      ],
      "lat": 48.8658435,
      "lon": 2.3505693,
      "osm_id": 3889241358,
      "osm_type": "node",
      "address": "Rue Saint-Denis",
      "road_geometry": null
    },
    {
      "name": "Le Traknar",
      "category": [
        "amenity.bar"
      ],
      "lat": 48.8661394,
      "lon": 2.3507468,
      "osm_id": 3889241359,
      "osm_type": "node",
      "address": "Rue Saint-Denis",
      "road_geometry": null
    },
    {
      "name": "Totem",
      "category": [
        "shop.tobacco"
      ],
      "lat": 48.8656257,
      "lon": 2.350699,
      "osm_id": 3889241457,
      "osm_type": "node",
      "address": "Rue Saint-Denis",
      "road_geometry": null
    },
    {
      "name": "Linda Beauty Bar",
      "category": [
        "shop.beauty"
      ],
      "lat": 48.865806,
      "lon": 2.3505474,
      "osm_id": 3889241458,
      "osm_type": "node",
      "address": "Rue Saint-Denis",
      "road_geometry": null
    },
    {
      "name": "Krok",
      "category": [
        "amenity.fast_food"
      ],
      "lat": 48.8659783,
      "lon": 2.3506482,
      "osm_id": 3889241460,
      "osm_type": "node",
      "address": "Rue Saint-Denis",
      "road_geometry": null
    },
    {
      "name": "Le Fridge",
      "category": [
        "amenity.restaurant"
      ],
      "lat": 48.8659359,
      "lon": 2.3508645,
      "osm_id": 3889241461,
      "osm_type": "node",
      "address": "Rue Saint-Denis",
      "road_geometry": null
    },
    {
      "name": "Moemachi",
      "category": [
        "amenity.restaurant"
      ],
      "lat": 48.8659789,
      "lon": 2.3508912,
      "osm_id": 3889241462,
      "osm_type": "node",
      "address": "Rue Saint-Denis",
      "road_geometry": null
    },
    {
      "name": "Pag",
      "category": [
        "amenity.cafe"
      ],
      "lat": 48.8660752,
      "lon": 2.3507021,
      "osm_id": 3889241463,
      "osm_type": "node",
      "address": "Rue Saint-Denis",
      "road_geometry": null
    },
    {
      "name": "Le Blainville",
      "category": [
        "amenity.restaurant"
      ],
      "lat": 48.8657593,
      "lon": 2.3505128,
      "osm_id": 3889241557,
      "osm_type": "node",
      "address": "Rue Saint-Denis",
      "road_geometry": null
    },
    {
      "name": "Fondue 9 \u8700\u4e5d\u9999",
      "category": [
        "amenity.restaurant"
      ],
      "lat": 48.866086,
      "lon": 2.35096,
      "osm_id": 3889241558,
      "osm_type": "node",
      "address": "Rue Saint-Denis",
      "road_geometry": null
    },
    {
      "name": "Boutonnerie Saint-Denis",
      "category": [
        "shop.sewing"
      ],
      "lat": 48.866204,
      "lon": 2.3507947,
      "osm_id": 3889241560,
      "osm_type": "node",
      "address": "Rue Saint-Denis",
      "road_geometry": null
    },
    {
      "name": "La Maison du sak\u00e9",
      "category": [
        "shop.alcohol"
      ],
      "lat": 48.8644632,
      "lon": 2.3492411,
      "osm_id": 4237573491,
      "osm_type": "node",
      "address": "Rue Tiquetonne",
      "road_geometry": null
    },
    {
      "name": "Royalcheese",
      "category": [
        "shop.clothes"
      ],
      "lat": 48.8646695,
      "lon": 2.3487051,
      "osm_id": 4415688297,
      "osm_type": "node",
      "address": "Rue Tiquetonne",
      "road_geometry": null
    },
    {
      "name": "Rice & Fish",
      "category": [
        "amenity.restaurant"
      ],
      "lat": 48.865272,
      "lon": 2.3513045,
      "osm_id": 4438459259,
      "osm_type": "node",
      "address": "Rue Greneta",
      "road_geometry": null
    },
    {
      "name": "Perpette",
      "category": [
        "amenity.bar"
      ],
      "lat": 48.8655742,
      "lon": 2.3487477,
      "osm_id": 4592833597,
      "osm_type": "node",
      "address": "Rue Dussoubs",
      "road_geometry": null
    },
    {
      "name": "Plov & Samsa",
      "category": [
        "amenity.restaurant"
      ],
      "lat": 48.8646571,
      "lon": 2.3487606,
      "osm_id": 4840598121,
      "osm_type": "node",
      "address": "Rue Tiquetonne",
      "road_geometry": null
    },
    {
      "name": "Le Maze",
      "category": [
        "amenity.restaurant"
      ],
      "lat": 48.8645336,
      "lon": 2.3489102,
      "osm_id": 5193098004,
      "osm_type": "node",
      "address": null,
      "road_geometry": null
    },
    {
      "name": "Les Cariatides GAG",
      "category": [
        "amenity.restaurant"
      ],
      "lat": 48.8645408,
      "lon": 2.3509282,
      "osm_id": 5323666822,
      "osm_type": "node",
      "address": "Rue de Palestro",
      "road_geometry": null
    },
    {
      "name": "La Prohibition",
      "category": [
        "amenity.bar",
        "shop.alcohol"
      ],
      "lat": 48.86413,
      "lon": 2.3517286,
      "osm_id": 5381388475,
      "osm_type": "node",
      "address": "Rue du Bourg l'Abb\u00e9",
      "road_geometry": null
    },
    {
      "name": "Convertible Center",
      "category": [
        "shop.furniture"
      ],
      "lat": 48.8641798,
      "lon": 2.3516597,
      "osm_id": 5381388476,
      "osm_type": "node",
      "address": "Boulevard de S\u00e9bastopol",
      "road_geometry": null
    },
    {
      "name": "Dimdan Maidan",
      "category": [
        "amenity.restaurant"
      ],
      "lat": 48.8641728,
      "lon": 2.3498663,
      "osm_id": 5381388477,
      "osm_type": "node",
      "address": "Rue de Turbigo",
      "road_geometry": null
    },
    {
      "name": "Xing Fu Tang",
      "category": [
        "amenity.cafe"
      ],
      "lat": 48.8640191,
      "lon": 2.3489466,
      "osm_id": 5381388479,
      "osm_type": "node",
      "address": null,
      "road_geometry": null
    },
    {
      "name": "Dalmata",
      "category": [
        "amenity.restaurant"
      ],
      "lat": 48.8645378,
      "lon": 2.349393,
      "osm_id": 5491870421,
      "osm_type": "node",
      "address": "Rue Tiquetonne",
      "road_geometry": null
    },
    {
      "name": "\u00c9tienne Marcel",
      "category": [
        "railway.stop"
      ],
      "lat": 48.8640258,
      "lon": 2.3498519,
      "osm_id": 5527829168,
      "osm_type": "node",
      "address": null,
      "road_geometry": null
    },
    {
      "name": "Piscobar",
      "category": [
        "amenity.restaurant"
      ],
      "lat": 48.8643743,
      "lon": 2.3496431,
      "osm_id": 5701919622,
      "osm_type": "node",
      "address": "Rue Tiquetonne",
      "road_geometry": null
    },
    {
      "name": "Greneta - Sebastopol",
      "category": [
        "amenity.bicycle_rental"
      ],
      "lat": 48.8652434,
      "lon": 2.3516713,
      "osm_id": 5925974721,
      "osm_type": "node",
      "address": null,
      "road_geometry": null
    },
    {
      "name": "Saint-Denis - R\u00e9aumur",
      "category": [
        "amenity.bicycle_rental"
      ],
      "lat": 48.8661916,
      "lon": 2.3508795,
      "osm_id": 5925974722,
      "osm_type": "node",
      "address": null,
      "road_geometry": null
    },
    {
      "name": "T\u00e9k\u00e9s",
      "category": [
        "amenity.restaurant"
      ],
      "lat": 48.8659225,
      "lon": 2.349566,
      "osm_id": 5955615953,
      "osm_type": "node",
      "address": null,
      "road_geometry": null
    },
    {
      "name": "Klay",
      "category": [
        "amenity.restaurant"
      ],
      "lat": 48.8659685,
      "lon": 2.3497555,
      "osm_id": 5955615954,
      "osm_type": "node",
      "address": null,
      "road_geometry": null
    },
    {
      "name": "Yemma",
      "category": [
        "amenity.restaurant"
      ],
      "lat": 48.8657682,
      "lon": 2.3504169,
      "osm_id": 5955618829,
      "osm_type": "node",
      "address": "Rue Saint-Sauveur",
      "road_geometry": null
    },
    {
      "name": "Mamma Mia",
      "category": [
        "amenity.restaurant"
      ],
      "lat": 48.8662276,
      "lon": 2.3510465,
      "osm_id": 5955631278,
      "osm_type": "node",
      "address": "Rue Saint-Denis",
      "road_geometry": null
    },
    {
      "name": "Impact",
      "category": [
        "amenity.fast_food"
      ],
      "lat": 48.866037,
      "lon": 2.3506923,
      "osm_id": 5955646302,
      "osm_type": "node",
      "address": "Rue Saint-Denis",
      "road_geometry": null
    },
    {
      "name": "GoGrill",
      "category": [
        "amenity.restaurant"
      ],
      "lat": 48.8659412,
      "lon": 2.3506232,
      "osm_id": 5956783787,
      "osm_type": "node",
      "address": null,
      "road_geometry": null
    },
    {
      "name": "Five Pizza",
      "category": [
        "amenity.fast_food"
      ],
      "lat": 48.8658779,
      "lon": 2.350835,
      "osm_id": 5956786158,
      "osm_type": "node",
      "address": "Rue Saint-Denis",
      "road_geometry": null
    },
    {
      "name": "Petit Bao Frits",
      "category": [
        "amenity.restaurant"
      ],
      "lat": 48.8658922,
      "lon": 2.3505875,
      "osm_id": 5956790784,
      "osm_type": "node",
      "address": "Rue Saint-Denis",
      "road_geometry": null
    },
    {
      "name": "L'histoire d'une fleur",
      "category": [
        "shop.florist"
      ],
      "lat": 48.8657044,
      "lon": 2.3507304,
      "osm_id": 5956900585,
      "osm_type": "node",
      "address": "Rue Saint-Denis",
      "road_geometry": null
    },
    {
      "name": "1995",
      "category": [
        "amenity.restaurant"
      ],
      "lat": 48.8652539,
      "lon": 2.3505398,
      "osm_id": 5956906085,
      "osm_type": "node",
      "address": "Rue Saint-Denis",
      "road_geometry": null
    },
    {
      "name": "Le D\u00e9nicheur",
      "category": [
        "amenity.restaurant"
      ],
      "lat": 48.8644455,
      "lon": 2.3497619,
      "osm_id": 5957006385,
      "osm_type": "node",
      "address": "Rue Tiquetonne",
      "road_geometry": null
    },
    {
      "name": "CBDOriginal",
      "category": [
        "shop.cannabis"
      ],
      "lat": 48.8644646,
      "lon": 2.349683,
      "osm_id": 5957020785,
      "osm_type": "node",
      "address": "Rue Tiquetonne",
      "road_geometry": null
    },
    {
      "name": "La Maison du Bonheur",
      "category": [
        "amenity.restaurant"
      ],
      "lat": 48.8646556,
      "lon": 2.3488669,
      "osm_id": 5957049685,
      "osm_type": "node",
      "address": "Rue Tiquetonne",
      "road_geometry": null
    },
    {
      "name": "Villa Papillon",
      "category": [
        "amenity.restaurant"
      ],
      "lat": 48.8645842,
      "lon": 2.3487441,
      "osm_id": 5957057685,
      "osm_type": "node",
      "address": null,
      "road_geometry": null
    },
    {
      "name": "Contrastes",
      "category": [
        "amenity.cafe"
      ],
      "lat": 48.8653706,
      "lon": 2.3490917,
      "osm_id": 5957760285,
      "osm_type": "node",
      "address": "Rue Greneta",
      "road_geometry": null
    },
    {
      "name": "Les Turbines",
      "category": [
        "amenity.bar"
      ],
      "lat": 48.8642246,
      "lon": 2.3499587,
      "osm_id": 6255939138,
      "osm_type": "node",
      "address": null,
      "road_geometry": null
    },
    {
      "name": "De Marseille et d'ailleurs",
      "category": [
        "shop.cosmetics"
      ],
      "lat": 48.864697,
      "lon": 2.34985,
      "osm_id": 6260398586,
      "osm_type": "node",
      "address": "Passage du Grand-Cerf",
      "road_geometry": null
    },
    {
      "name": "Choki Choki",
      "category": [
        "shop.hairdresser"
      ],
      "lat": 48.8662446,
      "lon": 2.3507932,
      "osm_id": 6596477103,
      "osm_type": "node",
      "address": null,
      "road_geometry": null
    },
    {
      "name": "Poltronesof\u00e0",
      "category": [
        "shop.furniture"
      ],
      "lat": 48.8646468,
      "lon": 2.3519168,
      "osm_id": 7031582749,
      "osm_type": "node",
      "address": null,
      "road_geometry": null
    },
    {
      "name": "Cheap Frip Vintage",
      "category": [
        "shop.clothes"
      ],
      "lat": 48.8648463,
      "lon": 2.3503453,
      "osm_id": 7160893722,
      "osm_type": "node",
      "address": "Rue Saint-Denis",
      "road_geometry": null
    },
    {
      "name": "Axe Mode Accessoires",
      "category": [
        "shop.clothes"
      ],
      "lat": 48.8661348,
      "lon": 2.3510004,
      "osm_id": 7160893723,
      "osm_type": "node",
      "address": "Rue Saint-Denis",
      "road_geometry": null
    },
    {
      "name": "Dream shop",
      "category": [
        "shop.erotic"
      ],
      "lat": 48.8647716,
      "lon": 2.3503282,
      "osm_id": 7160893726,
      "osm_type": "node",
      "address": "Rue Saint-Denis",
      "road_geometry": null
    },
    {
      "name": "Niki",
      "category": [
        "shop.clothes"
      ],
      "lat": 48.8661845,
      "lon": 2.351033,
      "osm_id": 7160893737,
      "osm_type": "node",
      "address": "Rue Saint-Denis",
      "road_geometry": null
    },
    {
      "name": "Le Coq Sportif",
      "category": [
        "shop.clothes"
      ],
      "lat": 48.8644885,
      "lon": 2.349054,
      "osm_id": 7245413330,
      "osm_type": "node",
      "address": null,
      "road_geometry": null
    },
    {
      "name": "Neoness",
      "category": [
        "leisure.fitness_centre"
      ],
      "lat": 48.8651267,
      "lon": 2.3499372,
      "osm_id": 7855502855,
      "osm_type": "node",
      "address": "Rue Greneta",
      "road_geometry": null
    },
    {
      "name": "Ixina",
      "category": [
        "shop.kitchen"
      ],
      "lat": 48.8649163,
      "lon": 2.3515497,
      "osm_id": 7923610485,
      "osm_type": "node",
      "address": "Boulevard de S\u00e9bastopol",
      "road_geometry": null
    },
    {
      "name": "Maison du Tui Na",
      "category": [
        "shop.massage"
      ],
      "lat": 48.8644122,
      "lon": 2.3519666,
      "osm_id": 7923610496,
      "osm_type": "node",
      "address": "Rue de Turbigo",
      "road_geometry": null
    },
    {
      "name": "Smart Duck",
      "category": [
        "shop.beauty"
      ],
      "lat": 48.8642454,
      "lon": 2.3516926,
      "osm_id": 7923610502,
      "osm_type": "node",
      "address": null,
      "road_geometry": null
    },
    {
      "name": "Clement Design",
      "category": [
        "shop.clothes"
      ],
      "lat": 48.86443,
      "lon": 2.3520635,
      "osm_id": 7923610531,
      "osm_type": "node",
      "address": "Rue de Turbigo",
      "road_geometry": null
    },
    {
      "name": "La Maison Convertible",
      "category": [
        "shop.furniture"
      ],
      "lat": 48.8651012,
      "lon": 2.3516194,
      "osm_id": 7923610567,
      "osm_type": "node",
      "address": "Boulevard de S\u00e9bastopol",
      "road_geometry": null
    },
    {
      "name": "Son et imge Vintage store",
      "category": [
        "shop.clothes"
      ],
      "lat": 48.8640603,
      "lon": 2.3510458,
      "osm_id": 7923610578,
      "osm_type": "node",
      "address": "Boulevard de S\u00e9bastopol",
      "road_geometry": null
    },
    {
      "name": "FitnessBoutique",
      "category": [
        "shop.sports"
      ],
      "lat": 48.8648628,
      "lon": 2.3515174,
      "osm_id": 7923610583,
      "osm_type": "node",
      "address": "Boulevard de S\u00e9bastopol",
      "road_geometry": null
    },
    {
      "name": "Kin\u00e9sith\u00e9rapie Tina Thieme",
      "category": [
        "amenity.doctors"
      ],
      "lat": 48.8662581,
      "lon": 2.351792,
      "osm_id": 8398289117,
      "osm_type": "node",
      "address": "Rue R\u00e9aumur",
      "road_geometry": null
    },
    {
      "name": "Parigi Cafe",
      "category": [
        "amenity.restaurant"
      ],
      "lat": 48.8652442,
      "lon": 2.3500106,
      "osm_id": 9311071818,
      "osm_type": "node",
      "address": null,
      "road_geometry": null
    },
    {
      "name": "Biocoop",
      "category": [
        "shop.supermarket"
      ],
      "lat": 48.8640886,
      "lon": 2.3494158,
      "osm_id": 9545366729,
      "osm_type": "node",
      "address": "Rue de Turbigo",
      "road_geometry": null
    },
    {
      "name": "Panam\u2019optic",
      "category": [
        "shop.optician"
      ],
      "lat": 48.8640188,
      "lon": 2.3490465,
      "osm_id": 9545366732,
      "osm_type": "node",
      "address": "Rue de Turbigo",
      "road_geometry": null
    },
    {
      "name": "Alatone",
      "category": [
        "shop.clothes"
      ],
      "lat": 48.8640209,
      "lon": 2.3491478,
      "osm_id": 9545366733,
      "osm_type": "node",
      "address": "Rue de Turbigo",
      "road_geometry": null
    },
    {
      "name": "Seven Tif Seven",
      "category": [
        "shop.hairdresser"
      ],
      "lat": 48.8641049,
      "lon": 2.3510735,
      "osm_id": 9869273469,
      "osm_type": "node",
      "address": "Boulevard de S\u00e9bastopol",
      "road_geometry": null
    },
    {
      "name": "La rue Tiquetonne",
      "category": [
        "tourism.information"
      ],
      "lat": 48.8645678,
      "lon": 2.3488436,
      "osm_id": 10050441774,
      "osm_type": "node",
      "address": null,
      "road_geometry": null
    },
    {
      "name": "MinimeLand",
      "category": [
        "shop.toys"
      ],
      "lat": 48.8643178,
      "lon": 2.3504908,
      "osm_id": 10224464974,
      "osm_type": "node",
      "address": null,
      "road_geometry": null
    },
    {
      "name": "Optique",
      "category": [
        "shop.optician"
      ],
      "lat": 48.8643411,
      "lon": 2.3506337,
      "osm_id": 10224464975,
      "osm_type": "node",
      "address": "Rue de Turbigo",
      "road_geometry": null
    },
    {
      "name": "Audition Conseil",
      "category": [
        "shop.hearing_aids"
      ],
      "lat": 48.8647483,
      "lon": 2.35103,
      "osm_id": 10224464976,
      "osm_type": "node",
      "address": "Rue de Palestro",
      "road_geometry": null
    },
    {
      "name": "Veneta Cucine",
      "category": [
        "shop.kitchen"
      ],
      "lat": 48.8660105,
      "lon": 2.351727,
      "osm_id": 10224464987,
      "osm_type": "node",
      "address": null,
      "road_geometry": null
    },
    {
      "name": "Sable d'art",
      "category": [
        "tourism.gallery"
      ],
      "lat": 48.8651617,
      "lon": 2.3495931,
      "osm_id": 10581404182,
      "osm_type": "node",
      "address": "Rue Greneta",
      "road_geometry": null
    },
    {
      "name": "Starbucks",
      "category": [
        "amenity.cafe"
      ],
      "lat": 48.8641175,
      "lon": 2.3495688,
      "osm_id": 10925200324,
      "osm_type": "node",
      "address": "Rue de Turbigo",
      "road_geometry": null
    },
    {
      "name": "Harpo",
      "category": [
        "shop.jewelry"
      ],
      "lat": 48.8641464,
      "lon": 2.3497143,
      "osm_id": 10925200325,
      "osm_type": "node",
      "address": "Rue de Turbigo",
      "road_geometry": null
    },
    {
      "name": "Chez maman",
      "category": [
        "shop.watches"
      ],
      "lat": 48.8644344,
      "lon": 2.3498233,
      "osm_id": 10928951184,
      "osm_type": "node",
      "address": "Rue Tiquetonne",
      "road_geometry": null
    },
    {
      "name": "Oakberry A\u00e7ai",
      "category": [
        "amenity.fast_food"
      ],
      "lat": 48.8644225,
      "lon": 2.3498812,
      "osm_id": 10928967220,
      "osm_type": "node",
      "address": "Rue Tiquetonne",
      "road_geometry": null
    },
    {
      "name": "Lil Weasel",
      "category": [
        "shop.fabric"
      ],
      "lat": 48.8647058,
      "lon": 2.3497836,
      "osm_id": 11063538347,
      "osm_type": "node",
      "address": "Passage du Grand-Cerf",
      "road_geometry": null
    },
    {
      "name": "Deleeuw Guitars",
      "category": [
        "shop.musical_instrument"
      ],
      "lat": 48.8653695,
      "lon": 2.3513947,
      "osm_id": 11180689357,
      "osm_type": "node",
      "address": null,
      "road_geometry": null
    },
    {
      "name": "2\u00e8me Cru",
      "category": [
        "amenity.bar"
      ],
      "lat": 48.8656574,
      "lon": 2.3507298,
      "osm_id": 11300322769,
      "osm_type": "node",
      "address": "Rue Saint-Denis",
      "road_geometry": null
    },
    {
      "name": "Quadro",
      "category": [
        "shop.interior_decoration"
      ],
      "lat": 48.8653757,
      "lon": 2.3517806,
      "osm_id": 11314410378,
      "osm_type": "node",
      "address": "Boulevard de S\u00e9bastopol",
      "road_geometry": null
    },
    {
      "name": "Cinna",
      "category": [
        "shop.furniture"
      ],
      "lat": 48.8653139,
      "lon": 2.3516679,
      "osm_id": 11314453387,
      "osm_type": "node",
      "address": null,
      "road_geometry": null
    },
    {
      "name": "The Frog & Rosbif",
      "category": [
        "amenity.cafe"
      ],
      "lat": 48.8643517,
      "lon": 2.3503071,
      "osm_id": 11356977923,
      "osm_type": "node",
      "address": "Rue Saint-Denis",
      "road_geometry": null
    },
    {
      "name": "Petit Bao",
      "category": [
        "amenity.restaurant"
      ],
      "lat": 48.8644373,
      "lon": 2.3502987,
      "osm_id": 11356977928,
      "osm_type": "node",
      "address": "Rue Saint-Denis",
      "road_geometry": null
    },
    {
      "name": "Le Petit Poney Bar",
      "category": [
        "amenity.restaurant"
      ],
      "lat": 48.8659644,
      "lon": 2.3487975,
      "osm_id": 11373149869,
      "osm_type": "node",
      "address": "Rue Saint-Sauveur",
      "road_geometry": null
    },
    {
      "name": "Mira",
      "category": [
        "amenity.bar"
      ],
      "lat": 48.8659019,
      "lon": 2.3497266,
      "osm_id": 11373359169,
      "osm_type": "node",
      "address": null,
      "road_geometry": null
    },
    {
      "name": "Shoukounin",
      "category": [
        "shop.hairdresser"
      ],
      "lat": 48.8645953,
      "lon": 2.3490615,
      "osm_id": 11503922542,
      "osm_type": "node",
      "address": "Rue Tiquetonne",
      "road_geometry": null
    },
    {
      "name": "Rollsy",
      "category": [
        "amenity.fast_food"
      ],
      "lat": 48.8644154,
      "lon": 2.3494268,
      "osm_id": 11503984891,
      "osm_type": "node",
      "address": "Rue Tiquetonne",
      "road_geometry": null
    },
    {
      "name": "Banh mi Kim Linh",
      "category": [
        "amenity.fast_food"
      ],
      "lat": 48.8644347,
      "lon": 2.3493727,
      "osm_id": 11503989118,
      "osm_type": "node",
      "address": "Rue Tiquetonne",
      "road_geometry": null
    },
    {
      "name": "Fil me in",
      "category": [
        "shop.beauty"
      ],
      "lat": 48.8645596,
      "lon": 2.3488077,
      "osm_id": 11504013055,
      "osm_type": "node",
      "address": null,
      "road_geometry": null
    },
    {
      "name": "Tha\u00ef Harmonie Spa",
      "category": [
        "shop.massage"
      ],
      "lat": 48.8652434,
      "lon": 2.351051,
      "osm_id": 11506437620,
      "osm_type": "node",
      "address": "Rue Greneta",
      "road_geometry": null
    },
    {
      "name": "Mugung",
      "category": [
        "amenity.restaurant"
      ],
      "lat": 48.8660137,
      "lon": 2.3509058,
      "osm_id": 11506513452,
      "osm_type": "node",
      "address": "Rue Saint-Denis",
      "road_geometry": null
    },
    {
      "name": "Une fleur en libert\u00e9",
      "category": [
        "shop.florist"
      ],
      "lat": 48.8657782,
      "lon": 2.3503436,
      "osm_id": 11506541701,
      "osm_type": "node",
      "address": null,
      "road_geometry": null
    },
    {
      "name": "Detentation",
      "category": [
        "shop.massage"
      ],
      "lat": 48.8658295,
      "lon": 2.3495406,
      "osm_id": 11506541799,
      "osm_type": "node",
      "address": null,
      "road_geometry": null
    },
    {
      "name": "Voltaire",
      "category": [
        "shop.bicycle"
      ],
      "lat": 48.86587,
      "lon": 2.3493657,
      "osm_id": 11506541801,
      "osm_type": "node",
      "address": null,
      "road_geometry": null
    },
    {
      "name": "The Caste",
      "category": [
        "shop.optician"
      ],
      "lat": 48.8653352,
      "lon": 2.3493333,
      "osm_id": 11513553897,
      "osm_type": "node",
      "address": "Rue Greneta",
      "road_geometry": null
    },
    {
      "name": "Acc\u00e8s Star",
      "category": [
        "shop.fashion_accessories"
      ],
      "lat": 48.8654071,
      "lon": 2.3488269,
      "osm_id": 11513572957,
      "osm_type": "node",
      "address": "Rue Greneta",
      "road_geometry": null
    },
    {
      "name": "Amber",
      "category": [
        "shop.hairdresser"
      ],
      "lat": 48.8653062,
      "lon": 2.3495626,
      "osm_id": 11513579379,
      "osm_type": "node",
      "address": "Rue Greneta",
      "road_geometry": null
    },
    {
      "name": "Bam\u2019s Archives",
      "category": [
        "shop.second_hand"
      ],
      "lat": 48.8644544,
      "lon": 2.3492909,
      "osm_id": 11514230814,
      "osm_type": "node",
      "address": "Rue Tiquetonne",
      "road_geometry": null
    },
    {
      "name": "Maison du Whisky",
      "category": [
        "shop.alcohol"
      ],
      "lat": 48.8644783,
      "lon": 2.3491472,
      "osm_id": 11514272690,
      "osm_type": "node",
      "address": "Rue Tiquetonne",
      "road_geometry": null
    },
    {
      "name": "Picaflor",
      "category": [
        "shop.travel_agency"
      ],
      "lat": 48.8643561,
      "lon": 2.3496868,
      "osm_id": 11514272701,
      "osm_type": "node",
      "address": "Rue Tiquetonne",
      "road_geometry": null
    },
    {
      "name": "3D Haircut",
      "category": [
        "shop.hairdresser"
      ],
      "lat": 48.8643975,
      "lon": 2.3495472,
      "osm_id": 11514317773,
      "osm_type": "node",
      "address": "Rue Tiquetonne",
      "road_geometry": null
    },
    {
      "name": "Keshu",
      "category": [
        "amenity.restaurant"
      ],
      "lat": 48.8644735,
      "lon": 2.3500456,
      "osm_id": 11519738585,
      "osm_type": "node",
      "address": "Rue Saint-Denis",
      "road_geometry": null
    },
    {
      "name": "Effective",
      "category": [
        "amenity.bar"
      ],
      "lat": 48.8654999,
      "lon": 2.3506334,
      "osm_id": 11519788399,
      "osm_type": "node",
      "address": "Rue Saint-Denis",
      "road_geometry": null
    },
    {
      "name": "LOCK & enjoy! - Luggage storage in Ch\u00e2telet-Les Halles",
      "category": [
        "amenity.luggage_locker"
      ],
      "lat": 48.8658456,
      "lon": 2.3494703,
      "osm_id": 11519800987,
      "osm_type": "node",
      "address": "Rue Saint-Sauveur",
      "road_geometry": null
    },
    {
      "name": "Concerto Karaoke Box",
      "category": [
        "amenity.karaoke_box"
      ],
      "lat": 48.8654386,
      "lon": 2.3514335,
      "osm_id": 11534169351,
      "osm_type": "node",
      "address": "Rue de Palestro",
      "road_geometry": null
    },
    {
      "name": "Coda",
      "category": [
        "tourism.gallery"
      ],
      "lat": 48.8640364,
      "lon": 2.3520685,
      "osm_id": 11554499161,
      "osm_type": "node",
      "address": null,
      "road_geometry": null
    },
    {
      "name": "Socolatex",
      "category": [
        "shop.fabric"
      ],
      "lat": 48.8641125,
      "lon": 2.3517985,
      "osm_id": 11554575654,
      "osm_type": "node",
      "address": "Rue du Bourg l'Abb\u00e9",
      "road_geometry": null
    },
    {
      "name": "Dear",
      "category": [
        "shop.jewelry"
      ],
      "lat": 48.8648536,
      "lon": 2.3491689,
      "osm_id": 11556729347,
      "osm_type": "node",
      "address": null,
      "road_geometry": null
    },
    {
      "name": "Cecile Boccara",
      "category": [
        "shop.jewelry"
      ],
      "lat": 48.8648451,
      "lon": 2.3492203,
      "osm_id": 11556735167,
      "osm_type": "node",
      "address": null,
      "road_geometry": null
    },
    {
      "name": "Kalany Mya",
      "category": [
        "shop.pastry"
      ],
      "lat": 48.864835,
      "lon": 2.3492672,
      "osm_id": 11556739758,
      "osm_type": "node",
      "address": "Passage du Grand-Cerf",
      "road_geometry": null
    },
    {
      "name": "Aurelien Franck",
      "category": [
        "shop.jewelry"
      ],
      "lat": 48.8647407,
      "lon": 2.3498079,
      "osm_id": 11556746251,
      "osm_type": "node",
      "address": "Passage du Grand-Cerf",
      "road_geometry": null
    },
    {
      "name": "Madame Z",
      "category": [
        "shop.beauty"
      ],
      "lat": 48.864897,
      "lon": 2.3489528,
      "osm_id": 11556746950,
      "osm_type": "node",
      "address": null,
      "road_geometry": null
    },
    {
      "name": "Ale",
      "category": [
        "shop.clothes"
      ],
      "lat": 48.8648082,
      "lon": 2.3494129,
      "osm_id": 11556748978,
      "osm_type": "node",
      "address": "Passage du Grand-Cerf",
      "road_geometry": null
    },
    {
      "name": "Pour Vous Beaux Yeux",
      "category": [
        "shop.optician"
      ],
      "lat": 48.8648616,
      "lon": 2.349121,
      "osm_id": 11556756676,
      "osm_type": "node",
      "address": null,
      "road_geometry": null
    },
    {
      "name": "\u00c9ric et Lydie",
      "category": [
        "shop.jewelry"
      ],
      "lat": 48.8648636,
      "lon": 2.3489158,
      "osm_id": 11556759151,
      "osm_type": "node",
      "address": "Passage du Grand-Cerf",
      "road_geometry": null
    },
    {
      "name": "Lil Weasel",
      "category": [
        "shop.fabric"
      ],
      "lat": 48.8647532,
      "lon": 2.3497362,
      "osm_id": 11556768625,
      "osm_type": "node",
      "address": "Passage du Grand-Cerf",
      "road_geometry": null
    },
    {
      "name": "Tricote moi un tattoo",
      "category": [
        "shop.fashion_accessories"
      ],
      "lat": 48.8647738,
      "lon": 2.3493992,
      "osm_id": 11556770411,
      "osm_type": "node",
      "address": null,
      "road_geometry": null
    },
    {
      "name": "La Petite Ourse",
      "category": [
        "shop.lighting"
      ],
      "lat": 48.8647971,
      "lon": 2.3494876,
      "osm_id": 11556771148,
      "osm_type": "node",
      "address": "Passage du Grand-Cerf",
      "road_geometry": null
    },
    {
      "name": "Mn",
      "category": [
        "shop.fabric"
      ],
      "lat": 48.8641747,
      "lon": 2.3509351,
      "osm_id": 11556771675,
      "osm_type": "node",
      "address": "Rue de Turbigo",
      "road_geometry": null
    },
    {
      "name": "Halo",
      "category": [
        "amenity.restaurant"
      ],
      "lat": 48.8660267,
      "lon": 2.3489349,
      "osm_id": 11569964921,
      "osm_type": "node",
      "address": null,
      "road_geometry": null
    },
    {
      "name": "Days",
      "category": [
        "amenity.fast_food"
      ],
      "lat": 48.8658036,
      "lon": 2.350249,
      "osm_id": 11570021944,
      "osm_type": "node",
      "address": null,
      "road_geometry": null
    },
    {
      "name": "BM SEE",
      "category": [
        "shop.fabric"
      ],
      "lat": 48.8658149,
      "lon": 2.3496447,
      "osm_id": 11570031458,
      "osm_type": "node",
      "address": null,
      "road_geometry": null
    },
    {
      "name": "Erh - Ryuichi Utsumi",
      "category": [
        "amenity.restaurant"
      ],
      "lat": 48.8644463,
      "lon": 2.3491488,
      "osm_id": 11577223669,
      "osm_type": "node",
      "address": "Rue Tiquetonne",
      "road_geometry": null
    },
    {
      "name": "Intermarch\u00e9 Express",
      "category": [
        "shop.convenience"
      ],
      "lat": 48.8640659,
      "lon": 2.3487101,
      "osm_id": 11587780750,
      "osm_type": "node",
      "address": "Rue \u00c9tienne Marcel",
      "road_geometry": null
    },
    {
      "name": "Bam\u2019s Vintage",
      "category": [
        "shop.clothes"
      ],
      "lat": 48.8643839,
      "lon": 2.3495994,
      "osm_id": 11603206144,
      "osm_type": "node",
      "address": "Rue Tiquetonne",
      "road_geometry": null
    },
    {
      "name": "MimiMe",
      "category": [
        "amenity.cafe"
      ],
      "lat": 48.8650426,
      "lon": 2.3501812,
      "osm_id": 11608192134,
      "osm_type": "node",
      "address": null,
      "road_geometry": null
    },
    {
      "name": "Da long yi Hot Pot",
      "category": [
        "amenity.restaurant"
      ],
      "lat": 48.8648736,
      "lon": 2.3520326,
      "osm_id": 11738788017,
      "osm_type": "node",
      "address": "Boulevard de S\u00e9bastopol",
      "road_geometry": null
    },
    {
      "name": "Centre ost\u00e9opathique des Halles",
      "category": [
        "amenity.doctors"
      ],
      "lat": 48.8649768,
      "lon": 2.352085,
      "osm_id": 11738832090,
      "osm_type": "node",
      "address": "Boulevard de S\u00e9bastopol",
      "road_geometry": null
    },
    {
      "name": "Retro",
      "category": [
        "shop.clothes"
      ],
      "lat": 48.8641123,
      "lon": 2.3506579,
      "osm_id": 11964410869,
      "osm_type": "node",
      "address": "Rue de Turbigo",
      "road_geometry": null
    },
    {
      "name": "Tissus au detail",
      "category": [
        "shop.fabric"
      ],
      "lat": 48.8657003,
      "lon": 2.3488004,
      "osm_id": 12178432274,
      "osm_type": "node",
      "address": "Rue Dussoubs",
      "road_geometry": null
    },
    {
      "name": "Lune Bleme",
      "category": [
        "shop.tattoo"
      ],
      "lat": 48.8652214,
      "lon": 2.3507153,
      "osm_id": 12178462020,
      "osm_type": "node",
      "address": "Rue Greneta",
      "road_geometry": null
    },
    {
      "name": "Cabinet m\u00e9dical Dussoubs",
      "category": [
        "amenity.doctors"
      ],
      "lat": 48.8657777,
      "lon": 2.3488366,
      "osm_id": 12178467703,
      "osm_type": "node",
      "address": "Rue Dussoubs",
      "road_geometry": null
    },
    {
      "name": "\u00c9cole dentaire francaise",
      "category": [
        "amenity.college"
      ],
      "lat": 48.8652651,
      "lon": 2.3488036,
      "osm_id": 12178482922,
      "osm_type": "node",
      "address": null,
      "road_geometry": null
    },
    {
      "name": "Sputnik Yoga Space",
      "category": [
        "leisure.fitness_centre"
      ],
      "lat": 48.865622,
      "lon": 2.3488997,
      "osm_id": 12178483651,
      "osm_type": "node",
      "address": null,
      "road_geometry": null
    },
    {
      "name": "Lola Cham",
      "category": [
        "shop.fashion_accessories"
      ],
      "lat": 48.8657469,
      "lon": 2.3499891,
      "osm_id": 12178500867,
      "osm_type": "node",
      "address": null,
      "road_geometry": null
    },
    {
      "name": "Episode",
      "category": [
        "shop.clothes"
      ],
      "lat": 48.8645409,
      "lon": 2.3493295,
      "osm_id": 12224226332,
      "osm_type": "node",
      "address": "Rue Tiquetonne",
      "road_geometry": null
    },
    {
      "name": "Blandin & Delloye",
      "category": [
        "shop.clothes"
      ],
      "lat": 48.8649598,
      "lon": 2.3511593,
      "osm_id": 12299711370,
      "osm_type": "node",
      "address": null,
      "road_geometry": null
    },
    {
      "name": "Dahinden",
      "category": [
        "shop.copyshop"
      ],
      "lat": 48.864606,
      "lon": 2.3509528,
      "osm_id": 12299723946,
      "osm_type": "node",
      "address": null,
      "road_geometry": null
    },
    {
      "name": "Casa Verde",
      "category": [
        "amenity.restaurant"
      ],
      "lat": 48.8647313,
      "lon": 2.3503138,
      "osm_id": 12741909226,
      "osm_type": "node",
      "address": "Rue Saint-Denis",
      "road_geometry": null
    },
    {
      "name": "H\u00f4pital de la Trinit\u00e9",
      "category": [
        "tourism.information"
      ],
      "lat": 48.8659237,
      "lon": 2.350828,
      "osm_id": 12778312979,
      "osm_type": "node",
      "address": null,
      "road_geometry": null
    },
    {
      "name": "Origine",
      "category": [
        "amenity.fast_food"
      ],
      "lat": 48.8655482,
      "lon": 2.3506613,
      "osm_id": 12782413074,
      "osm_type": "node",
      "address": "Rue Saint-Denis",
      "road_geometry": null
    },
    {
      "name": "Nami",
      "category": [
        "amenity.cafe"
      ],
      "lat": 48.8646786,
      "lon": 2.3501144,
      "osm_id": 12794133510,
      "osm_type": "node",
      "address": "Rue Saint-Denis",
      "road_geometry": null
    },
    {
      "name": "La Varangue de L\u2019Oc\u00e9an Indien",
      "category": [
        "amenity.restaurant"
      ],
      "lat": 48.8645116,
      "lon": 2.3494724,
      "osm_id": 12833442762,
      "osm_type": "node",
      "address": "Rue Tiquetonne",
      "road_geometry": null
    },
    {
      "name": "La Maison des Mich\u00e8les",
      "category": [
        "amenity.restaurant"
      ],
      "lat": 48.8652309,
      "lon": 2.3509304,
      "osm_id": 12837307175,
      "osm_type": "node",
      "address": "Rue Greneta",
      "road_geometry": null
    },
    {
      "name": "Bliss&Shake",
      "category": [
        "amenity.cafe"
      ],
      "lat": 48.8654653,
      "lon": 2.348837,
      "osm_id": 12850257268,
      "osm_type": "node",
      "address": "Rue Dussoubs",
      "road_geometry": null
    },
    {
      "name": "Gigi Gourmet Panineria",
      "category": [
        "amenity.fast_food"
      ],
      "lat": 48.8645716,
      "lon": 2.350312,
      "osm_id": 12851582444,
      "osm_type": "node",
      "address": "Rue Saint-Denis",
      "road_geometry": null
    },
    {
      "name": "Round Egg Buns",
      "category": [
        "amenity.fast_food"
      ],
      "lat": 48.8652807,
      "lon": 2.3505415,
      "osm_id": 12874831372,
      "osm_type": "node",
      "address": "Rue Saint-Denis",
      "road_geometry": null
    },
    {
      "name": "Barracuda",
      "category": [
        "shop.clothes"
      ],
      "lat": 48.8646201,
      "lon": 2.3489256,
      "osm_id": 12899742726,
      "osm_type": "node",
      "address": "Rue Tiquetonne",
      "road_geometry": null
    },
    {
      "name": "La rue Dussoubs",
      "category": [
        "tourism.information"
      ],
      "lat": 48.8660873,
      "lon": 2.3490111,
      "osm_id": 12918024716,
      "osm_type": "node",
      "address": null,
      "road_geometry": null
    },
    {
      "name": "\u00c9glise Saint-Sauveur",
      "category": [
        "tourism.information"
      ],
      "lat": 48.8658584,
      "lon": 2.3498758,
      "osm_id": 12918047319,
      "osm_type": "node",
      "address": null,
      "road_geometry": null
    },
    {
      "name": "Greneta - S\u00e9bastopol",
      "category": [
        "amenity.bicycle_rental"
      ],
      "lat": 48.8653401,
      "lon": 2.351534,
      "osm_id": 12967297060,
      "osm_type": "node",
      "address": null,
      "road_geometry": null
    },
    {
      "name": "Linksury",
      "category": [
        "shop.clothes"
      ],
      "lat": 48.8645109,
      "lon": 2.3507633,
      "osm_id": 13099964882,
      "osm_type": "node",
      "address": "Passage du Bourg l\u2019Abb\u00e9",
      "road_geometry": null
    },
    {
      "name": "Golden Promise",
      "category": [
        "amenity.bar"
      ],
      "lat": 48.8644848,
      "lon": 2.3491252,
      "osm_id": 13100358103,
      "osm_type": "node",
      "address": null,
      "road_geometry": null
    },
    {
      "name": "Je suis \u00e0 v\u00e9lo",
      "category": [
        "shop.bicycle"
      ],
      "lat": 48.8641134,
      "lon": 2.3507064,
      "osm_id": 13110002579,
      "osm_type": "node",
      "address": "Rue de Turbigo",
      "road_geometry": null
    },
    {
      "name": "De Marseille et d\u2019Ailleurs",
      "category": [
        "shop.cosmetics"
      ],
      "lat": 48.8647223,
      "lon": 2.3496134,
      "osm_id": 13371329154,
      "osm_type": "node",
      "address": "Passage du Grand-Cerf",
      "road_geometry": null
    },
    {
      "name": "Johnny B. Cake",
      "category": [
        "amenity.fast_food"
      ],
      "lat": 48.8644128,
      "lon": 2.3494819,
      "osm_id": 13373844801,
      "osm_type": "node",
      "address": "Rue Tiquetonne",
      "road_geometry": null
    },
    {
      "name": "Le Labo",
      "category": [
        "shop.books"
      ],
      "lat": 48.8647583,
      "lon": 2.3496684,
      "osm_id": 13432041043,
      "osm_type": "node",
      "address": null,
      "road_geometry": null
    }
  ]
}