{
  "image": "dataset/images/90.png",
  "center_lat": 40.807882882882886,
  "center_lon": -73.94495220486849,
  "bbox": [
    -73.94643998311528,
    40.80675675675676,
    -73.94346442662169,
    40.80900900900902
  ],
  "unique_categories": [
    "shop.supermarket",
    "amenity.clinic",
    "railway.subway_entrance",
    "shop.clothes",
    "amenity.school",
    "amenity.bank",
    "shop.mobile_phone",
    "shop.cosmetics",
    "railway.stop",
    "amenity.cafe",
    "shop.optician",
    "leisure.fitness_centre",
    "amenity.pharmacy",
    "shop.department_store",
    "amenity.restaurant",
    "shop.stationery",
    "highway.bus_stop",
    "shop.jewelry",
    "tourism.attraction",
    "railway.station",
    "shop.furniture",
    "amenity.fast_food",
    "shop.car",
    "amenity.bicycle_rental",
    "amenity.place_of_worship",
    "shop.convenience"
  ],
  "poi_count_per_category": {
    "shop.supermarket": 1,
    "amenity.clinic": 1,
    "railway.subway_entrance": 4,
    "shop.clothes": 1,
    "amenity.school": 1,
    "amenity.bank": 3,
    "shop.mobile_phone": 1,
    "shop.cosmetics": 2,
    "railway.stop": 2,
    "amenity.cafe": 1,
    "shop.optician": 1,
    "leisure.fitness_centre": 1,
    "amenity.pharmacy": 2,
    "shop.department_store": 2,
    "amenity.restaurant": 5,
    "shop.stationery": 1,
    "highway.bus_stop": 5,
    "shop.jewelry": 2,
    "tourism.attraction": 1,
    "railway.station": 1,
    "shop.furniture": 1,
    "amenity.fast_food": 6,
    "shop.car": 1,
    "amenity.bicycle_rental": 1,
    "amenity.place_of_worship": 1,
    "shop.convenience": 1
  },
  "poi_count": 49,
  "pois": [
    {
      "name": "Baptist House of Prayer",
      "category": [
        "amenity.place_of_worship"
      ],
      "lat": 40.8080151,
      "lon": -73.9447421,
      "osm_id": 357621102,
      "osm_type": "node",
      "address": null,
      "road_geometry": null
    },
    {
      "name": "Fellowship of Learning School",
      "category": [
        "amenity.school"
      ],
      "lat": 40.8077778,
      "lon": -73.9444444,
      "osm_id": 357621375,
      "osm_type": "node",
      "address": null,
      "road_geometry": null
    },
    {
      "name": "125th Street",
      "category": [
        "railway.station"
      ],
      "lat": 40.8077529,
      "lon": -73.9455416,
      "osm_id": 1740704823,
      "osm_type": "node",
      "address": null,
      "road_geometry": null
    },
    {
      "name": "AT&T",
      "category": [
        "shop.mobile_phone"
      ],
      "lat": 40.8077868,
      "lon": -73.9449933,
      "osm_id": 2562438626,
      "osm_type": "node",
      "address": "West 125th Street",
      "road_geometry": null
    },
    {
      "name": "CVS Pharmacy",
      "category": [
        "amenity.pharmacy"
      ],
      "lat": 40.8080704,
      "lon": -73.945659,
      "osm_id": 2562438630,
      "osm_type": "node",
      "address": "Malcolm X Boulevard",
      "road_geometry": null
    },
    {
      "name": "Corner Social",
      "category": [
        "amenity.restaurant"
      ],
      "lat": 40.8086893,
      "lon": -73.9451659,
      "osm_id": 2562438634,
      "osm_type": "node",
      "address": "Lenox Avenue",
      "road_geometry": null
    },
    {
      "name": "Caribbean Starr",
      "category": [
        "amenity.restaurant"
      ],
      "lat": 40.8070737,
      "lon": -73.9456305,
      "osm_id": 2562438637,
      "osm_type": "node",
      "address": "Lenox Avenue",
      "road_geometry": null
    },
    {
      "name": "Harlem Shake",
      "category": [
        "amenity.fast_food"
      ],
      "lat": 40.8071119,
      "lon": -73.9463524,
      "osm_id": 2562438638,
      "osm_type": "node",
      "address": "West 124th Street",
      "road_geometry": null
    },
    {
      "name": "Checkers",
      "category": [
        "amenity.fast_food"
      ],
      "lat": 40.8077525,
      "lon": -73.9449111,
      "osm_id": 2562438642,
      "osm_type": "node",
      "address": "West 125th Street",
      "road_geometry": null
    },
    {
      "name": "Starbucks",
      "category": [
        "amenity.cafe"
      ],
      "lat": 40.8078217,
      "lon": -73.9450772,
      "osm_id": 2562438646,
      "osm_type": "node",
      "address": null,
      "road_geometry": null
    },
    {
      "name": "Lenox Avenue & 125th Street at Southeast Corner",
      "category": [
        "railway.subway_entrance"
      ],
      "lat": 40.8075611,
      "lon": -73.9454619,
      "osm_id": 2562438679,
      "osm_type": "node",
      "address": null,
      "road_geometry": null
    },
    {
      "name": "Lenox Avenue & 125th Street at Southwest Corner",
      "category": [
        "railway.subway_entrance"
      ],
      "lat": 40.8076894,
      "lon": -73.9457446,
      "osm_id": 2562438680,
      "osm_type": "node",
      "address": null,
      "road_geometry": null
    },
    {
      "name": "Lenox Avenue & 125th Street at Northeast Corner",
      "category": [
        "railway.subway_entrance"
      ],
      "lat": 40.8078853,
      "lon": -73.9452278,
      "osm_id": 2562438684,
      "osm_type": "node",
      "address": null,
      "road_geometry": null
    },
    {
      "name": "Lenox Avenue & 125th Street at Northwest Corner",
      "category": [
        "railway.subway_entrance"
      ],
      "lat": 40.8079973,
      "lon": -73.9455218,
      "osm_id": 2562438686,
      "osm_type": "node",
      "address": null,
      "road_geometry": null
    },
    {
      "name": "Planet Fitness",
      "category": [
        "leisure.fitness_centre"
      ],
      "lat": 40.8084913,
      "lon": -73.9454233,
      "osm_id": 2767369784,
      "osm_type": "node",
      "address": "West 126th Street",
      "road_geometry": null
    },
    {
      "name": "Wells Fargo",
      "category": [
        "amenity.bank"
      ],
      "lat": 40.807238,
      "lon": -73.9455502,
      "osm_id": 2767369969,
      "osm_type": "node",
      "address": "Malcolm X Boulevard",
      "road_geometry": null
    },
    {
      "name": "Cohen's Fashion Optical",
      "category": [
        "shop.optician"
      ],
      "lat": 40.8075367,
      "lon": -73.9453131,
      "osm_id": 2767370101,
      "osm_type": "node",
      "address": "West 125th Street",
      "road_geometry": null
    },
    {
      "name": "Marshalls",
      "category": [
        "shop.department_store"
      ],
      "lat": 40.8081402,
      "lon": -73.9458769,
      "osm_id": 2883793011,
      "osm_type": "node",
      "address": null,
      "road_geometry": null
    },
    {
      "name": "Staples",
      "category": [
        "shop.stationery"
      ],
      "lat": 40.8081849,
      "lon": -73.9459886,
      "osm_id": 2883793012,
      "osm_type": "node",
      "address": "West 125th Street",
      "road_geometry": null
    },
    {
      "name": "Sylvia's Restaurant",
      "category": [
        "amenity.restaurant"
      ],
      "lat": 40.8086285,
      "lon": -73.9445189,
      "osm_id": 4231923696,
      "osm_type": "node",
      "address": "Malcolm X Boulevard",
      "road_geometry": null
    },
    {
      "name": "125th Street",
      "category": [
        "railway.stop"
      ],
      "lat": 40.8084016,
      "lon": -73.9450484,
      "osm_id": 4460385056,
      "osm_type": "node",
      "address": null,
      "road_geometry": null
    },
    {
      "name": "125th Street",
      "category": [
        "railway.stop"
      ],
      "lat": 40.8071843,
      "lon": -73.9459921,
      "osm_id": 4460385057,
      "osm_type": "node",
      "address": null,
      "road_geometry": null
    },
    {
      "name": "West 125th Street & Malcolm X Boulevard",
      "category": [
        "highway.bus_stop"
      ],
      "lat": 40.8074252,
      "lon": -73.944901,
      "osm_id": 5206203187,
      "osm_type": "node",
      "address": null,
      "road_geometry": null
    },
    {
      "name": "Malcolm X Boulevard & West 125th Street",
      "category": [
        "highway.bus_stop"
      ],
      "lat": 40.8076296,
      "lon": -73.9458004,
      "osm_id": 5206203855,
      "osm_type": "node",
      "address": null,
      "road_geometry": null
    },
    {
      "name": "Malcolm X Boulevard & West 125th Street",
      "category": [
        "highway.bus_stop"
      ],
      "lat": 40.8079584,
      "lon": -73.9451863,
      "osm_id": 5206203860,
      "osm_type": "node",
      "address": null,
      "road_geometry": null
    },
    {
      "name": "West 125th Street & Malcolm X Boulevard",
      "category": [
        "highway.bus_stop"
      ],
      "lat": 40.8081236,
      "lon": -73.9461053,
      "osm_id": 5206207700,
      "osm_type": "node",
      "address": null,
      "road_geometry": null
    },
    {
      "name": "Wingstop",
      "category": [
        "amenity.fast_food"
      ],
      "lat": 40.80756,
      "lon": -73.9445108,
      "osm_id": 5266902651,
      "osm_type": "node",
      "address": "West 125th Street",
      "road_geometry": null
    },
    {
      "name": "Carver Federal Savings Bank",
      "category": [
        "amenity.bank"
      ],
      "lat": 40.8076644,
      "lon": -73.9447636,
      "osm_id": 5266902652,
      "osm_type": "node",
      "address": "West 125th Street",
      "road_geometry": null
    },
    {
      "name": "Malcolm X Boulevard & West 127th Street",
      "category": [
        "highway.bus_stop"
      ],
      "lat": 40.8089027,
      "lon": -73.9449273,
      "osm_id": 5274254233,
      "osm_type": "node",
      "address": null,
      "road_geometry": null
    },
    {
      "name": "Dunkin'",
      "category": [
        "amenity.fast_food"
      ],
      "lat": 40.8080988,
      "lon": -73.9457657,
      "osm_id": 5302771422,
      "osm_type": "node",
      "address": "West 125th Street",
      "road_geometry": null
    },
    {
      "name": "Whole Foods Market",
      "category": [
        "shop.supermarket"
      ],
      "lat": 40.8077449,
      "lon": -73.9459069,
      "osm_id": 5317574169,
      "osm_type": "node",
      "address": "West 125th Street",
      "road_geometry": null
    },
    {
      "name": "Raymour & Flanigan",
      "category": [
        "shop.furniture"
      ],
      "lat": 40.8079097,
      "lon": -73.9462451,
      "osm_id": 5317574170,
      "osm_type": "node",
      "address": null,
      "road_geometry": null
    },
    {
      "name": "Burlington",
      "category": [
        "shop.department_store"
      ],
      "lat": 40.8077792,
      "lon": -73.9462736,
      "osm_id": 5317574171,
      "osm_type": "node",
      "address": "Martin Luther King Drive",
      "road_geometry": null
    },
    {
      "name": "H&M",
      "category": [
        "shop.clothes"
      ],
      "lat": 40.8078374,
      "lon": -73.9460878,
      "osm_id": 5317574172,
      "osm_type": "node",
      "address": null,
      "road_geometry": null
    },
    {
      "name": "TD Bank",
      "category": [
        "amenity.bank"
      ],
      "lat": 40.8073876,
      "lon": -73.9461497,
      "osm_id": 5317574174,
      "osm_type": "node",
      "address": null,
      "road_geometry": null
    },
    {
      "name": "CityMD",
      "category": [
        "amenity.clinic"
      ],
      "lat": 40.8074566,
      "lon": -73.9452125,
      "osm_id": 5855850397,
      "osm_type": "node",
      "address": "West 125th Street",
      "road_geometry": null
    },
    {
      "name": "Rite Aid",
      "category": [
        "amenity.pharmacy"
      ],
      "lat": 40.8072317,
      "lon": -73.9437819,
      "osm_id": 5972702850,
      "osm_type": "node",
      "address": "West 125th Street",
      "road_geometry": null
    },
    {
      "name": "Taste Harlem Tour",
      "category": [
        "tourism.attraction"
      ],
      "lat": 40.8086259,
      "lon": -73.9443965,
      "osm_id": 6622078088,
      "osm_type": "node",
      "address": null,
      "road_geometry": null
    },
    {
      "name": "Golden Ice Jewlry",
      "category": [
        "shop.jewelry"
      ],
      "lat": 40.8075171,
      "lon": -73.9452848,
      "osm_id": 6680394974,
      "osm_type": "node",
      "address": "West 125th Street",
      "road_geometry": null
    },
    {
      "name": "Chipotle",
      "category": [
        "amenity.fast_food"
      ],
      "lat": 40.8073872,
      "lon": -73.9449972,
      "osm_id": 6680604278,
      "osm_type": "node",
      "address": "West 125th Street",
      "road_geometry": null
    },
    {
      "name": "Lease With Bad Credit",
      "category": [
        "shop.car"
      ],
      "lat": 40.8080836,
      "lon": -73.943588,
      "osm_id": 6825047287,
      "osm_type": "node",
      "address": "West 126th Street",
      "road_geometry": null
    },
    {
      "name": "Babbalucci",
      "category": [
        "amenity.restaurant"
      ],
      "lat": 40.8088971,
      "lon": -73.9450332,
      "osm_id": 7554344636,
      "osm_type": "node",
      "address": "Malcolm X Boulevard",
      "road_geometry": null
    },
    {
      "name": "Chopped Cheese",
      "category": [
        "amenity.fast_food"
      ],
      "lat": 40.8074502,
      "lon": -73.9453853,
      "osm_id": 10969584343,
      "osm_type": "node",
      "address": "Malcolm X Boulevard",
      "road_geometry": null
    },
    {
      "name": "Bath & Body Works",
      "category": [
        "shop.cosmetics"
      ],
      "lat": 40.8079456,
      "lon": -73.9463634,
      "osm_id": 12887631687,
      "osm_type": "node",
      "address": null,
      "road_geometry": null
    },
    {
      "name": "Sephora",
      "category": [
        "shop.cosmetics"
      ],
      "lat": 40.8082993,
      "lon": -73.9462173,
      "osm_id": 12887631688,
      "osm_type": "node",
      "address": null,
      "road_geometry": null
    },
    {
      "name": "Pandora",
      "category": [
        "shop.jewelry"
      ],
      "lat": 40.8083439,
      "lon": -73.9463436,
      "osm_id": 12887631689,
      "osm_type": "node",
      "address": null,
      "road_geometry": null
    },
    {
      "name": "304 Mini Mart Corp",
      "category": [
        "shop.convenience"
      ],
      "lat": 40.8078918,
      "lon": -73.9450326,
      "osm_id": 12887631693,
      "osm_type": "node",
      "address": null,
      "road_geometry": null
    },
    {
      "name": "Teppanyaki One",
      "category": [
        "amenity.restaurant"
      ],
      "lat": 40.8070888,
      "lon": -73.9445455,
      "osm_id": 13136631202,
      "osm_type": "node",
      "address": "West 125th Street",
      "road_geometry": null
    },
    {
      "name": "Citi Bike - Lenox Ave & W 126 St",
      "category": [
        "amenity.bicycle_rental"
      ],
      "lat": 40.8084407,
      "lon": -73.94519,
      "osm_id": 13243811343,
      "osm_type": "node",
      "address": null,
      "road_geometry": null
    }
  ]
}