{
  "image": "dataset/images/90.png",
  "center_lat": 18.92112612612613,
  "center_lon": 72.83095221554726,
  "bbox": [
    72.8297617724378,
    18.92,
    72.83214265865671,
    18.922252252252253
  ],
  "unique_categories": [
    "amenity.restaurant",
    "tourism.hostel",
    "amenity.fast_food",
    "shop.pet",
    "amenity.post_office",
    "amenity.bank",
    "amenity.bus_station",
    "shop.shoes"
  ],
  "poi_count_per_category": {
    "amenity.restaurant": 2,
    "tourism.hostel": 1,
    "amenity.fast_food": 1,
    "shop.pet": 1,
    "amenity.post_office": 1,
    "amenity.bank": 1,
    "amenity.bus_station": 1,
    "shop.shoes": 2
  },
  "poi_count": 10,
  "pois": [
    {
      "name": "Kamat Restaurant",
      "category": [
        "amenity.restaurant"
      ],
      "lat": 18.9215278,
      "lon": 72.8312063,
      "osm_id": 670270299,
      "osm_type": "node",
      "address": null,
      "road_geometry": null
    },
    {
      "name": "Bata",
      "category": [
        "shop.shoes"
      ],
      "lat": 18.9201305,
      "lon": 72.8302145,
      "osm_id": 1544412336,
      "osm_type": "node",
      "address": null,
      "road_geometry": null
    },
    {
      "name": "Taj Mahal Sub Post Office 400001",
      "category": [
        "amenity.post_office"
      ],
      "lat": 18.9205619,
      "lon": 72.831554,
      "osm_id": 3276571075,
      "osm_type": "node",
      "address": null,
      "road_geometry": null
    },
    {
      "name": "Bademiya Restaurant",
      "category": [
        "amenity.fast_food"
      ],
      "lat": 18.9221604,
      "lon": 72.8319798,
      "osm_id": 3408261570,
      "osm_type": "node",
      "address": "Nowroji Ferdonji Street",
      "road_geometry": null
    },
    {
      "name": "Western Union",
      "category": [
        "amenity.bank"
      ],
      "lat": 18.9206019,
      "lon": 72.8314591,
      "osm_id": 4839324926,
      "osm_type": "node",
      "address": null,
      "road_geometry": null
    },
    {
      "name": "Bed & Breakfast at Colaba",
      "category": [
        "tourism.hostel"
      ],
      "lat": 18.9207351,
      "lon": 72.8306987,
      "osm_id": 5441002023,
      "osm_type": "node",
      "address": null,
      "road_geometry": null
    },
    {
      "name": "Food Inn",
      "category": [
        "amenity.restaurant"
      ],
      "lat": 18.9220889,
      "lon": 72.8313971,
      "osm_id": 7139457486,
      "osm_type": "node",
      "address": "Colaba Causeway",
      "road_geometry": null
    },
    {
      "name": "Colaba Bus Depot",
      "category": [
        "amenity.bus_station"
      ],
      "lat": 18.9209635,
      "lon": 72.8305483,
      "osm_id": 10257874073,
      "osm_type": "node",
      "address": null,
      "road_geometry": null
    },
    {
      "name": "Nutty's den",
      "category": [
        "shop.pet"
      ],
      "lat": 18.9209944,
      "lon": 72.8318415,
      "osm_id": 11278744520,
      "osm_type": "node",
      "address": null,
      "road_geometry": null
    },
    {
      "name": "Mochi",
      "category": [
        "shop.shoes"
      ],
      "lat": 18.9212225,
      "lon": 72.8309788,
      "osm_id": 12895361745,
      "osm_type": "node",
      "address": null,
      "road_geometry": null
    }
  ]
}