{
  "image": "dataset/images/91.png",
  "center_lat": 18.92112612612613,
  "center_lon": 72.83333310176616,
  "bbox": [
    72.83214265865671,
    18.92,
    72.83452354487561,
    18.922252252252253
  ],
  "unique_categories": [
    "amenity.pub",
    "amenity.restaurant",
    "amenity.cafe",
    "amenity.bar",
    "shop.leather",
    "shop.jewelry"
  ],
  "poi_count_per_category": {
    "amenity.pub": 1,
    "amenity.restaurant": 2,
    "amenity.cafe": 1,
    "amenity.bar": 1,
    "shop.leather": 1,
    "shop.jewelry": 1
  },
  "poi_count": 7,
  "pois": [
    {
      "name": "Busaba",
      "category": [
        "amenity.pub"
      ],
      "lat": 18.9222319,
      "lon": 72.8322099,
      "osm_id": 870445723,
      "osm_type": "node",
      "address": null,
      "road_geometry": null
    },
    {
      "name": "Starbucks",
      "category": [
        "amenity.cafe"
      ],
      "lat": 18.9214742,
      "lon": 72.8324799,
      "osm_id": 4342167989,
      "osm_type": "node",
      "address": "Ram mahal,Dinshaw Vacha Road",
      "road_geometry": null
    },
    {
      "name": "Papaya bistro",
      "category": [
        "amenity.restaurant"
      ],
      "lat": 18.9214456,
      "lon": 72.8322791,
      "osm_id": 4841716622,
      "osm_type": "node",
      "address": null,
      "road_geometry": null
    },
    {
      "name": "Nappa Dori",
      "category": [
        "shop.leather"
      ],
      "lat": 18.9217734,
      "lon": 72.8323925,
      "osm_id": 8084321641,
      "osm_type": "node",
      "address": "Boman Behram Road (Mere Weather Road)/Shri Boman Kawasji Boman Behram Marg (Mere Weather Road)",
      "road_geometry": null
    },
    {
      "name": "Colaba SOCIAL",
      "category": [
        "amenity.bar"
      ],
      "lat": 18.9217405,
      "lon": 72.8323576,
      "osm_id": 13227676860,
      "osm_type": "node",
      "address": "B.K. Boman Behram Road",
      "road_geometry": null
    },
    {
      "name": "Smoke House Deli",
      "category": [
        "amenity.restaurant"
      ],
      "lat": 18.9215619,
      "lon": 72.8322661,
      "osm_id": 13227676861,
      "osm_type": "node",
      "address": "B.K. Boman Behram Road",
      "road_geometry": null
    },
    {
      "name": "Zoya",
      "category": [
        "shop.jewelry"
      ],
      "lat": 18.9215653,
      "lon": 72.8332601,
      "osm_id": 13227690533,
      "osm_type": "node",
      "address": null,
      "road_geometry": null
    }
  ]
}