{
  "image": "dataset/images/960.png",
  "center_lat": 40.821396396396416,
  "center_lon": -73.95386947935253,
  "bbox": [
    -73.95535756066374,
    40.82027027027029,
    -73.95238139804133,
    40.82252252252255
  ],
  "unique_categories": [
    "amenity.bicycle_rental",
    "shop.deli",
    "highway.bus_stop",
    "railway.subway_entrance",
    "railway.stop",
    "railway.station",
    "amenity.fast_food",
    "amenity.restaurant",
    "shop.supermarket",
    "amenity.pharmacy"
  ],
  "poi_count_per_category": {
    "amenity.bicycle_rental": 1,
    "shop.deli": 1,
    "highway.bus_stop": 3,
    "railway.subway_entrance": 4,
    "railway.stop": 2,
    "railway.station": 1,
    "amenity.fast_food": 1,
    "amenity.restaurant": 2,
    "shop.supermarket": 2,
    "amenity.pharmacy": 1
  },
  "poi_count": 18,
  "pois": [
    {
      "name": "137th Street\u2013City College",
      "category": [
        "railway.stop"
      ],
      "lat": 40.820821,
      "lon": -73.9546588,
      "osm_id": 1638063667,
      "osm_type": "node",
      "address": null,
      "road_geometry": null
    },
    {
      "name": "Food Universe Marketplace",
      "category": [
        "shop.supermarket"
      ],
      "lat": 40.8219224,
      "lon": -73.9531711,
      "osm_id": 2603955336,
      "osm_type": "node",
      "address": "West 138th Street",
      "road_geometry": null
    },
    {
      "name": "Duane Reade",
      "category": [
        "amenity.pharmacy"
      ],
      "lat": 40.8217049,
      "lon": -73.9542468,
      "osm_id": 2603955339,
      "osm_type": "node",
      "address": "Broadway",
      "road_geometry": null
    },
    {
      "name": "La Esquina del Salmon",
      "category": [
        "amenity.restaurant"
      ],
      "lat": 40.8214023,
      "lon": -73.954469,
      "osm_id": 2603955421,
      "osm_type": "node",
      "address": null,
      "road_geometry": null
    },
    {
      "name": "Broadway & 137th Street at Northeast Corner",
      "category": [
        "railway.subway_entrance"
      ],
      "lat": 40.8213944,
      "lon": -73.9539059,
      "osm_id": 3584389442,
      "osm_type": "node",
      "address": null,
      "road_geometry": null
    },
    {
      "name": "Broadway & 137th Street at Northeast Corner",
      "category": [
        "railway.subway_entrance"
      ],
      "lat": 40.8214578,
      "lon": -73.9538619,
      "osm_id": 3584389443,
      "osm_type": "node",
      "address": null,
      "road_geometry": null
    },
    {
      "name": "Broadway & 137th Street at Northwest Corner",
      "category": [
        "railway.subway_entrance"
      ],
      "lat": 40.8215847,
      "lon": -73.9542252,
      "osm_id": 3584389444,
      "osm_type": "node",
      "address": null,
      "road_geometry": null
    },
    {
      "name": "Broadway & 137th Street at Southwest Corner",
      "category": [
        "railway.subway_entrance"
      ],
      "lat": 40.8213577,
      "lon": -73.9544124,
      "osm_id": 3584389445,
      "osm_type": "node",
      "address": null,
      "road_geometry": null
    },
    {
      "name": "Broadway & West 136th Street",
      "category": [
        "highway.bus_stop"
      ],
      "lat": 40.8205948,
      "lon": -73.9545383,
      "osm_id": 4284126290,
      "osm_type": "node",
      "address": null,
      "road_geometry": null
    },
    {
      "name": "137th Street\u2013City College",
      "category": [
        "railway.station"
      ],
      "lat": 40.8214204,
      "lon": -73.9541465,
      "osm_id": 4459312801,
      "osm_type": "node",
      "address": null,
      "road_geometry": null
    },
    {
      "name": "137th Street\u2013City College",
      "category": [
        "railway.stop"
      ],
      "lat": 40.8220786,
      "lon": -73.9536378,
      "osm_id": 4460385034,
      "osm_type": "node",
      "address": null,
      "road_geometry": null
    },
    {
      "name": "Golden Deli",
      "category": [
        "shop.supermarket"
      ],
      "lat": 40.8210794,
      "lon": -73.9547411,
      "osm_id": 5781374053,
      "osm_type": "node",
      "address": null,
      "road_geometry": null
    },
    {
      "name": "Broadway & West 137th Street",
      "category": [
        "highway.bus_stop"
      ],
      "lat": 40.8212578,
      "lon": -73.9540172,
      "osm_id": 6261897500,
      "osm_type": "node",
      "address": null,
      "road_geometry": null
    },
    {
      "name": "Broadway & West 138th Street",
      "category": [
        "highway.bus_stop"
      ],
      "lat": 40.8218586,
      "lon": -73.9540386,
      "osm_id": 6261898464,
      "osm_type": "node",
      "address": null,
      "road_geometry": null
    },
    {
      "name": "Chipotle",
      "category": [
        "amenity.fast_food"
      ],
      "lat": 40.8220128,
      "lon": -73.9533003,
      "osm_id": 10177409691,
      "osm_type": "node",
      "address": "Broadway",
      "road_geometry": null
    },
    {
      "name": "Golden Deli",
      "category": [
        "shop.deli"
      ],
      "lat": 40.8213859,
      "lon": -73.9544803,
      "osm_id": 10177409692,
      "osm_type": "node",
      "address": null,
      "road_geometry": null
    },
    {
      "name": "Flor De Broadway Restaurant",
      "category": [
        "amenity.restaurant"
      ],
      "lat": 40.8218738,
      "lon": -73.9541186,
      "osm_id": 10177409693,
      "osm_type": "node",
      "address": null,
      "road_geometry": null
    },
    {
      "name": "Citi Bike - Broadway & W 138 St",
      "category": [
        "amenity.bicycle_rental"
      ],
      "lat": 40.8218222,
      "lon": -73.9535236,
      "osm_id": 13226766134,
      "osm_type": "node",
      "address": null,
      "road_geometry": null
    }
  ]
}